Timestamp,forward_vel_cmd,steering_vel_cmd,power_mW,current_mA,busVoltage_V,shuntVoltage_mV,energy,charge,dieTemp,Left_Stick_X,Left_Stick_Y,Right_Stick_X,Right_Stick_Y,Button_0,Button_1,Button_2,Button_3,Button_4,Button_5,Button_6,Button_7,Button_8,Button_9,Button_10,Button_11,Button_12,Button_13,Button_14,Button_15,mocap_velocity,mocap_x,mocap_y,mocap_z,mocap_roll,mocap_pitch,mocap_yaw_raw,forward_vel_cmd,steering_vel_cmd,left_wheel_vel,right_wheel_vel,ppo_control_active,heading_error_rad,current_heading_rad,distance_to_target,relative_x,relative_y,target_relative_x,target_relative_y,current_waypoint_idx
2025-12-05 17:06:49.699616,0.2,0.2,14231.7,1197.8,12.2,17.5,3821.2,312.2,25.8,0.00,0.00,0.00,0.00,0,0,0,0,0,0,0,0,0,0,0,0,0,0,0,0,0.0,0.08074519783258438,2.614788770675659,0.19715538620948792,1.149776321043405,2.063461798047634,1.4532983304054206,0.2,0.2,1.0,-0.02499999999999991,1.0,-0.6749858666204915,1.4532983304054206,3.397355796248758,0.00013370811939239502,-0.00021386146545410156,2.419388510286808,2.3849973678588867,0
2025-12-05 17:06:49.789537,0.2,0.2,14527.3,1193.4,12.2,17.9,3822.1,312.3,25.8,0.00,0.00,0.00,0.00,0,0,0,0,0,0,0,0,0,0,0,0,0,0,0,0,0.0,0.08076770603656769,2.614762306213379,0.19717206060886383,1.1464935473828848,2.0641352371604893,1.4555402078544244,0.2,0.2,1.0,-0.02499999999999991,1.0,-0.6772175455995058,1.4555402078544244,3.3973583484843175,0.0001562163233757019,-0.000240325927734375,2.419388510286808,2.3849973678588867,0
2025-12-05 17:06:49.821025,0.2,0.2,14402.8,1112.1,12.2,17.7,3822.9,312.3,25.8,0.00,0.00,0.00,0.00,0,0,0,0,0,0,0,0,0,0,0,0,0,0,0,0,0.0,0.08076770603656769,2.614762306213379,0.19717206060886383,1.1464935473828848,2.0641352371604893,1.4555402078544244,0.2,0.2,1.0,-0.02499999999999991,1.0,-0.6772175455995058,1.4555402078544244,3.3973583484843175,0.0001562163233757019,-0.000240325927734375,2.419388510286808,2.3849973678588867,0
2025-12-05 17:06:49.894169,0.2,0.2,14835.7,1218.9,12.2,18.3,3823.8,312.4,25.8,0.00,0.00,0.00,0.00,0,0,0,0,0,0,0,0,0,0,0,0,0,0,0,0,0.0,0.0807277038693428,2.6148054599761963,0.19715210795402527,1.1489528069994956,2.0675024736530405,1.4467776506699792,0.2,0.2,1.0,-0.02499999999999991,1.0,-0.6684723002330237,1.4467776506699792,3.3973565365714364,0.00011621415615081787,-0.0001971721649169922,2.419388510286808,2.3849973678588867,0
2025-12-05 17:06:49.925402,0.2,0.2,14007.7,1351.1,12.2,17.3,3824.7,312.5,25.8,0.00,0.00,0.00,0.00,0,0,0,0,0,0,0,0,0,0,0,0,0,0,0,0,0.0,0.0807277038693428,2.6148054599761963,0.19715210795402527,1.1489528069994956,2.0675024736530405,1.4467776506699792,0.2,0.2,1.0,-0.02499999999999991,1.0,-0.6684723002330237,1.4467776506699792,3.3973565365714364,0.00011621415615081787,-0.0001971721649169922,2.419388510286808,2.3849973678588867,0
2025-12-05 17:06:49.994708,0.2,0.2,14390.5,1182.4,12.2,17.7,3825.6,312.5,25.8,0.00,0.00,0.00,0.00,0,0,0,0,0,0,0,0,0,0,0,0,0,0,0,0,0.0,0.08064749836921692,2.614868640899658,0.19709309935569763,1.1708772813516692,2.0533316770994303,1.438642715596682,0.2,0.2,1.0,-0.02499999999999991,1.0,-0.6603671828125586,1.438642715596682,3.397369295103341,3.600865602493286e-05,-0.00013399124145507812,2.419388510286808,2.3849973678588867,0
2025-12-05 17:06:50.197729,0.2,0.2,15069.6,1238.1,12.2,18.6,3826.4,312.6,25.8,0.00,0.00,0.00,0.00,0,0,0,0,0,0,0,0,0,0,0,0,0,0,0,0,0.0,0.08062544465065002,2.6149325370788574,0.1970120668411255,1.191201214183376,2.0374807702605784,1.4490591630979477,0.2,0.2,1.0,-0.02499999999999991,1.0,-0.670801581106942,1.4490591630979477,3.397340142193148,1.395493745803833e-05,-7.009506225585938e-05,2.419388510286808,2.3849973678588867,0
2025-12-05 17:06:50.229259,0.2,0.2,14813.8,1217.1,12.2,18.3,3827.3,312.7,25.8,0.00,0.00,0.00,0.00,0,0,0,0,0,0,0,0,0,0,0,0,0,0,0,0,0.0,0.08062544465065002,2.6149325370788574,0.1970120668411255,1.191201214183376,2.0374807702605784,1.4490591630979477,0.2,0.2,1.0,-0.02499999999999991,1.0,-0.670801581106942,1.4490591630979477,3.397340142193148,1.395493745803833e-05,-7.009506225585938e-05,2.419388510286808,2.3849973678588867,0
2025-12-05 17:06:50.259900,0.2,0.2,15786.6,1297.2,12.2,19.5,3828.2,312.8,25.8,0.00,0.00,0.00,0.00,0,0,0,0,0,0,0,0,0,0,0,0,0,0,0,0,0.0,0.08062544465065002,2.6149325370788574,0.1970120668411255,1.191201214183376,2.0374807702605784,1.4490591630979477,0.2,0.2,1.0,-0.02499999999999991,1.0,-0.670801581106942,1.4490591630979477,3.397340142193148,1.395493745803833e-05,-7.009506225585938e-05,2.419388510286808,2.3849973678588867,0
2025-12-05 17:06:50.290311,0.2,0.2,16158.8,1327.9,12.2,19.9,3829.2,312.8,25.8,0.00,0.00,0.00,0.00,0,0,0,0,0,0,0,0,0,0,0,0,0,0,0,0,0.0,0.08063603937625885,2.614941358566284,0.19702069461345673,1.1930069764863869,2.037661854668947,1.4489764376539274,0.2,0.2,1.0,-0.02499999999999991,1.0,-0.6707185154535829,1.4489764376539274,3.3973264042541804,2.4549663066864014e-05,-6.127357482910156e-05,2.419388510286808,2.3849973678588867,0
2025-12-05 17:06:50.321734,0.2,0.2,16406.0,1348.6,12.2,20.2,3830.2,312.9,25.8,0.00,0.00,0.00,0.00,0,0,0,0,0,0,0,0,0,0,0,0,0,0,0,0,0.0,0.08063603937625885,2.614941358566284,0.19702069461345673,1.1930069764863869,2.037661854668947,1.4489764376539274,0.2,0.2,1.0,-0.02499999999999991,1.0,-0.6707185154535829,1.4489764376539274,3.3973264042541804,2.4549663066864014e-05,-6.127357482910156e-05,2.419388510286808,2.3849973678588867,0
2025-12-05 17:06:50.411776,0.2,0.2,17041.7,1401.1,12.2,21.0,3831.2,313.0,25.8,0.00,0.00,0.00,0.00,0,0,0,0,0,0,0,0,0,0,0,0,0,0,0,0,0.0,0.08070927858352661,2.61484432220459,0.1971225142478943,1.1626523501674808,2.0583236323435434,1.449241842172917,0.2,0.2,1.0,-0.02499999999999991,1.0,-0.6709484451585088,1.449241842172917,3.3973423733929913,9.778887033462524e-05,-0.0001583099365234375,2.419388510286808,2.3849973678588867,0
2025-12-05 17:06:50.442104,0.2,0.2,17462.7,1448.8,12.2,21.5,3832.2,313.1,25.8,0.00,0.00,0.00,0.00,0,0,0,0,0,0,0,0,0,0,0,0,0,0,0,0,0.0,0.08070927858352661,2.61484432220459,0.1971225142478943,1.1626523501674808,2.0583236323435434,1.449241842172917,0.2,0.2,1.0,-0.02499999999999991,1.0,-0.6709484451585088,1.449241842172917,3.3973423733929913,9.778887033462524e-05,-0.0001583099365234375,2.419388510286808,2.3849973678588867,0
2025-12-05 17:06:50.473440,0.2,0.2,17348.2,1426.4,12.2,21.4,3833.3,313.2,25.8,0.00,0.00,0.00,0.00,0,0,0,0,0,0,0,0,0,0,0,0,0,0,0,0,0.0,0.08070927858352661,2.61484432220459,0.1971225142478943,1.1626523501674808,2.0583236323435434,1.449241842172917,0.2,0.2,1.0,-0.02499999999999991,1.0,-0.6709484451585088,1.449241842172917,3.3973423733929913,9.778887033462524e-05,-0.0001583099365234375,2.419388510286808,2.3849973678588867,0
2025-12-05 17:06:50.513129,0.2,0.2,16700.4,1372.7,12.2,20.6,3834.2,313.3,25.8,0.00,0.00,0.00,0.00,0,0,0,0,0,0,0,0,0,0,0,0,0,0,0,0,0.0,0.08072149753570557,2.614804983139038,0.1971575915813446,1.1456663542924,2.067069679050711,1.4479497073463001,0.2,0.2,1.0,-0.02499999999999991,1.0,-0.6696455395170297,1.4479497073463001,3.3973612909056703,0.00011000782251358032,-0.0001976490020751953,2.419388510286808,2.3849973678588867,0
2025-12-05 17:06:50.611859,0.2,0.2,16175.8,1329.6,12.2,19.9,3835.2,313.3,25.8,0.00,0.00,0.00,0.00,0,0,0,0,0,0,0,0,0,0,0,0,0,0,0,0,0.0,0.08071406185626984,2.6148228645324707,0.19713956117630005,1.14959158829322,2.0672391432803447,1.447579476574262,0.2,0.2,1.0,-0.02499999999999991,1.0,-0.6692805933932103,1.447579476574262,3.3973540318985123,0.00010257214307785034,-0.00017976760864257812,2.419388510286808,2.3849973678588867,0
2025-12-05 17:06:50.752130,0.2,0.2,15959.8,1311.7,12.2,19.7,3836.2,313.4,25.8,0.00,0.00,0.00,0.00,0,0,0,0,0,0,0,0,0,0,0,0,0,0,0,0,0.0,0.08065806329250336,2.61487078666687,0.19709181785583496,1.1700947502361854,2.0589339841191268,1.4417089796512066,0.2,0.2,1.0,-0.02499999999999991,1.0,-0.6634317134403825,1.4417089796512066,3.397360265118596,4.657357931137085e-05,-0.00013184547424316406,2.419388510286808,2.3849973678588867,0
2025-12-05 17:06:50.815564,0.2,0.2,15545.5,1277.9,12.2,19.2,3837.1,313.5,25.8,0.00,0.00,0.00,0.00,0,0,0,0,0,0,0,0,0,0,0,0,0,0,0,0,0.0,0.0806344598531723,2.6149187088012695,0.1970205307006836,1.1878038948807599,2.0458713085816695,1.447677445836927,0.2,0.2,1.0,-0.02499999999999991,1.0,-0.6694151022814883,1.447677445836927,3.3973434301636556,2.2970139980316162e-05,-8.392333984375e-05,2.419388510286808,2.3849973678588867,0
2025-12-05 17:06:50.845820,0.2,0.2,15387.0,1264.6,12.2,19.0,3838.0,313.6,25.8,0.00,0.00,0.00,0.00,0,0,0,0,0,0,0,0,0,0,0,0,0,0,0,0,0.0,0.0806344598531723,2.6149187088012695,0.1970205307006836,1.1878038948807599,2.0458713085816695,1.447677445836927,0.2,0.2,1.0,-0.02499999999999991,1.0,-0.6694151022814883,1.447677445836927,3.3973434301636556,2.2970139980316162e-05,-8.392333984375e-05,2.419388510286808,2.3849973678588867,0
2025-12-05 17:06:50.877136,0.2,0.2,16222.8,1333.5,12.2,20.0,3838.9,313.7,25.8,0.00,0.00,0.00,0.00,0,0,0,0,0,0,0,0,0,0,0,0,0,0,0,0,0.0,0.0806344598531723,2.6149187088012695,0.1970205307006836,1.1878038948807599,2.0458713085816695,1.447677445836927,0.2,0.2,1.0,-0.02499999999999991,1.0,-0.6694151022814883,1.447677445836927,3.3973434301636556,2.2970139980316162e-05,-8.392333984375e-05,2.419388510286808,2.3849973678588867,0
2025-12-05 17:06:50.907674,0.2,0.2,17168.8,1411.8,12.2,21.2,3839.9,313.7,25.8,0.00,0.00,0.00,0.00,0,0,0,0,0,0,0,0,0,0,0,0,0,0,0,0,0.0,0.0806390643119812,2.614924669265747,0.19703082740306854,1.185132935578952,2.045215874541469,1.4460091095913583,0.2,0.2,1.0,-0.02499999999999991,1.0,-0.6677470639529632,1.4460091095913583,3.3973359666671636,2.7574598789215088e-05,-7.796287536621094e-05,2.419388510286808,2.3849973678588867,0
2025-12-05 17:06:50.945021,0.2,0.2,16615.1,1366.1,12.2,20.5,3840.9,313.8,25.8,0.00,0.00,0.00,0.00,0,0,0,0,0,0,0,0,0,0,0,0,0,0,0,0,0.0,0.0806390643119812,2.614924669265747,0.19703082740306854,1.185132935578952,2.045215874541469,1.4460091095913583,0.2,0.2,1.0,-0.02499999999999991,1.0,-0.6677470639529632,1.4460091095913583,3.3973359666671636,2.7574598789215088e-05,-7.796287536621094e-05,2.419388510286808,2.3849973678588867,0
2025-12-05 17:06:51.019563,0.2,0.2,16003.8,1315.6,12.2,19.7,3841.9,313.9,25.8,0.00,0.00,0.00,0.00,0,0,0,0,0,0,0,0,0,0,0,0,0,0,0,0,0.0,0.08065047115087509,2.614956855773926,0.1969960629940033,1.197881988252758,2.0399669765839805,1.4495388009194698,0.2,0.2,1.0,-0.02499999999999991,1.0,-0.6712811449487366,1.4495388009194698,3.3973052471866994,3.898143768310547e-05,-4.57763671875e-05,2.419388510286808,2.3849973678588867,0
2025-12-05 17:06:51.050195,0.2,0.2,15466.2,1271.4,12.2,19.1,3842.8,314.0,25.8,0.00,0.00,0.00,0.00,0,0,0,0,0,0,0,0,0,0,0,0,0,0,0,0,0.0,0.08065047115087509,2.614956855773926,0.1969960629940033,1.197881988252758,2.0399669765839805,1.4495388009194698,0.2,0.2,1.0,-0.02499999999999991,1.0,-0.6712811449487366,1.4495388009194698,3.3973052471866994,3.898143768310547e-05,-4.57763671875e-05,2.419388510286808,2.3849973678588867,0
2025-12-05 17:06:51.121416,0.2,0.2,16036.9,1318.3,12.2,19.8,3843.7,314.0,25.8,0.00,0.00,0.00,0.00,0,0,0,0,0,0,0,0,0,0,0,0,0,0,0,0,0.0,0.08065074682235718,2.6149280071258545,0.1970345824956894,1.18993055600132,2.0403614429965717,1.4505738199403648,0.2,0.2,1.0,-0.02499999999999991,1.0,-0.6723100598307532,1.4505738199403648,3.397325303830039,3.925710916519165e-05,-7.462501525878906e-05,2.419388510286808,2.3849973678588867,0
2025-12-05 17:06:51.157801,0.2,0.2,15331.5,1260.3,12.2,18.9,3844.6,314.1,25.8,0.00,0.00,0.00,0.00,0,0,0,0,0,0,0,0,0,0,0,0,0,0,0,0,0.0,0.08065074682235718,2.6149280071258545,0.1970345824956894,1.18993055600132,2.0403614429965717,1.4505738199403648,0.2,0.2,1.0,-0.02499999999999991,1.0,-0.6723100598307532,1.4505738199403648,3.397325303830039,3.925710916519165e-05,-7.462501525878906e-05,2.419388510286808,2.3849973678588867,0
2025-12-05 17:06:51.223972,0.2,0.2,15987.2,1314.3,12.2,19.7,3845.5,314.2,25.8,0.00,0.00,0.00,0.00,0,0,0,0,0,0,0,0,0,0,0,0,0,0,0,0,0.0,0.08066897094249725,2.614959239959717,0.19698616862297058,1.200747080570102,2.0374513302585253,1.4543599972383738,0.2,0.2,1.0,-0.02499999999999991,1.0,-0.6760990181136229,1.4543599972383738,3.3972903990112426,5.7481229305267334e-05,-4.3392181396484375e-05,2.419388510286808,2.3849973678588867,0
2025-12-05 17:06:51.425602,0.2,0.2,16285.5,1339.0,12.2,20.1,3846.5,314.3,25.8,0.00,0.00,0.00,0.00,0,0,0,0,0,0,0,0,0,0,0,0,0,0,0,0,0.0,0.08065038174390793,2.6149561405181885,0.1970205307006836,1.1887079899803228,2.0420764771491977,1.4492244200268445,0.2,0.2,1.0,-0.02499999999999991,1.0,-0.6709666326009402,1.4492244200268445,3.3973058129947313,3.889203071594238e-05,-4.649162292480469e-05,2.419388510286808,2.3849973678588867,0
2025-12-05 17:06:51.456564,0.2,0.2,16942.0,1393.0,12.2,20.9,3847.4,314.4,25.8,0.00,0.00,0.00,0.00,0,0,0,0,0,0,0,0,0,0,0,0,0,0,0,0,0.0,0.08065038174390793,2.6149561405181885,0.1970205307006836,1.1887079899803228,2.0420764771491977,1.4492244200268445,0.2,0.2,1.0,-0.02499999999999991,1.0,-0.6709666326009402,1.4492244200268445,3.3973058129947313,3.889203071594238e-05,-4.649162292480469e-05,2.419388510286808,2.3849973678588867,0
2025-12-05 17:06:51.487869,0.2,0.2,16443.2,1352.1,12.2,20.3,3848.4,314.4,25.8,0.00,0.00,0.00,0.00,0,0,0,0,0,0,0,0,0,0,0,0,0,0,0,0,0.0,0.08065038174390793,2.6149561405181885,0.1970205307006836,1.1887079899803228,2.0420764771491977,1.4492244200268445,0.2,0.2,1.0,-0.02499999999999991,1.0,-0.6709666326009402,1.4492244200268445,3.3973058129947313,3.889203071594238e-05,-4.649162292480469e-05,2.419388510286808,2.3849973678588867,0
2025-12-05 17:06:51.519187,0.2,0.2,14562.3,1196.9,12.2,18.0,3849.4,314.5,25.8,0.00,0.00,0.00,0.00,0,0,0,0,0,0,0,0,0,0,0,0,0,0,0,0,0.0,0.08063652366399765,2.6149404048919678,0.19703900814056396,1.1857954661141967,2.0397529737699642,1.448887738253994,0.2,0.2,1.0,-0.02499999999999991,1.0,-0.6706295160717066,1.448887738253994,3.397326728892221,2.5033950805664062e-05,-6.222724914550781e-05,2.419388510286808,2.3849973678588867,0
2025-12-05 17:06:51.550484,0.2,0.2,8847.4,1049.7,12.2,10.9,3850.1,314.6,25.8,0.00,0.00,0.00,0.00,0,0,0,0,0,0,0,0,0,0,0,0,0,0,0,0,0.0,0.08063652366399765,2.6149404048919678,0.19703900814056396,1.1857954661141967,2.0397529737699642,1.448887738253994,0.2,0.2,1.0,-0.02499999999999991,1.0,-0.6706295160717066,1.448887738253994,3.397326728892221,2.5033950805664062e-05,-6.222724914550781e-05,2.419388510286808,2.3849973678588867,0
2025-12-05 17:06:51.668138,0.2,0.2,10188.2,836.5,12.2,12.5,3850.7,314.6,25.8,0.00,0.00,0.00,0.00,0,0,0,0,0,0,0,0,0,0,0,0,0,0,0,0,0.0,0.08064379543066025,2.61494517326355,0.19703468680381775,1.191564223272507,2.0402440895542435,1.4514165685538138,0.2,0.2,1.0,-0.02499999999999991,1.0,-0.6731578432287899,1.4514165685538138,3.3973182028074733,3.230571746826172e-05,-5.745887756347656e-05,2.419388510286808,2.3849973678588867,0
2025-12-05 17:06:51.699377,0.2,0.2,13596.9,1117.4,12.2,16.8,3851.5,314.7,25.8,0.00,0.00,0.00,0.00,0,0,0,0,0,0,0,0,0,0,0,0,0,0,0,0,0.0,0.08064379543066025,2.61494517326355,0.19703468680381775,1.191564223272507,2.0402440895542435,1.4514165685538138,0.2,0.2,1.0,-0.02499999999999991,1.0,-0.6731578432287899,1.4514165685538138,3.3973182028074733,3.230571746826172e-05,-5.745887756347656e-05,2.419388510286808,2.3849973678588867,0
2025-12-05 17:06:51.730607,0.2,0.2,13916.3,1143.6,12.2,17.2,3852.3,314.7,25.8,0.00,0.00,0.00,0.00,0,0,0,0,0,0,0,0,0,0,0,0,0,0,0,0,0.0,0.08064457029104233,2.6149466037750244,0.19703352451324463,1.1904934123199031,2.0390571845655945,1.450383113982685,0.2,0.2,1.0,-0.02499999999999991,1.0,-0.6721245283964464,1.450383113982685,3.3973166467237794,3.30805778503418e-05,-5.602836608886719e-05,2.419388510286808,2.3849973678588867,0
2025-12-05 17:06:51.761802,0.2,0.2,12789.1,1050.8,12.2,15.8,3853.0,314.8,25.8,0.00,0.00,0.00,0.00,0,0,0,0,0,0,0,0,0,0,0,0,0,0,0,0,0.0,0.08064457029104233,2.6149466037750244,0.19703352451324463,1.1904934123199031,2.0390571845655945,1.450383113982685,0.2,0.2,1.0,-0.02499999999999991,1.0,-0.6721245283964464,1.450383113982685,3.3973166467237794,3.30805778503418e-05,-5.602836608886719e-05,2.419388510286808,2.3849973678588867,0
2025-12-05 17:06:51.838673,0.2,0.2,15566.5,1279.6,12.2,19.2,3853.9,314.9,25.8,0.00,0.00,0.00,0.00,0,0,0,0,0,0,0,0,0,0,0,0,0,0,0,0,0.0,0.0806373804807663,2.614945650100708,0.19703370332717896,1.1923220034293487,2.0346943772473027,1.4498676841716467,0.2,0.2,1.0,-0.02499999999999991,1.0,-0.6716103844186326,1.4498676841716467,3.3973224363755206,2.5890767574310303e-05,-5.698204040527344e-05,2.419388510286808,2.3849973678588867,0
2025-12-05 17:06:51.973764,0.2,0.2,12889.0,1059.1,12.2,15.9,3854.7,314.9,25.8,0.00,0.00,0.00,0.00,0,0,0,0,0,0,0,0,0,0,0,0,0,0,0,0,0.0,0.08065897971391678,2.614957094192505,0.1970129907131195,1.1960443291634617,2.0363327760202026,1.4534014100724004,0.2,0.2,1.0,-0.02499999999999991,1.0,-0.6751420458145562,1.4534014100724004,3.3972990205428735,4.749000072479248e-05,-4.553794860839844e-05,2.419388510286808,2.3849973678588867,0
2025-12-05 17:06:52.004237,0.2,0.2,12684.1,1042.1,12.2,15.6,3855.4,315.0,25.8,0.00,0.00,0.00,0.00,0,0,0,0,0,0,0,0,0,0,0,0,0,0,0,0,0.0,0.08065897971391678,2.614957094192505,0.1970129907131195,1.1960443291634617,2.0363327760202026,1.4534014100724004,0.2,0.2,1.0,-0.02499999999999991,1.0,-0.6751420458145562,1.4534014100724004,3.3972990205428735,4.749000072479248e-05,-4.553794860839844e-05,2.419388510286808,2.3849973678588867,0
2025-12-05 17:06:52.035430,0.2,0.2,12215.1,1003.3,12.2,15.1,3856.2,315.1,25.8,0.00,0.00,0.00,0.00,0,0,0,0,0,0,0,0,0,0,0,0,0,0,0,0,0.0,0.08065897971391678,2.614957094192505,0.1970129907131195,1.1960443291634617,2.0363327760202026,1.4534014100724004,0.2,0.2,1.0,-0.02499999999999991,1.0,-0.6751420458145562,1.4534014100724004,3.3972990205428735,4.749000072479248e-05,-4.553794860839844e-05,2.419388510286808,2.3849973678588867,0
2025-12-05 17:06:52.065709,0.2,0.2,14884.2,1223.7,12.2,18.4,3857.1,315.1,25.8,0.00,0.00,0.00,0.00,0,0,0,0,0,0,0,0,0,0,0,0,0,0,0,0,0.0,0.08065897971391678,2.614957094192505,0.1970129907131195,1.1960443291634617,2.0363327760202026,1.4534014100724004,0.2,0.2,1.0,-0.02499999999999991,1.0,-0.6751420458145562,1.4534014100724004,3.3972990205428735,4.749000072479248e-05,-4.553794860839844e-05,2.419388510286808,2.3849973678588867,0
2025-12-05 17:06:52.096922,0.2,0.2,15954.3,1311.9,12.2,19.7,3858.0,315.2,25.8,0.00,0.00,0.00,0.00,0,0,0,0,0,0,0,0,0,0,0,0,0,0,0,0,0.0,0.08065897971391678,2.614957094192505,0.1970129907131195,1.1960443291634617,2.0363327760202026,1.4534014100724004,0.2,0.2,1.0,-0.02499999999999991,1.0,-0.6751420458145562,1.4534014100724004,3.3972990205428735,4.749000072479248e-05,-4.553794860839844e-05,2.419388510286808,2.3849973678588867,0
2025-12-05 17:06:52.236734,0.2,0.2,12000.9,986.0,12.2,14.8,3858.8,315.3,25.8,0.00,0.00,0.00,0.00,0,0,0,0,0,0,0,0,0,0,0,0,0,0,0,0,0.0,0.08064931631088257,2.6149356365203857,0.1970238983631134,1.190905397763153,2.0429951981861576,1.4493424145703315,0.2,0.2,1.0,-0.02499999999999991,1.0,-0.6710805493154495,1.4493424145703315,3.3973209663803354,3.7826597690582275e-05,-6.699562072753906e-05,2.419388510286808,2.3849973678588867,0
2025-12-05 17:06:52.267319,0.2,0.2,8328.4,683.5,12.2,10.3,3859.3,315.3,25.8,0.00,0.00,0.00,0.00,0,0,0,0,0,0,0,0,0,0,0,0,0,0,0,0,0.0,0.08064931631088257,2.6149356365203857,0.1970238983631134,1.190905397763153,2.0429951981861576,1.4493424145703315,0.2,0.2,1.0,-0.02499999999999991,1.0,-0.6710805493154495,1.4493424145703315,3.3973209663803354,3.7826597690582275e-05,-6.699562072753906e-05,2.419388510286808,2.3849973678588867,0
2025-12-05 17:06:52.298259,0.2,0.2,14232.6,1169.9,12.2,17.5,3860.2,315.4,25.8,0.00,0.00,0.00,0.00,0,0,0,0,0,0,0,0,0,0,0,0,0,0,0,0,0.0,0.08064931631088257,2.6149356365203857,0.1970238983631134,1.190905397763153,2.0429951981861576,1.4493424145703315,0.2,0.2,1.0,-0.02499999999999991,1.0,-0.6710805493154495,1.4493424145703315,3.3973209663803354,3.7826597690582275e-05,-6.699562072753906e-05,2.419388510286808,2.3849973678588867,0
2025-12-05 17:06:52.352363,0.2,0.2,17700.8,1456.0,12.2,21.8,3861.2,315.5,25.8,0.00,0.00,0.00,0.00,0,0,0,0,0,0,0,0,0,0,0,0,0,0,0,0,0.0,0.08072850108146667,2.614835739135742,0.1971236765384674,1.1702281136012254,2.0547462878325247,1.4497566614212491,0.2,0.2,1.0,-0.02499999999999991,1.0,-0.6714574929536135,1.4497566614212491,3.397334710737767,0.00011701136827468872,-0.00016689300537109375,2.419388510286808,2.3849973678588867,0
2025-12-05 17:06:52.394023,0.2,0.2,14947.1,1228.7,12.2,18.4,3862.1,315.6,25.8,0.00,0.00,0.00,0.00,0,0,0,0,0,0,0,0,0,0,0,0,0,0,0,0,0.0,0.08072850108146667,2.614835739135742,0.1971236765384674,1.1702281136012254,2.0547462878325247,1.4497566614212491,0.2,0.2,1.0,-0.02499999999999991,1.0,-0.6714574929536135,1.4497566614212491,3.397334710737767,0.00011701136827468872,-0.00016689300537109375,2.419388510286808,2.3849973678588867,0
2025-12-05 17:06:52.655446,0.2,0.2,10450.9,858.2,12.2,12.9,3862.6,315.6,25.8,0.00,0.00,0.00,0.00,0,0,0,0,0,0,0,0,0,0,0,0,0,0,0,0,0.0,0.08075179904699326,2.614790678024292,0.19716253876686096,1.1504553774418305,2.0620560141847286,1.453847621828272,0.2,0.2,1.0,-0.02499999999999991,1.0,-0.6755341936591187,1.453847621828272,3.3973497564210513,0.00014030933380126953,-0.00021195411682128906,2.419388510286808,2.3849973678588867,0
2025-12-05 17:06:52.686045,0.2,0.2,10433.3,856.8,12.2,12.9,3863.2,315.6,25.8,0.00,0.00,0.00,0.00,0,0,0,0,0,0,0,0,0,0,0,0,0,0,0,0,0.0,0.08075179904699326,2.614790678024292,0.19716253876686096,1.1504553774418305,2.0620560141847286,1.453847621828272,0.2,0.2,1.0,-0.02499999999999991,1.0,-0.6755341936591187,1.453847621828272,3.3973497564210513,0.00014030933380126953,-0.00021195411682128906,2.419388510286808,2.3849973678588867,0
2025-12-05 17:06:52.716739,0.2,0.2,12549.9,1031.1,12.2,15.5,3863.9,315.7,25.8,0.00,0.00,0.00,0.00,0,0,0,0,0,0,0,0,0,0,0,0,0,0,0,0,0.0,0.08075179904699326,2.614790678024292,0.19716253876686096,1.1504553774418305,2.0620560141847286,1.453847621828272,0.2,0.2,1.0,-0.02499999999999991,1.0,-0.6755341936591187,1.453847621828272,3.3973497564210513,0.00014030933380126953,-0.00021195411682128906,2.419388510286808,2.3849973678588867,0
2025-12-05 17:06:52.747851,0.2,0.2,14287.4,1174.4,12.2,17.6,3864.7,315.8,25.8,0.00,0.00,0.00,0.00,0,0,0,0,0,0,0,0,0,0,0,0,0,0,0,0,0.0,0.08085538446903229,2.614683151245117,0.19723133742809296,1.1261780997192883,2.065770372940797,1.4657394029385582,0.2,0.2,1.0,-0.02499999999999991,1.0,-0.6873820302826729,1.4657394029385582,3.397351488999394,0.00024389475584030151,-0.00031948089599609375,2.419388510286808,2.3849973678588867,0
2025-12-05 17:06:52.778959,0.2,0.2,13856.7,1139.0,12.2,17.1,3865.6,315.8,25.8,0.00,0.00,0.00,0.00,0,0,0,0,0,0,0,0,0,0,0,0,0,0,0,0,0.0,0.08085538446903229,2.614683151245117,0.19723133742809296,1.1261780997192883,2.065770372940797,1.4657394029385582,0.2,0.2,1.0,-0.02499999999999991,1.0,-0.6873820302826729,1.4657394029385582,3.397351488999394,0.00024389475584030151,-0.00031948089599609375,2.419388510286808,2.3849973678588867,0
2025-12-05 17:06:52.810077,0.2,0.2,10297.9,845.8,12.2,12.7,3866.5,315.9,25.8,0.00,0.00,0.00,0.00,0,0,0,0,0,0,0,0,0,0,0,0,0,0,0,0,0.0,0.08085538446903229,2.614683151245117,0.19723133742809296,1.1261780997192883,2.065770372940797,1.4657394029385582,0.2,0.2,1.0,-0.02499999999999991,1.0,-0.6873820302826729,1.4657394029385582,3.397351488999394,0.00024389475584030151,-0.00031948089599609375,2.419388510286808,2.3849973678588867,0
2025-12-05 17:06:52.841206,0.2,0.2,11422.8,938.3,12.2,14.1,3867.1,316.0,25.8,0.00,0.00,0.00,0.00,0,0,0,0,0,0,0,0,0,0,0,0,0,0,0,0,0.0,0.08087506145238876,2.6146833896636963,0.1972326934337616,1.1230096951364414,2.06870795963542,1.467051562609086,0.2,0.2,1.0,-0.02499999999999991,1.0,-0.6886901733810401,1.467051562609086,3.3973373102842257,0.00026357173919677734,-0.0003192424774169922,2.419388510286808,2.3849973678588867,0
2025-12-05 17:06:52.871992,0.2,0.2,14765.7,1213.9,12.2,18.2,3867.9,316.0,25.8,0.00,0.00,0.00,0.00,0,0,0,0,0,0,0,0,0,0,0,0,0,0,0,0,0.0,0.08087506145238876,2.6146833896636963,0.1972326934337616,1.1230096951364414,2.06870795963542,1.467051562609086,0.2,0.2,1.0,-0.02499999999999991,1.0,-0.6886901733810401,1.467051562609086,3.3973373102842257,0.00026357173919677734,-0.0003192424774169922,2.419388510286808,2.3849973678588867,0
2025-12-05 17:06:52.964523,0.2,0.2,12837.2,1054.8,12.2,15.8,3868.7,316.1,25.8,0.00,0.00,0.00,0.00,0,0,0,0,0,0,0,0,0,0,0,0,0,0,0,0,0.0,0.08078453689813614,2.614750385284424,0.19716697931289673,1.1453094113122875,2.066628244939802,1.456349534788309,0.2,0.2,1.0,-0.02499999999999991,1.0,-0.6780208956737757,1.456349534788309,3.397354732937373,0.00017304718494415283,-0.0002522468566894531,2.419388510286808,2.3849973678588867,0
2025-12-05 17:06:52.995028,0.2,0.2,16019.2,1317.5,12.2,19.8,3869.6,316.2,25.8,0.00,0.00,0.00,0.00,0,0,0,0,0,0,0,0,0,0,0,0,0,0,0,0,0.0,0.08078453689813614,2.614750385284424,0.19716697931289673,1.1453094113122875,2.066628244939802,1.456349534788309,0.2,0.2,1.0,-0.02499999999999991,1.0,-0.6780208956737757,1.456349534788309,3.397354732937373,0.00017304718494415283,-0.0002522468566894531,2.419388510286808,2.3849973678588867,0
2025-12-05 17:06:53.068952,0.2,0.2,11986.3,984.7,12.2,14.8,3870.3,316.2,25.8,0.00,0.00,0.00,0.00,0,0,0,0,0,0,0,0,0,0,0,0,0,0,0,0,0.0,0.08068490028381348,2.6148571968078613,0.19710224866867065,1.1739605333417855,2.0564449922234305,1.445426879805325,0.2,0.2,1.0,-0.02499999999999991,1.0,-0.6671412192084184,1.445426879805325,3.3973506947817436,7.341057062149048e-05,-0.00014543533325195312,2.419388510286808,2.3849973678588867,0
2025-12-05 17:06:53.249764,0.2,0.2,12605.3,1035.8,12.2,15.5,3871.1,316.3,25.8,0.00,0.00,0.00,0.00,0,0,0,0,0,0,0,0,0,0,0,0,0,0,0,0,0.0,0.08058907091617584,2.614985704421997,0.19683131575584412,1.2855159382776304,1.987424847056811,1.4492702879881083,0.2,0.2,1.0,-0.02499999999999991,1.0,-0.6710313672121456,1.4492702879881083,3.3973287203156675,-2.24187970161438e-05,-1.6927719116210938e-05,2.419388510286808,2.3849973678588867,0
2025-12-05 17:06:53.281146,0.2,0.2,15308.0,1258.7,12.2,18.9,3872.0,316.4,25.8,0.00,0.00,0.00,0.00,0,0,0,0,0,0,0,0,0,0,0,0,0,0,0,0,0.0,0.08058907091617584,2.614985704421997,0.19683131575584412,1.2855159382776304,1.987424847056811,1.4492702879881083,0.2,0.2,1.0,-0.02499999999999991,1.0,-0.6710313672121456,1.4492702879881083,3.3973287203156675,-2.24187970161438e-05,-1.6927719116210938e-05,2.419388510286808,2.3849973678588867,0
2025-12-05 17:06:53.312479,0.2,0.2,16991.6,1325.8,12.2,21.0,3872.9,316.4,25.8,0.00,0.00,0.00,0.00,0,0,0,0,0,0,0,0,0,0,0,0,0,0,0,0,0.0,0.08058907091617584,2.614985704421997,0.19683131575584412,1.2855159382776304,1.987424847056811,1.4492702879881083,0.2,0.2,1.0,-0.02499999999999991,1.0,-0.6710313672121456,1.4492702879881083,3.3973287203156675,-2.24187970161438e-05,-1.6927719116210938e-05,2.419388510286808,2.3849973678588867,0
2025-12-05 17:06:53.343877,0.2,0.2,16026.2,1318.4,12.2,19.8,3874.0,316.5,25.8,0.00,0.00,0.00,0.00,0,0,0,0,0,0,0,0,0,0,0,0,0,0,0,0,0.0,0.08058907091617584,2.614985704421997,0.19683131575584412,1.2855159382776304,1.987424847056811,1.4492702879881083,0.2,0.2,1.0,-0.02499999999999991,1.0,-0.6710313672121456,1.4492702879881083,3.3973287203156675,-2.24187970161438e-05,-1.6927719116210938e-05,2.419388510286808,2.3849973678588867,0
2025-12-05 17:06:53.374784,0.2,0.2,17514.1,1205.6,12.2,21.6,3875.0,316.6,25.8,0.00,0.00,0.00,0.00,0,0,0,0,0,0,0,0,0,0,0,0,0,0,0,0,0.0,0.08063788712024689,2.6149346828460693,0.19699424505233765,1.193631392580026,2.0418237122821026,1.4485455796425395,0.2,0.2,1.0,-0.02499999999999991,1.0,-0.6702858762722981,1.4485455796425395,3.3973297750334104,2.6397407054901123e-05,-6.794929504394531e-05,2.419388510286808,2.3849973678588867,0
2025-12-05 17:06:53.575725,0.2,0.2,15139.4,1244.8,12.2,18.7,3875.8,316.7,25.8,0.00,0.00,0.00,0.00,0,0,0,0,0,0,0,0,0,0,0,0,0,0,0,0,0.0,0.08058985322713852,2.614955186843872,0.19682550430297852,1.2832186442919906,1.9923529742573456,1.446258721146167,0.2,0.2,1.0,-0.02499999999999991,1.0,-0.6680132416322608,1.446258721146167,3.3973495874093422,-2.1636486053466797e-05,-4.744529724121094e-05,2.419388510286808,2.3849973678588867,0
2025-12-05 17:06:53.606479,0.2,0.2,17003.6,1018.1,12.2,21.0,3876.6,316.8,25.8,0.00,0.00,0.00,0.00,0,0,0,0,0,0,0,0,0,0,0,0,0,0,0,0,0.0,0.08058985322713852,2.614955186843872,0.19682550430297852,1.2832186442919906,1.9923529742573456,1.446258721146167,0.2,0.2,1.0,-0.02499999999999991,1.0,-0.6680132416322608,1.446258721146167,3.3973495874093422,-2.1636486053466797e-05,-4.744529724121094e-05,2.419388510286808,2.3849973678588867,0
2025-12-05 17:06:53.637247,0.2,0.2,15034.8,1236.1,12.2,18.5,3877.6,316.8,25.8,0.00,0.00,0.00,0.00,0,0,0,0,0,0,0,0,0,0,0,0,0,0,0,0,0.0,0.08058985322713852,2.614955186843872,0.19682550430297852,1.2832186442919906,1.9923529742573456,1.446258721146167,0.2,0.2,1.0,-0.02499999999999991,1.0,-0.6680132416322608,1.446258721146167,3.3973495874093422,-2.1636486053466797e-05,-4.744529724121094e-05,2.419388510286808,2.3849973678588867,0
2025-12-05 17:06:53.667944,0.2,0.2,15790.0,1298.5,12.2,19.5,3878.5,316.9,25.8,0.00,0.00,0.00,0.00,0,0,0,0,0,0,0,0,0,0,0,0,0,0,0,0,0.0,0.0806238204240799,2.6148927211761475,0.1970055252313614,1.1940913275997744,2.0468022660384566,1.4430570926037198,0.2,0.2,1.0,-0.02499999999999991,1.0,-0.6647915002557316,1.4430570926037198,3.397369251317539,1.2330710887908936e-05,-0.00010991096496582031,2.419388510286808,2.3849973678588867,0
2025-12-05 17:06:53.698594,0.2,0.2,15057.8,1238.3,12.2,18.6,3879.4,317.0,25.8,0.00,0.00,0.00,0.00,0,0,0,0,0,0,0,0,0,0,0,0,0,0,0,0,0.0,0.0806238204240799,2.6148927211761475,0.1970055252313614,1.1940913275997744,2.0468022660384566,1.4430570926037198,0.2,0.2,1.0,-0.02499999999999991,1.0,-0.6647915002557316,1.4430570926037198,3.397369251317539,1.2330710887908936e-05,-0.00010991096496582031,2.419388510286808,2.3849973678588867,0
2025-12-05 17:06:53.729377,0.2,0.2,15352.7,1262.4,12.2,18.9,3880.3,317.1,25.8,0.00,0.00,0.00,0.00,0,0,0,0,0,0,0,0,0,0,0,0,0,0,0,0,0.0,0.0806238204240799,2.6148927211761475,0.1970055252313614,1.1940913275997744,2.0468022660384566,1.4430570926037198,0.2,0.2,1.0,-0.02499999999999991,1.0,-0.6647915002557316,1.4430570926037198,3.397369251317539,1.2330710887908936e-05,-0.00010991096496582031,2.419388510286808,2.3849973678588867,0
2025-12-05 17:06:53.784281,0.2,0.2,14572.9,1198.1,12.2,18.0,3881.2,317.1,25.8,0.00,0.00,0.00,0.00,0,0,0,0,0,0,0,0,0,0,0,0,0,0,0,0,0.0,0.08063521981239319,2.6148834228515625,0.19704586267471313,1.188138600271814,2.0458005834629396,1.4410232057326056,0.2,0.2,1.0,-0.02499999999999991,1.0,-0.6627533087212066,1.4410232057326056,3.3973676613225874,2.3730099201202393e-05,-0.00011920928955078125,2.419388510286808,2.3849973678588867,0
2025-12-05 17:06:53.815661,0.2,0.2,17153.3,1411.4,12.2,21.2,3882.2,317.2,25.8,0.00,0.00,0.00,0.00,0,0,0,0,0,0,0,0,0,0,0,0,0,0,0,0,0.0,0.08063521981239319,2.6148834228515625,0.19704586267471313,1.188138600271814,2.0458005834629396,1.4410232057326056,0.2,0.2,1.0,-0.02499999999999991,1.0,-0.6627533087212066,1.4410232057326056,3.3973676613225874,2.3730099201202393e-05,-0.00011920928955078125,2.419388510286808,2.3849973678588867,0
2025-12-05 17:06:53.886770,0.2,0.2,13757.3,1130.9,12.2,17.0,3883.0,317.3,25.8,0.00,0.00,0.00,0.00,0,0,0,0,0,0,0,0,0,0,0,0,0,0,0,0,0.0,0.08065201342105865,2.6149137020111084,0.19702206552028656,1.1916021211455052,2.0467828989664425,1.4448521243430523,0.2,0.2,1.0,-0.02499999999999991,1.0,-0.6665851039244892,1.4448521243430523,3.3973344446812908,4.05237078666687e-05,-8.893013000488281e-05,2.419388510286808,2.3849973678588867,0
2025-12-05 17:06:53.924475,0.2,0.2,13687.9,1125.2,12.2,16.9,3883.8,317.3,25.8,0.00,0.00,0.00,0.00,0,0,0,0,0,0,0,0,0,0,0,0,0,0,0,0,0.0,0.08065201342105865,2.6149137020111084,0.19702206552028656,1.1916021211455052,2.0467828989664425,1.4448521243430523,0.2,0.2,1.0,-0.02499999999999991,1.0,-0.6665851039244892,1.4448521243430523,3.3973344446812908,4.05237078666687e-05,-8.893013000488281e-05,2.419388510286808,2.3849973678588867,0
2025-12-05 17:06:53.989534,0.2,0.2,12987.4,1067.6,12.2,16.0,3884.6,317.4,25.8,0.00,0.00,0.00,0.00,0,0,0,0,0,0,0,0,0,0,0,0,0,0,0,0,0.0,0.08060076087713242,2.6149654388427734,0.1968480497598648,1.277730553984739,1.9950879127466667,1.4481624411812284,0.2,0.2,1.0,-0.02499999999999991,1.0,-0.6699168567071014,1.4481624411812284,3.39733462234481,-1.0728836059570312e-05,-3.719329833984375e-05,2.419388510286808,2.3849973678588867,0
2025-12-05 17:06:54.310250,0.2,0.2,12419.3,1020.7,12.2,15.3,3885.3,317.5,25.8,0.00,0.00,0.00,0.00,0,0,0,0,0,0,0,0,0,0,0,0,0,0,0,0,0.0,0.08065399527549744,2.614962100982666,0.1970084011554718,1.1959602447449003,2.038989355165167,1.4537021817772455,0.2,0.2,1.0,-0.02499999999999991,1.0,-0.6754448970532233,1.4537021817772455,3.397299055179781,4.250556230545044e-05,-4.0531158447265625e-05,2.419388510286808,2.3849973678588867,0
2025-12-05 17:06:54.341462,0.2,0.2,13039.2,1071.8,12.2,16.1,3886.1,317.5,25.8,0.00,0.00,0.00,0.00,0,0,0,0,0,0,0,0,0,0,0,0,0,0,0,0,0.0,0.08065399527549744,2.614962100982666,0.1970084011554718,1.1959602447449003,2.038989355165167,1.4537021817772455,0.2,0.2,1.0,-0.02499999999999991,1.0,-0.6754448970532233,1.4537021817772455,3.397299055179781,4.250556230545044e-05,-4.0531158447265625e-05,2.419388510286808,2.3849973678588867,0
2025-12-05 17:06:54.371869,0.2,0.2,14217.4,1169.0,12.2,17.5,3886.9,317.6,25.8,0.00,0.00,0.00,0.00,0,0,0,0,0,0,0,0,0,0,0,0,0,0,0,0,0.0,0.0806446447968483,2.614936590194702,0.19702182710170746,1.191000869686329,2.040069433569999,1.4493526938126102,0.2,0.2,1.0,-0.02499999999999991,1.0,-0.6710919938123403,1.4493526938126102,3.397323623610539,3.3155083656311035e-05,-6.604194641113281e-05,2.419388510286808,2.3849973678588867,0
2025-12-05 17:06:54.403031,0.2,0.2,10049.4,1294.7,12.2,12.4,3887.7,317.7,25.8,0.00,0.00,0.00,0.00,0,0,0,0,0,0,0,0,0,0,0,0,0,0,0,0,0.0,0.0806446447968483,2.614936590194702,0.19702182710170746,1.191000869686329,2.040069433569999,1.4493526938126102,0.2,0.2,1.0,-0.02499999999999991,1.0,-0.6710919938123403,1.4493526938126102,3.397323623610539,3.3155083656311035e-05,-6.604194641113281e-05,2.419388510286808,2.3849973678588867,0
2025-12-05 17:06:54.434328,0.2,0.2,13829.2,1136.9,12.2,17.1,3888.5,317.7,25.8,0.00,0.00,0.00,0.00,0,0,0,0,0,0,0,0,0,0,0,0,0,0,0,0,0.0,0.0806446447968483,2.614936590194702,0.19702182710170746,1.191000869686329,2.040069433569999,1.4493526938126102,0.2,0.2,1.0,-0.02499999999999991,1.0,-0.6710919938123403,1.4493526938126102,3.397323623610539,3.3155083656311035e-05,-6.604194641113281e-05,2.419388510286808,2.3849973678588867,0
2025-12-05 17:06:54.465671,0.2,0.2,11479.8,943.2,12.2,14.1,3889.2,317.8,25.8,0.00,0.00,0.00,0.00,0,0,0,0,0,0,0,0,0,0,0,0,0,0,0,0,0.0,0.0806446447968483,2.614936590194702,0.19702182710170746,1.191000869686329,2.040069433569999,1.4493526938126102,0.2,0.2,1.0,-0.02499999999999991,1.0,-0.6710919938123403,1.4493526938126102,3.397323623610539,3.3155083656311035e-05,-6.604194641113281e-05,2.419388510286808,2.3849973678588867,0
2025-12-05 17:06:54.497044,0.2,0.2,16135.4,1327.0,12.2,19.9,3890.2,317.9,25.8,0.00,0.00,0.00,0.00,0,0,0,0,0,0,0,0,0,0,0,0,0,0,0,0,0.0,0.08063497394323349,2.614914894104004,0.1970251351594925,1.1848664915464804,2.045761154977977,1.4444942507321183,0.2,0.2,1.0,-0.02499999999999991,1.0,-0.6662310013251135,1.4444942507321183,3.397345742145414,2.3484230041503906e-05,-8.7738037109375e-05,2.419388510286808,2.3849973678588867,0
2025-12-05 17:06:54.528371,0.2,0.2,7062.6,579.7,12.2,8.7,3890.6,317.9,25.8,0.00,0.00,0.00,0.00,0,0,0,0,0,0,0,0,0,0,0,0,0,0,0,0,0.0,0.08063497394323349,2.614914894104004,0.1970251351594925,1.1848664915464804,2.045761154977977,1.4444942507321183,0.2,0.2,1.0,-0.02499999999999991,1.0,-0.6662310013251135,1.4444942507321183,3.397345742145414,2.3484230041503906e-05,-8.7738037109375e-05,2.419388510286808,2.3849973678588867,0
2025-12-05 17:06:54.561435,0.2,0.2,12763.0,1049.0,12.2,15.7,3891.3,318.0,25.8,0.00,0.00,0.00,0.00,0,0,0,0,0,0,0,0,0,0,0,0,0,0,0,0,0.0,0.08063497394323349,2.614914894104004,0.1970251351594925,1.1848664915464804,2.045761154977977,1.4444942507321183,0.2,0.2,1.0,-0.02499999999999991,1.0,-0.6662310013251135,1.4444942507321183,3.397345742145414,2.3484230041503906e-05,-8.7738037109375e-05,2.419388510286808,2.3849973678588867,0
2025-12-05 17:06:54.604915,0.2,0.2,12362.7,960.5,12.2,15.2,3892.0,318.0,25.8,0.00,0.00,0.00,0.00,0,0,0,0,0,0,0,0,0,0,0,0,0,0,0,0,0.0,0.08063497394323349,2.614914894104004,0.1970251351594925,1.1848664915464804,2.045761154977977,1.4444942507321183,0.2,0.2,1.0,-0.02499999999999991,1.0,-0.6662310013251135,1.4444942507321183,3.397345742145414,2.3484230041503906e-05,-8.7738037109375e-05,2.419388510286808,2.3849973678588867,0
