Timestamp,forward_vel_cmd,steering_vel_cmd,power_mW,current_mA,busVoltage_V,shuntVoltage_mV,energy,charge,dieTemp,Left_Stick_X,Left_Stick_Y,Right_Stick_X,Right_Stick_Y,Button_0,Button_1,Button_2,Button_3,Button_4,Button_5,Button_6,Button_7,Button_8,Button_9,Button_10,Button_11,Button_12,Button_13,Button_14,Button_15,mocap_velocity,mocap_x,mocap_y,mocap_z,mocap_roll,mocap_pitch,mocap_yaw_raw,forward_vel_cmd,steering_vel_cmd,left_wheel_vel,right_wheel_vel,ppo_control_active,heading_error_rad,current_heading_rad,distance_to_target,relative_x,relative_y,target_relative_x,target_relative_y,current_waypoint_idx
2025-12-05 17:07:04.948082,0.2,0.2,13746.3,1214.6,12.1,17.0,4035.0,329.8,25.9,0.00,0.00,0.00,0.00,0,0,0,0,0,0,0,0,0,0,0,0,0,0,0,0,0.0,0.08062535524368286,2.6149089336395264,0.19702985882759094,1.1871025300094575,2.0438327557208047,1.4439832145820635,0.2,0.2,1.0,-0.02499999999999991,1.0,-0.6657207034250157,1.4439832145820635,3.397356776454645,1.3865530490875244e-05,-9.369850158691406e-05,2.419388510286808,2.3849973678588867,0
2025-12-05 17:07:04.979520,0.2,0.2,12468.5,1026.1,12.2,15.4,4035.9,329.9,25.9,0.00,0.00,0.00,0.00,0,0,0,0,0,0,0,0,0,0,0,0,0,0,0,0,0.0,0.08062535524368286,2.6149089336395264,0.19702985882759094,1.1871025300094575,2.0438327557208047,1.4439832145820635,0.2,0.2,1.0,-0.02499999999999991,1.0,-0.6657207034250157,1.4439832145820635,3.397356776454645,1.3865530490875244e-05,-9.369850158691406e-05,2.419388510286808,2.3849973678588867,0
2025-12-05 17:07:05.010811,0.2,0.2,8056.4,1129.1,12.1,9.9,4036.6,329.9,25.9,0.00,0.00,0.00,0.00,0,0,0,0,0,0,0,0,0,0,0,0,0,0,0,0,0.0,0.08062535524368286,2.6149089336395264,0.19702985882759094,1.1871025300094575,2.0438327557208047,1.4439832145820635,0.2,0.2,1.0,-0.02499999999999991,1.0,-0.6657207034250157,1.4439832145820635,3.397356776454645,1.3865530490875244e-05,-9.369850158691406e-05,2.419388510286808,2.3849973678588867,0
2025-12-05 17:07:05.042118,0.2,0.2,12702.6,1045.3,12.2,15.7,4037.2,330.0,25.9,0.00,0.00,0.00,0.00,0,0,0,0,0,0,0,0,0,0,0,0,0,0,0,0,0.0,0.08063386380672455,2.6149234771728516,0.19701412320137024,1.1871085147579965,2.044921048031044,1.4487635037025246,0.2,0.2,1.0,-0.02499999999999991,1.0,-0.670502282840636,1.4487635037025246,3.3973405070289937,2.2374093532562256e-05,-7.915496826171875e-05,2.419388510286808,2.3849973678588867,0
2025-12-05 17:07:05.072800,0.2,0.2,9032.7,742.7,12.2,11.1,4037.8,330.0,25.9,0.00,0.00,0.00,0.00,0,0,0,0,0,0,0,0,0,0,0,0,0,0,0,0,0.0,0.08063386380672455,2.6149234771728516,0.19701412320137024,1.1871085147579965,2.044921048031044,1.4487635037025246,0.2,0.2,1.0,-0.02499999999999991,1.0,-0.670502282840636,1.4487635037025246,3.3973405070289937,2.2374093532562256e-05,-7.915496826171875e-05,2.419388510286808,2.3849973678588867,0
2025-12-05 17:07:05.104307,0.2,0.2,15438.5,1271.3,12.1,19.1,4038.7,330.1,25.9,0.00,0.00,0.00,0.00,0,0,0,0,0,0,0,0,0,0,0,0,0,0,0,0,0.0,0.08063386380672455,2.6149234771728516,0.19701412320137024,1.1871085147579965,2.044921048031044,1.4487635037025246,0.2,0.2,1.0,-0.02499999999999991,1.0,-0.670502282840636,1.4487635037025246,3.3973405070289937,2.2374093532562256e-05,-7.915496826171875e-05,2.419388510286808,2.3849973678588867,0
2025-12-05 17:07:05.151225,0.2,0.2,17756.5,1462.8,12.1,21.9,4039.6,330.2,25.9,0.00,0.00,0.00,0.00,0,0,0,0,0,0,0,0,0,0,0,0,0,0,0,0,0.0,0.08064012229442596,2.6149120330810547,0.19700492918491364,1.1913496267517945,2.0448244136489606,1.448515795467225,0.2,0.2,1.0,-0.02499999999999991,1.0,-0.6702508824669349,1.448515795467225,3.3973440843978517,2.863258123397827e-05,-9.059906005859375e-05,2.419388510286808,2.3849973678588867,0
2025-12-05 17:07:05.182540,0.2,0.2,18461.7,1521.6,12.1,22.8,4040.6,330.2,25.9,0.00,0.00,0.00,0.00,0,0,0,0,0,0,0,0,0,0,0,0,0,0,0,0,0.0,0.08064012229442596,2.6149120330810547,0.19700492918491364,1.1913496267517945,2.0448244136489606,1.448515795467225,0.2,0.2,1.0,-0.02499999999999991,1.0,-0.6702508824669349,1.448515795467225,3.3973440843978517,2.863258123397827e-05,-9.059906005859375e-05,2.419388510286808,2.3849973678588867,0
2025-12-05 17:07:05.252540,0.2,0.2,11811.1,971.9,12.2,14.6,4041.3,330.3,25.9,0.00,0.00,0.00,0.00,0,0,0,0,0,0,0,0,0,0,0,0,0,0,0,0,0.0,0.08063717186450958,2.614915609359741,0.19699695706367493,1.1890989452331477,2.044379424259364,1.446833985726748,0.2,0.2,1.0,-0.02499999999999991,1.0,-0.668570432058829,1.446833985726748,3.3973436747905814,2.5682151317596436e-05,-8.702278137207031e-05,2.419388510286808,2.3849973678588867,0
2025-12-05 17:07:05.284429,0.2,0.2,14285.0,1175.9,12.1,17.6,4042.0,330.4,25.9,0.00,0.00,0.00,0.00,0,0,0,0,0,0,0,0,0,0,0,0,0,0,0,0,0.0,0.08063717186450958,2.614915609359741,0.19699695706367493,1.1890989452331477,2.044379424259364,1.446833985726748,0.2,0.2,1.0,-0.02499999999999991,1.0,-0.668570432058829,1.446833985726748,3.3973436747905814,2.5682151317596436e-05,-8.702278137207031e-05,2.419388510286808,2.3849973678588867,0
2025-12-05 17:07:05.355191,0.2,0.2,16323.7,1344.8,12.1,20.2,4042.9,330.4,25.9,0.00,0.00,0.00,0.00,0,0,0,0,0,0,0,0,0,0,0,0,0,0,0,0,0.0,0.08062809705734253,2.6149189472198486,0.19698473811149597,1.1893781766942257,2.0494879918661915,1.4447986778499367,0.2,0.2,1.0,-0.02499999999999991,1.0,-0.6665376991069559,1.4447986778499367,3.397347793953285,1.6607344150543213e-05,-8.368492126464844e-05,2.419388510286808,2.3849973678588867,0
2025-12-05 17:07:05.544381,0.2,0.2,20453.5,1686.1,12.1,25.3,4044.0,330.5,25.9,0.00,0.00,0.00,0.00,0,0,0,0,0,0,0,0,0,0,0,0,0,0,0,0,0.0,0.0806346908211708,2.61491060256958,0.19696703553199768,1.197226760206473,2.0459237079669332,1.445772572842209,0.2,0.2,1.0,-0.02499999999999991,1.0,-0.6675084823726379,1.445772572842209,3.3973489566120487,2.32011079788208e-05,-9.202957153320312e-05,2.419388510286808,2.3849973678588867,0
2025-12-05 17:07:05.575597,0.2,0.2,12492.7,1028.1,12.2,15.4,4044.8,330.6,25.8,0.00,0.00,0.00,0.00,0,0,0,0,0,0,0,0,0,0,0,0,0,0,0,0,0.0,0.080642469227314,2.614917755126953,0.196964830160141,1.1967353556040172,2.045649428239428,1.44621976455171,0.2,0.2,1.0,-0.02499999999999991,1.0,-0.667955565994209,1.44621976455171,3.397338395938085,3.097951412200928e-05,-8.487701416015625e-05,2.419388510286808,2.3849973678588867,0
2025-12-05 17:07:05.606744,0.2,0.2,12579.3,1035.2,12.2,15.5,4045.5,330.6,25.9,0.00,0.00,0.00,0.00,0,0,0,0,0,0,0,0,0,0,0,0,0,0,0,0,0.0,0.080642469227314,2.614917755126953,0.196964830160141,1.1967353556040172,2.045649428239428,1.44621976455171,0.2,0.2,1.0,-0.02499999999999991,1.0,-0.667955565994209,1.44621976455171,3.397338395938085,3.097951412200928e-05,-8.487701416015625e-05,2.419388510286808,2.3849973678588867,0
2025-12-05 17:07:05.638065,0.2,0.2,13247.4,1090.5,12.1,16.4,4046.2,330.7,25.9,0.00,0.00,0.00,0.00,0,0,0,0,0,0,0,0,0,0,0,0,0,0,0,0,0.0,0.080642469227314,2.614917755126953,0.196964830160141,1.1967353556040172,2.045649428239428,1.44621976455171,0.2,0.2,1.0,-0.02499999999999991,1.0,-0.667955565994209,1.44621976455171,3.397338395938085,3.097951412200928e-05,-8.487701416015625e-05,2.419388510286808,2.3849973678588867,0
2025-12-05 17:07:05.669437,0.2,0.2,15741.3,1367.7,12.1,19.5,4047.2,330.8,25.9,0.00,0.00,0.00,0.00,0,0,0,0,0,0,0,0,0,0,0,0,0,0,0,0,0.0,0.08063283562660217,2.6149394512176514,0.19697248935699463,1.192658891043713,2.0447656156073144,1.4456773034228512,0.2,0.2,1.0,-0.02499999999999991,1.0,-0.6674196434476392,1.4456773034228512,3.3973300247997886,2.1345913410186768e-05,-6.318092346191406e-05,2.419388510286808,2.3849973678588867,0
2025-12-05 17:07:05.863746,0.2,0.2,16242.6,1338.0,12.1,20.1,4048.1,330.9,25.9,0.00,0.00,0.00,0.00,0,0,0,0,0,0,0,0,0,0,0,0,0,0,0,0,0.0,0.08063841611146927,2.614943265914917,0.19696630537509918,1.1931447563300228,2.042831145292087,1.447751884957933,0.2,0.2,1.0,-0.02499999999999991,1.0,-0.6694938714303421,1.447751884957933,3.3973233726568073,2.6926398277282715e-05,-5.936622619628906e-05,2.419388510286808,2.3849973678588867,0
2025-12-05 17:07:05.895020,0.2,0.2,15615.5,1286.1,12.1,19.3,4049.0,330.9,25.9,0.00,0.00,0.00,0.00,0,0,0,0,0,0,0,0,0,0,0,0,0,0,0,0,0.0,0.08064306527376175,2.61494779586792,0.19697101414203644,1.1941005627757972,2.0406733836060216,1.4513456543626226,0.2,0.2,1.0,-0.02499999999999991,1.0,-0.6730876296650462,1.4513456543626226,3.3973168816057226,3.1575560569763184e-05,-5.4836273193359375e-05,2.419388510286808,2.3849973678588867,0
2025-12-05 17:07:05.926377,0.2,0.2,15202.9,1252.2,12.1,18.8,4049.9,331.0,25.9,0.00,0.00,0.00,0.00,0,0,0,0,0,0,0,0,0,0,0,0,0,0,0,0,0.0,0.08064306527376175,2.61494779586792,0.19697101414203644,1.1941005627757972,2.0406733836060216,1.4513456543626226,0.2,0.2,1.0,-0.02499999999999991,1.0,-0.6730876296650462,1.4513456543626226,3.3973168816057226,3.1575560569763184e-05,-5.4836273193359375e-05,2.419388510286808,2.3849973678588867,0
2025-12-05 17:07:05.957703,0.2,0.2,15974.9,1315.8,12.1,19.7,4050.9,331.1,25.8,0.00,0.00,0.00,0.00,0,0,0,0,0,0,0,0,0,0,0,0,0,0,0,0,0.0,0.08064306527376175,2.61494779586792,0.19697101414203644,1.1941005627757972,2.0406733836060216,1.4513456543626226,0.2,0.2,1.0,-0.02499999999999991,1.0,-0.6730876296650462,1.4513456543626226,3.3973168816057226,3.1575560569763184e-05,-5.4836273193359375e-05,2.419388510286808,2.3849973678588867,0
2025-12-05 17:07:05.989057,0.2,0.2,15536.9,1279.7,12.1,19.2,4051.8,331.2,25.9,0.00,0.00,0.00,0.00,0,0,0,0,0,0,0,0,0,0,0,0,0,0,0,0,0.0,0.08064418286085129,2.614933967590332,0.19700336456298828,1.191792136857122,2.041300884042008,1.4501397511364793,0.2,0.2,1.0,-0.02499999999999991,1.0,-0.671878596851922,1.4501397511364793,3.3973257937500536,3.269314765930176e-05,-6.866455078125e-05,2.419388510286808,2.3849973678588867,0
2025-12-05 17:07:06.071885,0.2,0.2,14970.6,1232.7,12.1,18.5,4052.7,331.2,25.9,0.00,0.00,0.00,0.00,0,0,0,0,0,0,0,0,0,0,0,0,0,0,0,0,0.0,0.08064418286085129,2.614933967590332,0.19700336456298828,1.191792136857122,2.041300884042008,1.4501397511364793,0.2,0.2,1.0,-0.02499999999999991,1.0,-0.671878596851922,1.4501397511364793,3.3973257937500536,3.269314765930176e-05,-6.866455078125e-05,2.419388510286808,2.3849973678588867,0
2025-12-05 17:07:06.103131,0.2,0.2,14348.9,1181.5,12.1,17.7,4053.6,331.3,25.9,0.00,0.00,0.00,0.00,0,0,0,0,0,0,0,0,0,0,0,0,0,0,0,0,0.0,0.08064283430576324,2.6149394512176514,0.1969880312681198,1.1921624575560883,2.0414171741611744,1.4519451275506121,0.2,0.2,1.0,-0.02499999999999991,1.0,-0.6736854013986167,1.4519451275506121,3.397322904369558,3.1344592571258545e-05,-6.318092346191406e-05,2.419388510286808,2.3849973678588867,0
2025-12-05 17:07:06.133596,0.2,0.2,15153.6,1248.0,12.1,18.7,4054.4,331.4,25.9,0.00,0.00,0.00,0.00,0,0,0,0,0,0,0,0,0,0,0,0,0,0,0,0,0.0,0.08064283430576324,2.6149394512176514,0.1969880312681198,1.1921624575560883,2.0414171741611744,1.4519451275506121,0.2,0.2,1.0,-0.02499999999999991,1.0,-0.6736854013986167,1.4519451275506121,3.397322904369558,3.1344592571258545e-05,-6.318092346191406e-05,2.419388510286808,2.3849973678588867,0
2025-12-05 17:07:06.174297,0.2,0.2,14437.9,1188.9,12.1,17.8,4055.3,331.5,25.9,0.00,0.00,0.00,0.00,0,0,0,0,0,0,0,0,0,0,0,0,0,0,0,0,0.0,0.08064283430576324,2.6149394512176514,0.1969880312681198,1.1921624575560883,2.0414171741611744,1.4519451275506121,0.2,0.2,1.0,-0.02499999999999991,1.0,-0.6736854013986167,1.4519451275506121,3.397322904369558,3.1344592571258545e-05,-6.318092346191406e-05,2.419388510286808,2.3849973678588867,0
2025-12-05 17:07:06.222199,0.2,0.2,14031.2,1155.3,12.1,17.3,4056.1,331.5,25.9,0.00,0.00,0.00,0.00,0,0,0,0,0,0,0,0,0,0,0,0,0,0,0,0,0.0,0.08062108606100082,2.614922285079956,0.1970168650150299,1.1824864132057873,2.047881630582512,1.4448475944221482,0.2,0.2,1.0,-0.02499999999999991,1.0,-0.6665887641248651,1.4448475944221482,3.397350443422178,9.59634780883789e-06,-8.034706115722656e-05,2.419388510286808,2.3849973678588867,0
2025-12-05 17:07:06.420193,0.2,0.2,13361.5,1099.8,12.1,16.5,4056.9,331.6,25.9,0.00,0.00,0.00,0.00,0,0,0,0,0,0,0,0,0,0,0,0,0,0,0,0,0.0,0.0806245505809784,2.6149253845214844,0.19700855016708374,1.1855795675134915,2.0463687354629068,1.444997576779496,0.2,0.2,1.0,-0.02499999999999991,1.0,-0.66673868025213,1.444997576779496,3.3973458002757804,1.306086778640747e-05,-7.724761962890625e-05,2.419388510286808,2.3849973678588867,0
2025-12-05 17:07:06.480328,0.2,0.2,13997.4,1152.4,12.1,17.3,4057.7,331.7,25.9,0.00,0.00,0.00,0.00,0,0,0,0,0,0,0,0,0,0,0,0,0,0,0,0,0.0,0.0806245505809784,2.6149253845214844,0.19700855016708374,1.1855795675134915,2.0463687354629068,1.444997576779496,0.2,0.2,1.0,-0.02499999999999991,1.0,-0.66673868025213,1.444997576779496,3.3973458002757804,1.306086778640747e-05,-7.724761962890625e-05,2.419388510286808,2.3849973678588867,0
2025-12-05 17:07:06.511611,0.2,0.2,14286.4,1176.5,12.1,17.6,4058.7,331.7,25.9,0.00,0.00,0.00,0.00,0,0,0,0,0,0,0,0,0,0,0,0,0,0,0,0,0.0,0.08063703775405884,2.614922523498535,0.1969814896583557,1.188259885529888,2.0504333771692362,1.447587002289925,0.2,0.2,1.0,-0.02499999999999991,1.0,-0.6693249256434629,1.447587002289925,3.3973389162699164,2.5548040866851807e-05,-8.0108642578125e-05,2.419388510286808,2.3849973678588867,0
2025-12-05 17:07:06.542588,0.2,0.2,14987.1,1293.6,12.1,19.4,4059.5,331.8,25.9,0.00,0.00,0.00,0.00,0,0,0,0,0,0,0,0,0,0,0,0,0,0,0,0,0.0,0.08063703775405884,2.614922523498535,0.1969814896583557,1.188259885529888,2.0504333771692362,1.447587002289925,0.2,0.2,1.0,-0.02499999999999991,1.0,-0.6693249256434629,1.447587002289925,3.3973389162699164,2.5548040866851807e-05,-8.0108642578125e-05,2.419388510286808,2.3849973678588867,0
2025-12-05 17:07:06.573729,0.2,0.2,13371.0,1100.9,12.1,16.5,4060.4,331.9,25.9,0.00,0.00,0.00,0.00,0,0,0,0,0,0,0,0,0,0,0,0,0,0,0,0,0.0,0.08063703775405884,2.614922523498535,0.1969814896583557,1.188259885529888,2.0504333771692362,1.447587002289925,0.2,0.2,1.0,-0.02499999999999991,1.0,-0.6693249256434629,1.447587002289925,3.3973389162699164,2.5548040866851807e-05,-8.0108642578125e-05,2.419388510286808,2.3849973678588867,0
2025-12-05 17:07:06.604873,0.2,0.2,12614.9,1038.6,12.1,15.6,4061.1,331.9,25.9,0.00,0.00,0.00,0.00,0,0,0,0,0,0,0,0,0,0,0,0,0,0,0,0,0.0,0.08062638342380524,2.6149110794067383,0.19698750972747803,1.1855561417095037,2.0489723733830743,1.4442408461263518,0.2,0.2,1.0,-0.02499999999999991,1.0,-0.665978572285672,1.4442408461263518,3.3973545378311205,1.4893710613250732e-05,-9.1552734375e-05,2.419388510286808,2.3849973678588867,0
2025-12-05 17:07:06.722825,0.2,0.2,11934.6,982.2,12.2,14.7,4061.8,332.0,25.9,0.00,0.00,0.00,0.00,0,0,0,0,0,0,0,0,0,0,0,0,0,0,0,0,0.0,0.08061379194259644,2.614906072616577,0.19700060784816742,1.1844429238271303,2.0462592173127665,1.4417941975520865,0.2,0.2,1.0,-0.02499999999999991,1.0,-0.6635334761644264,1.4417941975520865,3.397367019646194,2.302229404449463e-06,-9.655952453613281e-05,2.419388510286808,2.3849973678588867,0
2025-12-05 17:07:06.754108,0.2,0.2,14576.7,1200.4,12.1,18.0,4062.6,332.1,25.9,0.00,0.00,0.00,0.00,0,0,0,0,0,0,0,0,0,0,0,0,0,0,0,0,0.0,0.08061379194259644,2.614906072616577,0.19700060784816742,1.1844429238271303,2.0462592173127665,1.4417941975520865,0.2,0.2,1.0,-0.02499999999999991,1.0,-0.6635334761644264,1.4417941975520865,3.397367019646194,2.302229404449463e-06,-9.655952453613281e-05,2.419388510286808,2.3849973678588867,0
2025-12-05 17:07:06.789405,0.2,0.2,17163.6,1414.1,12.1,21.2,4063.5,332.1,25.9,0.00,0.00,0.00,0.00,0,0,0,0,0,0,0,0,0,0,0,0,0,0,0,0,0.0,0.08061379194259644,2.614906072616577,0.19700060784816742,1.1844429238271303,2.0462592173127665,1.4417941975520865,0.2,0.2,1.0,-0.02499999999999991,1.0,-0.6635334761644264,1.4417941975520865,3.397367019646194,2.302229404449463e-06,-9.655952453613281e-05,2.419388510286808,2.3849973678588867,0
2025-12-05 17:07:06.819793,0.2,0.2,13627.3,1122.0,12.1,16.8,4064.4,332.2,25.9,0.00,0.00,0.00,0.00,0,0,0,0,0,0,0,0,0,0,0,0,0,0,0,0,0.0,0.08063815534114838,2.6149141788482666,0.19699843227863312,1.1899244218051686,2.0428670321511064,1.4475861274835804,0.2,0.2,1.0,-0.02499999999999991,1.0,-0.6693220707287876,1.4475861274835804,3.39734397870603,2.666562795639038e-05,-8.845329284667969e-05,2.419388510286808,2.3849973678588867,0
2025-12-05 17:07:06.892106,0.2,0.2,10093.4,830.3,12.2,12.5,4065.1,332.3,25.9,0.00,0.00,0.00,0.00,0,0,0,0,0,0,0,0,0,0,0,0,0,0,0,0,0.0,0.08063815534114838,2.6149141788482666,0.19699843227863312,1.1899244218051686,2.0428670321511064,1.4475861274835804,0.2,0.2,1.0,-0.02499999999999991,1.0,-0.6693220707287876,1.4475861274835804,3.39734397870603,2.666562795639038e-05,-8.845329284667969e-05,2.419388510286808,2.3849973678588867,0
2025-12-05 17:07:06.986144,0.2,0.2,11749.8,966.9,12.2,14.5,4065.8,332.3,25.9,0.00,0.00,0.00,0.00,0,0,0,0,0,0,0,0,0,0,0,0,0,0,0,0,0.0,0.08065338432788849,2.614943742752075,0.19697967171669006,1.1908862498541006,2.0451876623157794,1.450520744506969,0.2,0.2,1.0,-0.02499999999999991,1.0,-0.6722597378156248,1.450520744506969,3.397312378484142,4.1894614696502686e-05,-5.888938903808594e-05,2.419388510286808,2.3849973678588867,0
2025-12-05 17:07:07.017369,0.2,0.2,10679.1,878.5,12.2,13.2,4066.4,332.4,25.9,0.00,0.00,0.00,0.00,0,0,0,0,0,0,0,0,0,0,0,0,0,0,0,0,0.0,0.08062134683132172,2.6149256229400635,0.19700700044631958,1.1836534097677522,2.044655174117944,1.4443106367373062,0.2,0.2,1.0,-0.02499999999999991,1.0,-0.6660524522208986,1.4443106367373062,3.3973479144056076,9.857118129730225e-06,-7.700920104980469e-05,2.419388510286808,2.3849973678588867,0
2025-12-05 17:07:07.048471,0.2,0.2,13921.1,1146.3,12.1,17.2,4067.2,332.4,25.9,0.00,0.00,0.00,0.00,0,0,0,0,0,0,0,0,0,0,0,0,0,0,0,0,0.0,0.08062134683132172,2.6149256229400635,0.19700700044631958,1.1836534097677522,2.044655174117944,1.4443106367373062,0.2,0.2,1.0,-0.02499999999999991,1.0,-0.6660524522208986,1.4443106367373062,3.3973479144056076,9.857118129730225e-06,-7.700920104980469e-05,2.419388510286808,2.3849973678588867,0
2025-12-05 17:07:07.107078,0.2,0.2,15366.7,1013.2,12.1,19.0,4068.0,332.5,25.9,0.00,0.00,0.00,0.00,0,0,0,0,0,0,0,0,0,0,0,0,0,0,0,0,0.0,0.08062134683132172,2.6149256229400635,0.19700700044631958,1.1836534097677522,2.044655174117944,1.4443106367373062,0.2,0.2,1.0,-0.02499999999999991,1.0,-0.6660524522208986,1.4443106367373062,3.3973479144056076,9.857118129730225e-06,-7.700920104980469e-05,2.419388510286808,2.3849973678588867,0
2025-12-05 17:07:07.198447,0.2,0.2,8310.6,683.3,12.2,10.3,4068.5,332.5,25.9,0.00,0.00,0.00,0.00,0,0,0,0,0,0,0,0,0,0,0,0,0,0,0,0,0.0,0.08061839640140533,2.6149139404296875,0.19702881574630737,1.1773436387573812,2.0469223504251106,1.4433308779699594,0.2,0.2,1.0,-0.02499999999999991,1.0,-0.6650708543089512,1.4433308779699594,3.397358217113401,6.906688213348389e-06,-8.869171142578125e-05,2.419388510286808,2.3849973678588867,0
2025-12-05 17:07:07.341601,0.2,0.2,11478.6,1214.7,12.2,14.2,4069.3,332.6,25.9,0.00,0.00,0.00,0.00,0,0,0,0,0,0,0,0,0,0,0,0,0,0,0,0,0.0,0.08069009333848953,2.6147992610931396,0.1971249282360077,1.1426031597351205,2.0680138599589992,1.446410082005075,0.2,0.2,1.0,-0.02499999999999991,1.0,-0.6681112045154963,1.446410082005075,3.397387671336958,7.860362529754639e-05,-0.0002033710479736328,2.419388510286808,2.3849973678588867,0
2025-12-05 17:07:07.372428,0.2,0.2,13408.3,1104.0,12.1,16.6,4070.1,332.7,25.9,0.00,0.00,0.00,0.00,0,0,0,0,0,0,0,0,0,0,0,0,0,0,0,0,0.0,0.08069009333848953,2.6147992610931396,0.1971249282360077,1.1426031597351205,2.0680138599589992,1.446410082005075,0.2,0.2,1.0,-0.02499999999999991,1.0,-0.6681112045154963,1.446410082005075,3.397387671336958,7.860362529754639e-05,-0.0002033710479736328,2.419388510286808,2.3849973678588867,0
2025-12-05 17:07:07.403385,0.2,0.2,17268.4,1278.3,12.1,21.3,4071.1,332.8,25.9,0.00,0.00,0.00,0.00,0,0,0,0,0,0,0,0,0,0,0,0,0,0,0,0,0.0,0.08069009333848953,2.6147992610931396,0.1971249282360077,1.1426031597351205,2.0680138599589992,1.446410082005075,0.2,0.2,1.0,-0.02499999999999991,1.0,-0.6681112045154963,1.446410082005075,3.397387671336958,7.860362529754639e-05,-0.0002033710479736328,2.419388510286808,2.3849973678588867,0
2025-12-05 17:07:07.434454,0.2,0.2,15706.9,1293.8,12.1,19.4,4072.0,332.8,25.9,0.00,0.00,0.00,0.00,0,0,0,0,0,0,0,0,0,0,0,0,0,0,0,0,0.0,0.08072378486394882,2.6147494316101074,0.19714570045471191,1.1347878314338369,2.0698967160951938,1.4500055352748547,0.2,0.2,1.0,-0.02499999999999991,1.0,-0.6716892509984405,1.4500055352748547,3.3973986635552977,0.00011229515075683594,-0.0002532005310058594,2.419388510286808,2.3849973678588867,0
2025-12-05 17:07:07.505844,0.2,0.2,9130.1,663.2,12.2,11.3,4072.5,332.9,25.9,0.00,0.00,0.00,0.00,0,0,0,0,0,0,0,0,0,0,0,0,0,0,0,0,0.0,0.08072378486394882,2.6147494316101074,0.19714570045471191,1.1347878314338369,2.0698967160951938,1.4500055352748547,0.2,0.2,1.0,-0.02499999999999991,1.0,-0.6716892509984405,1.4500055352748547,3.3973986635552977,0.00011229515075683594,-0.0002532005310058594,2.419388510286808,2.3849973678588867,0
2025-12-05 17:07:07.699784,0.2,0.2,14351.4,1181.7,12.1,17.7,4073.2,332.9,25.9,0.00,0.00,0.00,0.00,0,0,0,0,0,0,0,0,0,0,0,0,0,0,0,0,0.0,0.08069390803575516,2.6147754192352295,0.19712111353874207,1.1452909560511062,2.0685454119550446,1.4457233889458116,0.2,0.2,1.0,-0.02499999999999991,1.0,-0.6674187258055401,1.4457233889458116,3.3974016935446096,8.241832256317139e-05,-0.00022721290588378906,2.419388510286808,2.3849973678588867,0
2025-12-05 17:07:07.730487,0.2,0.2,12194.3,1003.6,12.2,15.1,4074.0,333.0,25.9,0.00,0.00,0.00,0.00,0,0,0,0,0,0,0,0,0,0,0,0,0,0,0,0,0.0,0.08069390803575516,2.6147754192352295,0.19712111353874207,1.1452909560511062,2.0685454119550446,1.4457233889458116,0.2,0.2,1.0,-0.02499999999999991,1.0,-0.6674187258055401,1.4457233889458116,3.3974016935446096,8.241832256317139e-05,-0.00022721290588378906,2.419388510286808,2.3849973678588867,0
2025-12-05 17:07:07.761783,0.2,0.2,9213.4,757.8,12.2,11.4,4074.5,333.0,25.9,0.00,0.00,0.00,0.00,0,0,0,0,0,0,0,0,0,0,0,0,0,0,0,0,0.0,0.08064118772745132,2.6148221492767334,0.19709306955337524,1.1522766057920826,2.0646369168955205,1.4375029340633816,0.2,0.2,1.0,-0.02499999999999991,1.0,-0.6592189602939298,1.4375029340633816,3.3974064287485093,2.969801425933838e-05,-0.0001804828643798828,2.419388510286808,2.3849973678588867,0
2025-12-05 17:07:07.792946,0.2,0.2,9039.0,743.4,12.2,11.2,4075.2,333.1,25.9,0.00,0.00,0.00,0.00,0,0,0,0,0,0,0,0,0,0,0,0,0,0,0,0,0.0,0.08064118772745132,2.6148221492767334,0.19709306955337524,1.1522766057920826,2.0646369168955205,1.4375029340633816,0.2,0.2,1.0,-0.02499999999999991,1.0,-0.6592189602939298,1.4375029340633816,3.3974064287485093,2.969801425933838e-05,-0.0001804828643798828,2.419388510286808,2.3849973678588867,0
2025-12-05 17:07:07.824122,0.2,0.2,11612.9,955.6,12.2,14.3,4075.9,333.1,25.9,0.00,0.00,0.00,0.00,0,0,0,0,0,0,0,0,0,0,0,0,0,0,0,0,0.0,0.08064118772745132,2.6148221492767334,0.19709306955337524,1.1522766057920826,2.0646369168955205,1.4375029340633816,0.2,0.2,1.0,-0.02499999999999991,1.0,-0.6592189602939298,1.4375029340633816,3.3974064287485093,2.969801425933838e-05,-0.0001804828643798828,2.419388510286808,2.3849973678588867,0
2025-12-05 17:07:07.855241,0.2,0.2,15166.4,1249.0,12.1,18.7,4076.7,333.2,25.9,0.00,0.00,0.00,0.00,0,0,0,0,0,0,0,0,0,0,0,0,0,0,0,0,0.0,0.08056716620922089,2.6149377822875977,0.19680888950824738,1.2741013589507677,1.998793389553827,1.4424468875488312,0.2,0.2,1.0,-0.02499999999999991,1.0,-0.6642024477776504,1.4424468875488312,3.3973779624269187,-4.4323503971099854e-05,-6.4849853515625e-05,2.419388510286808,2.3849973678588867,0
2025-12-05 17:07:07.917694,0.2,0.2,8521.0,700.7,12.2,10.5,4077.2,333.3,25.9,0.00,0.00,0.00,0.00,0,0,0,0,0,0,0,0,0,0,0,0,0,0,0,0,0.0,0.08056716620922089,2.6149377822875977,0.19680888950824738,1.2741013589507677,1.998793389553827,1.4424468875488312,0.2,0.2,1.0,-0.02499999999999991,1.0,-0.6642024477776504,1.4424468875488312,3.3973779624269187,-4.4323503971099854e-05,-6.4849853515625e-05,2.419388510286808,2.3849973678588867,0
2025-12-05 17:07:07.948127,0.2,0.2,14739.4,1213.9,12.1,18.2,4077.9,333.3,25.9,0.00,0.00,0.00,0.00,0,0,0,0,0,0,0,0,0,0,0,0,0,0,0,0,0.0,0.08056716620922089,2.6149377822875977,0.19680888950824738,1.2741013589507677,1.998793389553827,1.4424468875488312,0.2,0.2,1.0,-0.02499999999999991,1.0,-0.6642024477776504,1.4424468875488312,3.3973779624269187,-4.4323503971099854e-05,-6.4849853515625e-05,2.419388510286808,2.3849973678588867,0
2025-12-05 17:07:08.018794,0.2,0.2,14399.2,1185.9,12.1,17.8,4078.7,333.4,25.9,0.00,0.00,0.00,0.00,0,0,0,0,0,0,0,0,0,0,0,0,0,0,0,0,0.0,0.08061052858829498,2.614924669265747,0.19691544771194458,1.2008289003345882,2.04617352131722,1.4433436224429972,0.2,0.2,1.0,-0.02499999999999991,1.0,-0.6650874735367367,1.4433436224429972,3.3973562880061485,-9.611248970031738e-07,-7.796287536621094e-05,2.419388510286808,2.3849973678588867,0
2025-12-05 17:07:08.049213,0.2,0.2,13886.4,1143.5,12.1,17.2,4079.6,333.5,25.9,0.00,0.00,0.00,0.00,0,0,0,0,0,0,0,0,0,0,0,0,0,0,0,0,0.0,0.08062887191772461,2.614935874938965,0.19689838588237762,1.2032941459579773,2.046527243139039,1.4488205015464128,0.2,0.2,1.0,-0.02499999999999991,1.0,-0.6705629110014133,1.4488205015464128,3.397335358196371,1.738220453262329e-05,-6.67572021484375e-05,2.419388510286808,2.3849973678588867,0
2025-12-05 17:07:08.145700,0.2,0.2,14229.1,1171.8,12.1,17.6,4080.5,333.5,25.9,0.00,0.00,0.00,0.00,0,0,0,0,0,0,0,0,0,0,0,0,0,0,0,0,0.0,0.08062887191772461,2.614935874938965,0.19689838588237762,1.2032941459579773,2.046527243139039,1.4488205015464128,0.2,0.2,1.0,-0.02499999999999991,1.0,-0.6705629110014133,1.4488205015464128,3.397335358196371,1.738220453262329e-05,-6.67572021484375e-05,2.419388510286808,2.3849973678588867,0
2025-12-05 17:07:08.268393,0.2,0.2,10536.0,866.9,12.2,13.0,4081.2,333.6,25.9,0.00,0.00,0.00,0.00,0,0,0,0,0,0,0,0,0,0,0,0,0,0,0,0,0.0,0.08061551302671432,2.614900827407837,0.19699403643608093,1.1867782835514702,2.046274779304204,1.4435222413799522,0.2,0.2,1.0,-0.02499999999999991,1.0,-0.665260064874338,1.4435222413799522,3.3973694763606166,4.023313522338867e-06,-0.00010180473327636719,2.419388510286808,2.3849973678588867,0
2025-12-05 17:07:08.327243,0.2,0.2,13363.0,1100.3,12.1,16.5,4082.0,333.7,25.9,0.00,0.00,0.00,0.00,0,0,0,0,0,0,0,0,0,0,0,0,0,0,0,0,0.0,0.08061551302671432,2.614900827407837,0.19699403643608093,1.1867782835514702,2.046274779304204,1.4435222413799522,0.2,0.2,1.0,-0.02499999999999991,1.0,-0.665260064874338,1.4435222413799522,3.3973694763606166,4.023313522338867e-06,-0.00010180473327636719,2.419388510286808,2.3849973678588867,0
2025-12-05 17:07:08.372507,0.2,0.2,13704.3,1128.6,12.1,16.9,4082.9,333.7,25.9,0.00,0.00,0.00,0.00,0,0,0,0,0,0,0,0,0,0,0,0,0,0,0,0,0.0,0.08062031865119934,2.614900827407837,0.1970209777355194,1.1811628587848024,2.047168887817946,1.443654104594227,0.2,0.2,1.0,-0.02499999999999991,1.0,-0.6653909350385349,1.443654104594227,3.397366054110632,8.828938007354736e-06,-0.00010180473327636719,2.419388510286808,2.3849973678588867,0
2025-12-05 17:07:08.402949,0.2,0.2,13087.5,1173.7,12.1,16.2,4083.7,333.8,25.9,0.00,0.00,0.00,0.00,0,0,0,0,0,0,0,0,0,0,0,0,0,0,0,0,0.0,0.08062031865119934,2.614900827407837,0.1970209777355194,1.1811628587848024,2.047168887817946,1.443654104594227,0.2,0.2,1.0,-0.02499999999999991,1.0,-0.6653909350385349,1.443654104594227,3.397366054110632,8.828938007354736e-06,-0.00010180473327636719,2.419388510286808,2.3849973678588867,0
2025-12-05 17:07:08.433590,0.2,0.2,12951.4,1066.2,12.1,16.0,4084.6,333.9,25.9,0.00,0.00,0.00,0.00,0,0,0,0,0,0,0,0,0,0,0,0,0,0,0,0,0.0,0.08062031865119934,2.614900827407837,0.1970209777355194,1.1811628587848024,2.047168887817946,1.443654104594227,0.2,0.2,1.0,-0.02499999999999991,1.0,-0.6653909350385349,1.443654104594227,3.397366054110632,8.828938007354736e-06,-0.00010180473327636719,2.419388510286808,2.3849973678588867,0
2025-12-05 17:07:08.464942,0.2,0.2,10193.9,838.7,12.2,12.6,4085.3,333.9,25.9,0.00,0.00,0.00,0.00,0,0,0,0,0,0,0,0,0,0,0,0,0,0,0,0,0.0,0.08056841045618057,2.614947557449341,0.1968642920255661,1.2618872478521914,1.998831516127922,1.4451960698570971,0.2,0.2,1.0,-0.02499999999999991,1.0,-0.6669534220171959,1.4451960698570971,3.39737021388594,-4.3079257011413574e-05,-5.507469177246094e-05,2.419388510286808,2.3849973678588867,0
2025-12-05 17:07:08.529723,0.2,0.2,16179.4,1332.9,12.1,20.0,4086.1,334.0,25.9,0.00,0.00,0.00,0.00,0,0,0,0,0,0,0,0,0,0,0,0,0,0,0,0,0.0,0.08056841045618057,2.614947557449341,0.1968642920255661,1.2618872478521914,1.998831516127922,1.4451960698570971,0.2,0.2,1.0,-0.02499999999999991,1.0,-0.6669534220171959,1.4451960698570971,3.39737021388594,-4.3079257011413574e-05,-5.507469177246094e-05,2.419388510286808,2.3849973678588867,0
2025-12-05 17:07:08.578360,0.2,0.2,16957.4,1397.5,12.1,21.0,4087.2,334.1,25.9,0.00,0.00,0.00,0.00,0,0,0,0,0,0,0,0,0,0,0,0,0,0,0,0,0.0,0.08057122677564621,2.6149561405181885,0.19683749973773956,1.2654136499892175,1.9966482424409215,1.4466871809654993,0.2,0.2,1.0,-0.02499999999999991,1.0,-0.6684457503288654,1.4466871809654993,3.397362182687886,-4.026293754577637e-05,-4.649162292480469e-05,2.419388510286808,2.3849973678588867,0
2025-12-05 17:07:08.638507,0.2,0.2,14932.9,1230.1,12.1,18.5,4088.1,334.2,25.9,0.00,0.00,0.00,0.00,0,0,0,0,0,0,0,0,0,0,0,0,0,0,0,0,0.0,0.08057122677564621,2.6149561405181885,0.19683749973773956,1.2654136499892175,1.9966482424409215,1.4466871809654993,0.2,0.2,1.0,-0.02499999999999991,1.0,-0.6684457503288654,1.4466871809654993,3.397362182687886,-4.026293754577637e-05,-4.649162292480469e-05,2.419388510286808,2.3849973678588867,0
2025-12-05 17:07:08.735516,0.2,0.2,13948.7,1156.0,12.1,17.2,4088.9,334.2,25.9,0.00,0.00,0.00,0.00,0,0,0,0,0,0,0,0,0,0,0,0,0,0,0,0,0.0,0.08061230927705765,2.614903688430786,0.19698810577392578,1.182327647949621,2.05100068027993,1.4412795840361756,0.2,0.2,1.0,-0.02499999999999991,1.0,-0.6630186692723242,1.4412795840361756,3.397369749303534,8.195638656616211e-07,-9.894371032714844e-05,2.419388510286808,2.3849973678588867,0
2025-12-05 17:07:08.943122,0.2,0.2,14603.0,1202.6,12.1,18.0,4089.8,334.3,25.9,0.00,0.00,0.00,0.00,0,0,0,0,0,0,0,0,0,0,0,0,0,0,0,0,0.0,0.08063173294067383,2.614938259124756,0.1969449818134308,1.1950199880147467,2.0460098367944415,1.4479452665369212,0.2,0.2,1.0,-0.02499999999999991,1.0,-0.6696875845429209,1.4479452665369212,3.39733164696067,2.024322748184204e-05,-6.437301635742188e-05,2.419388510286808,2.3849973678588867,0
2025-12-05 17:07:08.974424,0.2,0.2,13594.5,1113.9,12.1,16.8,4090.6,334.4,25.9,0.00,0.00,0.00,0.00,0,0,0,0,0,0,0,0,0,0,0,0,0,0,0,0,0.0,0.08068031817674637,2.614800453186035,0.19710299372673035,1.1507838271127917,2.0684949125033443,1.4408440122863357,0.2,0.2,1.0,-0.02499999999999991,1.0,-0.6625474046950743,1.4408440122863357,3.3973937953935973,6.882846355438232e-05,-0.000202178955078125,2.419388510286808,2.3849973678588867,0
2025-12-05 17:07:09.005712,0.2,0.2,14707.3,1211.4,12.1,18.2,4091.4,334.4,25.9,0.00,0.00,0.00,0.00,0,0,0,0,0,0,0,0,0,0,0,0,0,0,0,0,0.0,0.08068031817674637,2.614800453186035,0.19710299372673035,1.1507838271127917,2.0684949125033443,1.4408440122863357,0.2,0.2,1.0,-0.02499999999999991,1.0,-0.6625474046950743,1.4408440122863357,3.3973937953935973,6.882846355438232e-05,-0.000202178955078125,2.419388510286808,2.3849973678588867,0
2025-12-05 17:07:09.036596,0.2,0.2,15880.7,1308.5,12.1,19.6,4092.3,334.5,25.9,0.00,0.00,0.00,0.00,0,0,0,0,0,0,0,0,0,0,0,0,0,0,0,0,0.0,0.08068031817674637,2.614800453186035,0.19710299372673035,1.1507838271127917,2.0684949125033443,1.4408440122863357,0.2,0.2,1.0,-0.02499999999999991,1.0,-0.6625474046950743,1.4408440122863357,3.3973937953935973,6.882846355438232e-05,-0.000202178955078125,2.419388510286808,2.3849973678588867,0
2025-12-05 17:07:09.067911,0.2,0.2,15284.3,1259.1,12.1,18.9,4093.2,334.6,25.9,0.00,0.00,0.00,0.00,0,0,0,0,0,0,0,0,0,0,0,0,0,0,0,0,0.0,0.08068031817674637,2.614800453186035,0.19710299372673035,1.1507838271127917,2.0684949125033443,1.4408440122863357,0.2,0.2,1.0,-0.02499999999999991,1.0,-0.6625474046950743,1.4408440122863357,3.3973937953935973,6.882846355438232e-05,-0.000202178955078125,2.419388510286808,2.3849973678588867,0
2025-12-05 17:07:09.118864,0.2,0.2,16054.5,1301.4,12.1,19.5,4094.2,334.7,25.9,0.00,0.00,0.00,0.00,0,0,0,0,0,0,0,0,0,0,0,0,0,0,0,0,0.0,0.08069732785224915,2.6147608757019043,0.197129026055336,1.134351176947871,2.0706832617251227,1.4447581630257051,0.2,0.2,1.0,-0.02499999999999991,1.0,-0.6664497448239427,1.4447581630257051,3.397409468925345,8.583813905715942e-05,-0.00024175643920898438,2.419388510286808,2.3849973678588867,0
2025-12-05 17:07:09.150168,0.2,0.2,16453.0,1355.8,12.1,20.3,4095.2,334.7,25.9,0.00,0.00,0.00,0.00,0,0,0,0,0,0,0,0,0,0,0,0,0,0,0,0,0.0,0.08069732785224915,2.6147608757019043,0.197129026055336,1.134351176947871,2.0706832617251227,1.4447581630257051,0.2,0.2,1.0,-0.02499999999999991,1.0,-0.6664497448239427,1.4447581630257051,3.397409468925345,8.583813905715942e-05,-0.00024175643920898438,2.419388510286808,2.3849973678588867,0
2025-12-05 17:07:09.181512,0.2,0.2,17903.1,1475.8,12.1,22.1,4096.2,334.8,25.9,0.00,0.00,0.00,0.00,0,0,0,0,0,0,0,0,0,0,0,0,0,0,0,0,0.0,0.08069732785224915,2.6147608757019043,0.197129026055336,1.134351176947871,2.0706832617251227,1.4447581630257051,0.2,0.2,1.0,-0.02499999999999991,1.0,-0.6664497448239427,1.4447581630257051,3.397409468925345,8.583813905715942e-05,-0.00024175643920898438,2.419388510286808,2.3849973678588867,0
2025-12-05 17:07:09.246974,0.2,0.2,15800.4,1301.8,12.1,19.5,4097.1,334.9,25.9,0.00,0.00,0.00,0.00,0,0,0,0,0,0,0,0,0,0,0,0,0,0,0,0,0.0,0.08068308979272842,2.614786148071289,0.19712309539318085,1.139041447691306,2.0698987906601585,1.4423037403749106,0.2,0.2,1.0,-0.02499999999999991,1.0,-0.6640035616184629,1.4423037403749106,3.397401864873724,7.160007953643799e-05,-0.00021648406982421875,2.419388510286808,2.3849973678588867,0
2025-12-05 17:07:09.285664,0.2,0.2,16044.8,1322.1,12.1,19.8,4098.0,335.0,25.9,0.00,0.00,0.00,0.00,0,0,0,0,0,0,0,0,0,0,0,0,0,0,0,0,0.0,0.08068308979272842,2.614786148071289,0.19712309539318085,1.139041447691306,2.0698987906601585,1.4423037403749106,0.2,0.2,1.0,-0.02499999999999991,1.0,-0.6640035616184629,1.4423037403749106,3.397401864873724,7.160007953643799e-05,-0.00021648406982421875,2.419388510286808,2.3849973678588867,0
2025-12-05 17:07:09.350845,0.2,0.2,15750.1,1297.8,12.1,19.5,4098.9,335.0,25.9,0.00,0.00,0.00,0.00,0,0,0,0,0,0,0,0,0,0,0,0,0,0,0,0,0.0,0.08063208311796188,2.614828109741211,0.1971173733472824,1.1492195299715957,2.0653382964189344,1.4384761981822898,0.2,0.2,1.0,-0.02499999999999991,1.0,-0.66019535519008,1.4384761981822898,3.3974087277392484,2.059340476989746e-05,-0.00017452239990234375,2.419388510286808,2.3849973678588867,0
2025-12-05 17:07:09.604738,0.2,0.2,14974.4,1233.6,12.1,18.5,4099.8,335.1,25.9,0.00,0.00,0.00,0.00,0,0,0,0,0,0,0,0,0,0,0,0,0,0,0,0,0.0,0.08061967045068741,2.6149418354034424,0.19697517156600952,1.188686589679533,2.0444457826126077,1.4494340654183677,0.2,0.2,1.0,-0.02499999999999991,1.0,-0.6711796257132228,1.4494340654183677,3.3973377264438755,8.180737495422363e-06,-6.079673767089844e-05,2.419388510286808,2.3849973678588867,0
2025-12-05 17:07:09.635274,0.2,0.2,14726.9,1213.1,12.1,18.2,4100.7,335.2,25.9,0.00,0.00,0.00,0.00,0,0,0,0,0,0,0,0,0,0,0,0,0,0,0,0,0.0,0.08061967045068741,2.6149418354034424,0.19697517156600952,1.188686589679533,2.0444457826126077,1.4494340654183677,0.2,0.2,1.0,-0.02499999999999991,1.0,-0.6711796257132228,1.4494340654183677,3.3973377264438755,8.180737495422363e-06,-6.079673767089844e-05,2.419388510286808,2.3849973678588867,0
2025-12-05 17:07:09.665534,0.2,0.2,14954.7,1231.9,12.1,18.5,4101.6,335.3,25.9,0.00,0.00,0.00,0.00,0,0,0,0,0,0,0,0,0,0,0,0,0,0,0,0,0.0,0.08061967045068741,2.6149418354034424,0.19697517156600952,1.188686589679533,2.0444457826126077,1.4494340654183677,0.2,0.2,1.0,-0.02499999999999991,1.0,-0.6711796257132228,1.4494340654183677,3.3973377264438755,8.180737495422363e-06,-6.079673767089844e-05,2.419388510286808,2.3849973678588867,0
2025-12-05 17:07:09.696808,0.2,0.2,15125.9,1246.1,12.1,18.7,4102.5,335.3,25.9,0.00,0.00,0.00,0.00,0,0,0,0,0,0,0,0,0,0,0,0,0,0,0,0,0.0,0.08061967045068741,2.6149418354034424,0.19697517156600952,1.188686589679533,2.0444457826126077,1.4494340654183677,0.2,0.2,1.0,-0.02499999999999991,1.0,-0.6711796257132228,1.4494340654183677,3.3973377264438755,8.180737495422363e-06,-6.079673767089844e-05,2.419388510286808,2.3849973678588867,0
2025-12-05 17:07:09.735691,0.2,0.2,14881.2,1226.0,12.1,18.4,4103.4,335.4,25.9,0.00,0.00,0.00,0.00,0,0,0,0,0,0,0,0,0,0,0,0,0,0,0,0,0.0,0.08065738528966904,2.6149656772613525,0.19695721566677094,1.1982609726506674,2.0385983738275475,1.4543454824571214,0.2,0.2,1.0,-0.02499999999999991,1.0,-0.6760882468547192,1.4543454824571214,3.3972941303329653,4.589557647705078e-05,-3.695487976074219e-05,2.419388510286808,2.3849973678588867,0
