Timestamp,forward_vel_cmd,steering_vel_cmd,power_mW,current_mA,busVoltage_V,shuntVoltage_mV,energy,charge,dieTemp,Left_Stick_X,Left_Stick_Y,Right_Stick_X,Right_Stick_Y,Button_0,Button_1,Button_2,Button_3,Button_4,Button_5,Button_6,Button_7,Button_8,Button_9,Button_10,Button_11,Button_12,Button_13,Button_14,Button_15,mocap_velocity,mocap_x,mocap_y,mocap_z,mocap_roll,mocap_pitch,mocap_yaw_raw,forward_vel_cmd,steering_vel_cmd,left_wheel_vel,right_wheel_vel,ppo_control_active,heading_error_rad,current_heading_rad,distance_to_target,relative_x,relative_y,target_relative_x,target_relative_y,current_waypoint_idx
2025-12-05 17:53:08.938573,0.0,0.0,1023.4,84.8,12.1,1.3,6895.1,565.7,26.2,0.00,0.00,0.00,0.00,0,0,0,0,0,0,0,0,0,0,0,0,0,0,0,0,0.0,0.21520587801933289,1.2021664381027222,0.7125747203826904,6.064446044329686,2.0843173244547932,4.242807160255735,0.0,0.0,0.0,0.0,0.0,3.0695759593465337,-2.0403781469238513,4.432135370643678,-0.00017499923706054688,-1.049041748046875e-05,2.2846191227436066,3.7978230714797974,0
2025-12-05 17:53:08.969909,0.0,0.0,1017.8,84.3,12.1,1.3,6895.2,565.7,26.2,0.00,0.00,0.00,0.00,0,0,0,0,0,0,0,0,0,0,0,0,0,0,0,0,0.0,0.21520781517028809,1.2021476030349731,0.7125852108001709,6.049475473763702,2.0906132390658163,4.236896731432109,0.0,0.0,0.0,0.0,0.0,3.0754889534067953,-2.0462885757474774,4.432150511545375,-0.00017306208610534668,-2.9325485229492188e-05,2.2846191227436066,3.7978230714797974,0
2025-12-05 17:53:09.001104,0.0,0.0,1022.6,84.8,12.1,1.3,6895.3,565.7,26.2,0.00,0.00,0.00,0.00,0,0,0,0,0,0,0,0,0,0,0,0,0,0,0,0,0.0,0.21520781517028809,1.2021476030349731,0.7125852108001709,6.049475473763702,2.0906132390658163,4.236896731432109,0.0,0.0,0.0,0.0,0.0,3.0754889534067953,-2.0462885757474774,4.432150511545375,-0.00017306208610534668,-2.9325485229492188e-05,2.2846191227436066,3.7978230714797974,0
2025-12-05 17:53:09.032137,0.0,0.0,1037.0,85.9,12.1,1.3,6895.3,565.7,26.2,0.00,0.00,0.00,0.00,0,0,0,0,0,0,0,0,0,0,0,0,0,0,0,0,0.0,0.21520781517028809,1.2021476030349731,0.7125852108001709,6.049475473763702,2.0906132390658163,4.236896731432109,0.0,0.0,0.0,0.0,0.0,3.0754889534067953,-2.0462885757474774,4.432150511545375,-0.00017306208610534668,-2.9325485229492188e-05,2.2846191227436066,3.7978230714797974,0
2025-12-05 17:53:09.063926,0.0,0.0,1030.3,85.4,12.1,1.3,6895.4,565.7,26.2,0.00,0.00,0.00,0.00,0,0,0,0,0,0,0,0,0,0,0,0,0,0,0,0,0.0,0.21536608040332794,1.202154517173767,0.7124917507171631,6.055991598952216,2.1030879897597816,4.219960505064163,0.0,0.0,0.0,0.0,0.0,3.0924549742884384,-2.0632248021154234,4.432063002484878,-1.4796853065490723e-05,-2.2411346435546875e-05,2.2846191227436066,3.7978230714797974,0
2025-12-05 17:53:09.095332,0.0,0.0,1015.7,84.2,12.1,1.3,6895.4,565.7,26.2,0.00,0.00,0.00,0.00,0,0,0,0,0,0,0,0,0,0,0,0,0,0,0,0,0.0,0.21536608040332794,1.202154517173767,0.7124917507171631,6.055991598952216,2.1030879897597816,4.219960505064163,0.0,0.0,0.0,0.0,0.0,3.0924549742884384,-2.0632248021154234,4.432063002484878,-1.4796853065490723e-05,-2.2411346435546875e-05,2.2846191227436066,3.7978230714797974,0
2025-12-05 17:53:09.126718,0.0,0.0,1024.5,84.9,12.1,1.3,6895.5,565.7,26.2,0.00,0.00,0.00,0.00,0,0,0,0,0,0,0,0,0,0,0,0,0,0,0,0,0.0,0.21536608040332794,1.202154517173767,0.7124917507171631,6.055991598952216,2.1030879897597816,4.219960505064163,0.0,0.0,0.0,0.0,0.0,3.0924549742884384,-2.0632248021154234,4.432063002484878,-1.4796853065490723e-05,-2.2411346435546875e-05,2.2846191227436066,3.7978230714797974,0
2025-12-05 17:53:09.158227,0.0,0.0,1027.0,85.1,12.1,1.3,6895.6,565.7,26.2,0.00,0.00,0.00,0.00,0,0,0,0,0,0,0,0,0,0,0,0,0,0,0,0,0.0,0.21520397067070007,1.2021459341049194,0.7125961780548096,6.065258408622153,2.0861982053841572,4.237182697477094,0.0,0.0,0.0,0.0,0.0,3.0752024382018486,-2.046002609702493,4.432153923486269,-0.00017690658569335938,-3.0994415283203125e-05,2.2846191227436066,3.7978230714797974,0
2025-12-05 17:53:09.189441,0.0,0.0,1021.1,84.6,12.1,1.3,6895.6,565.7,26.2,0.00,0.00,0.00,0.00,0,0,0,0,0,0,0,0,0,0,0,0,0,0,0,0,0.0,0.21520397067070007,1.2021459341049194,0.7125961780548096,6.065258408622153,2.0861982053841572,4.237182697477094,0.0,0.0,0.0,0.0,0.0,3.0752024382018486,-2.046002609702493,4.432153923486269,-0.00017690658569335938,-3.0994415283203125e-05,2.2846191227436066,3.7978230714797974,0
2025-12-05 17:53:09.220806,0.0,0.0,1027.0,85.0,12.1,1.3,6895.7,565.7,26.2,0.00,0.00,0.00,0.00,0,0,0,0,0,0,0,0,0,0,0,0,0,0,0,0,0.0,0.21520397067070007,1.2021459341049194,0.7125961780548096,6.065258408622153,2.0861982053841572,4.237182697477094,0.0,0.0,0.0,0.0,0.0,3.0752024382018486,-2.046002609702493,4.432153923486269,-0.00017690658569335938,-3.0994415283203125e-05,2.2846191227436066,3.7978230714797974,0
2025-12-05 17:53:09.252319,0.0,0.0,1025.3,85.0,12.1,1.3,6895.7,565.7,26.2,0.00,0.00,0.00,0.00,0,0,0,0,0,0,0,0,0,0,0,0,0,0,0,0,0.0,0.21537122130393982,1.2021653652191162,0.7124831676483154,6.061252074448089,2.096881086952285,4.222165257922738,0.0,0.0,0.0,0.0,0.0,3.090249953678933,-2.061020049256849,4.432051056744213,-9.655952453613281e-06,-1.1563301086425781e-05,2.2846191227436066,3.7978230714797974,0
2025-12-05 17:53:09.283740,0.0,0.0,1022.6,84.7,12.1,1.3,6895.8,565.8,26.2,0.00,0.00,0.00,0.00,0,0,0,0,0,0,0,0,0,0,0,0,0,0,0,0,0.0,0.21537122130393982,1.2021653652191162,0.7124831676483154,6.061252074448089,2.096881086952285,4.222165257922738,0.0,0.0,0.0,0.0,0.0,3.090249953678933,-2.061020049256849,4.432051056744213,-9.655952453613281e-06,-1.1563301086425781e-05,2.2846191227436066,3.7978230714797974,0
2025-12-05 17:53:09.315003,0.0,0.0,1021.1,84.6,12.1,1.3,6895.9,565.8,26.2,0.00,0.00,0.00,0.00,0,0,0,0,0,0,0,0,0,0,0,0,0,0,0,0,0.0,0.21537122130393982,1.2021653652191162,0.7124831676483154,6.061252074448089,2.096881086952285,4.222165257922738,0.0,0.0,0.0,0.0,0.0,3.090249953678933,-2.061020049256849,4.432051056744213,-9.655952453613281e-06,-1.1563301086425781e-05,2.2846191227436066,3.7978230714797974,0
2025-12-05 17:53:09.346059,0.0,0.0,1022.1,84.7,12.1,1.3,6895.9,565.8,26.2,0.00,0.00,0.00,0.00,0,0,0,0,0,0,0,0,0,0,0,0,0,0,0,0,0.0,0.21537122130393982,1.2021653652191162,0.7124831676483154,6.061252074448089,2.096881086952285,4.222165257922738,0.0,0.0,0.0,0.0,0.0,3.090249953678933,-2.061020049256849,4.432051056744213,-9.655952453613281e-06,-1.1563301086425781e-05,2.2846191227436066,3.7978230714797974,0
2025-12-05 17:53:09.377402,0.0,0.0,1023.6,84.8,12.1,1.3,6896.0,565.8,26.2,0.00,0.00,0.00,0.00,0,0,0,0,0,0,0,0,0,0,0,0,0,0,0,0,0.0,0.215192973613739,1.2021815776824951,0.7125728726387024,6.068587449011809,2.080175845958911,4.243525397819708,0.0,0.0,0.0,0.0,0.0,3.068853466005937,-2.039659909359879,4.432129050097509,-0.00018790364265441895,4.649162292480469e-06,2.2846191227436066,3.7978230714797974,0
2025-12-05 17:53:09.408879,0.0,0.0,1022.6,84.8,12.1,1.3,6896.0,565.8,26.2,0.00,0.00,0.00,0.00,0,0,0,0,0,0,0,0,0,0,0,0,0,0,0,0,0.0,0.215192973613739,1.2021815776824951,0.7125728726387024,6.068587449011809,2.080175845958911,4.243525397819708,0.0,0.0,0.0,0.0,0.0,3.068853466005937,-2.039659909359879,4.432129050097509,-0.00018790364265441895,4.649162292480469e-06,2.2846191227436066,3.7978230714797974,0
2025-12-05 17:53:09.439780,0.0,0.0,1027.3,85.1,12.1,1.3,6896.1,565.8,26.2,0.00,0.00,0.00,0.00,0,0,0,0,0,0,0,0,0,0,0,0,0,0,0,0,0.0,0.215192973613739,1.2021815776824951,0.7125728726387024,6.068587449011809,2.080175845958911,4.243525397819708,0.0,0.0,0.0,0.0,0.0,3.068853466005937,-2.039659909359879,4.432129050097509,-0.00018790364265441895,4.649162292480469e-06,2.2846191227436066,3.7978230714797974,0
2025-12-05 17:53:09.470872,0.0,0.0,1027.0,85.1,12.1,1.3,6896.1,565.8,26.2,0.00,0.00,0.00,0.00,0,0,0,0,0,0,0,0,0,0,0,0,0,0,0,0,0.0,0.21537402272224426,1.202178955078125,0.7124761939048767,6.072809126290458,2.0904865878022125,4.225428599076592,0.0,0.0,0.0,0.0,0.0,3.0869855735574956,-2.057756708102995,4.43203796749349,-6.854534149169922e-06,2.0265579223632812e-06,2.2846191227436066,3.7978230714797974,0
2025-12-05 17:53:09.502399,0.0,0.0,1026.3,85.0,12.1,1.3,6896.2,565.8,26.2,0.00,0.00,0.00,0.00,0,0,0,0,0,0,0,0,0,0,0,0,0,0,0,0,0.0,0.21537402272224426,1.202178955078125,0.7124761939048767,6.072809126290458,2.0904865878022125,4.225428599076592,0.0,0.0,0.0,0.0,0.0,3.0869855735574956,-2.057756708102995,4.43203796749349,-6.854534149169922e-06,2.0265579223632812e-06,2.2846191227436066,3.7978230714797974,0
2025-12-05 17:53:09.533372,0.0,0.0,1027.7,85.2,12.1,1.3,6896.3,565.8,26.2,0.00,0.00,0.00,0.00,0,0,0,0,0,0,0,0,0,0,0,0,0,0,0,0,0.0,0.21537402272224426,1.202178955078125,0.7124761939048767,6.072809126290458,2.0904865878022125,4.225428599076592,0.0,0.0,0.0,0.0,0.0,3.0869855735574956,-2.057756708102995,4.43203796749349,-6.854534149169922e-06,2.0265579223632812e-06,2.2846191227436066,3.7978230714797974,0
2025-12-05 17:53:09.564552,0.0,0.0,1022.2,84.7,12.1,1.3,6896.3,565.8,26.2,0.00,0.00,0.00,0.00,0,0,0,0,0,0,0,0,0,0,0,0,0,0,0,0,0.0,0.21536371111869812,1.2021775245666504,0.7124695777893066,6.061006026981135,2.0945450630274323,4.226388593447295,0.0,0.0,0.0,0.0,0.0,3.0860237518966436,-2.056796713732292,4.4320445087318365,-1.71661376953125e-05,5.960464477539062e-07,2.2846191227436066,3.7978230714797974,0
2025-12-05 17:53:09.596092,0.0,0.0,1023.3,84.8,12.1,1.3,6896.4,565.8,26.2,0.00,0.00,0.00,0.00,0,0,0,0,0,0,0,0,0,0,0,0,0,0,0,0,0.0,0.21536371111869812,1.2021775245666504,0.7124695777893066,6.061006026981135,2.0945450630274323,4.226388593447295,0.0,0.0,0.0,0.0,0.0,3.0860237518966436,-2.056796713732292,4.4320445087318365,-1.71661376953125e-05,5.960464477539062e-07,2.2846191227436066,3.7978230714797974,0
2025-12-05 17:53:09.627582,0.0,0.0,1027.6,85.2,12.1,1.3,6896.4,565.8,26.2,0.00,0.00,0.00,0.00,0,0,0,0,0,0,0,0,0,0,0,0,0,0,0,0,0.0,0.21536371111869812,1.2021775245666504,0.7124695777893066,6.061006026981135,2.0945450630274323,4.226388593447295,0.0,0.0,0.0,0.0,0.0,3.0860237518966436,-2.056796713732292,4.4320445087318365,-1.71661376953125e-05,5.960464477539062e-07,2.2846191227436066,3.7978230714797974,0
2025-12-05 17:53:09.658453,0.0,0.0,1019.8,85.3,12.1,1.3,6896.5,565.8,26.2,0.00,0.00,0.00,0.00,0,0,0,0,0,0,0,0,0,0,0,0,0,0,0,0,0.0,0.21536371111869812,1.2021775245666504,0.7124695777893066,6.061006026981135,2.0945450630274323,4.226388593447295,0.0,0.0,0.0,0.0,0.0,3.0860237518966436,-2.056796713732292,4.4320445087318365,-1.71661376953125e-05,5.960464477539062e-07,2.2846191227436066,3.7978230714797974,0
2025-12-05 17:53:09.689494,0.0,0.0,1028.3,85.2,12.1,1.3,6896.6,565.8,26.2,0.00,0.00,0.00,0.00,0,0,0,0,0,0,0,0,0,0,0,0,0,0,0,0,0.0,0.2154044806957245,1.2021390199661255,0.7124917507171631,6.0653448088497655,2.0979680441025965,4.214962253772795,0.0,0.0,0.0,0.0,0.0,3.097462452398834,-2.0682230534067916,4.432056487736707,2.3603439331054688e-05,-3.790855407714844e-05,2.2846191227436066,3.7978230714797974,0
2025-12-05 17:53:09.720405,0.0,0.0,1035.3,85.2,12.1,1.3,6896.6,565.8,26.2,0.00,0.00,0.00,0.00,0,0,0,0,0,0,0,0,0,0,0,0,0,0,0,0,0.0,0.2154044806957245,1.2021390199661255,0.7124917507171631,6.0653448088497655,2.0979680441025965,4.214962253772795,0.0,0.0,0.0,0.0,0.0,3.097462452398834,-2.0682230534067916,4.432056487736707,2.3603439331054688e-05,-3.790855407714844e-05,2.2846191227436066,3.7978230714797974,0
2025-12-05 17:53:09.752000,0.0,0.0,1026.6,85.1,12.1,1.3,6896.7,565.8,26.2,0.00,0.00,0.00,0.00,0,0,0,0,0,0,0,0,0,0,0,0,0,0,0,0,0.0,0.2154044806957245,1.2021390199661255,0.7124917507171631,6.0653448088497655,2.0979680441025965,4.214962253772795,0.0,0.0,0.0,0.0,0.0,3.097462452398834,-2.0682230534067916,4.432056487736707,2.3603439331054688e-05,-3.790855407714844e-05,2.2846191227436066,3.7978230714797974,0
2025-12-05 17:53:09.783060,0.0,0.0,1023.9,84.9,12.1,1.3,6896.7,565.8,26.2,0.00,0.00,0.00,0.00,0,0,0,0,0,0,0,0,0,0,0,0,0,0,0,0,0.0,0.21536985039710999,1.2021781206130981,0.7124674320220947,6.069520596917671,2.089811023791477,4.227596387119219,0.0,0.0,0.0,0.0,0.0,3.0848170758817828,-2.055588920060368,4.432040833298401,-1.1026859283447266e-05,1.1920928955078125e-06,2.2846191227436066,3.7978230714797974,0
2025-12-05 17:53:09.814663,0.0,0.0,1016.5,84.2,12.1,1.3,6896.8,565.8,26.2,0.00,0.00,0.00,0.00,0,0,0,0,0,0,0,0,0,0,0,0,0,0,0,0,0.0,0.21536985039710999,1.2021781206130981,0.7124674320220947,6.069520596917671,2.089811023791477,4.227596387119219,0.0,0.0,0.0,0.0,0.0,3.0848170758817828,-2.055588920060368,4.432040833298401,-1.1026859283447266e-05,1.1920928955078125e-06,2.2846191227436066,3.7978230714797974,0
2025-12-05 17:53:09.845126,0.0,0.0,1024.7,84.9,12.1,1.3,6896.9,565.8,26.2,0.00,0.00,0.00,0.00,0,0,0,0,0,0,0,0,0,0,0,0,0,0,0,0,0.0,0.21536985039710999,1.2021781206130981,0.7124674320220947,6.069520596917671,2.089811023791477,4.227596387119219,0.0,0.0,0.0,0.0,0.0,3.0848170758817828,-2.055588920060368,4.432040833298401,-1.1026859283447266e-05,1.1920928955078125e-06,2.2846191227436066,3.7978230714797974,0
2025-12-05 17:53:09.876242,0.0,0.0,1026.7,85.1,12.1,1.3,6896.9,565.8,26.2,0.00,0.00,0.00,0.00,0,0,0,0,0,0,0,0,0,0,0,0,0,0,0,0,0.0,0.21537914872169495,1.202144980430603,0.712493896484375,6.0575008457782396,2.098197635094741,4.218260175338484,0.0,0.0,0.0,0.0,0.0,3.0941589398505105,-2.0649251318411026,4.4320644381331,-1.7285346984863281e-06,-3.1948089599609375e-05,2.2846191227436066,3.7978230714797974,0
2025-12-05 17:53:09.907343,0.0,0.0,1020.4,84.6,12.1,1.3,6897.0,565.9,26.2,0.00,0.00,0.00,0.00,0,0,0,0,0,0,0,0,0,0,0,0,0,0,0,0,0.0,0.21537914872169495,1.202144980430603,0.712493896484375,6.0575008457782396,2.098197635094741,4.218260175338484,0.0,0.0,0.0,0.0,0.0,3.0941589398505105,-2.0649251318411026,4.4320644381331,-1.7285346984863281e-06,-3.1948089599609375e-05,2.2846191227436066,3.7978230714797974,0
2025-12-05 17:53:09.938513,0.0,0.0,1023.8,84.8,12.1,1.3,6897.0,565.9,26.2,0.00,0.00,0.00,0.00,0,0,0,0,0,0,0,0,0,0,0,0,0,0,0,0,0.0,0.21537914872169495,1.202144980430603,0.712493896484375,6.0575008457782396,2.098197635094741,4.218260175338484,0.0,0.0,0.0,0.0,0.0,3.0941589398505105,-2.0649251318411026,4.4320644381331,-1.7285346984863281e-06,-3.1948089599609375e-05,2.2846191227436066,3.7978230714797974,0
2025-12-05 17:53:09.969610,0.0,0.0,1026.9,85.1,12.1,1.3,6897.1,565.9,26.2,0.00,0.00,0.00,0.00,0,0,0,0,0,0,0,0,0,0,0,0,0,0,0,0,0.0,0.21537914872169495,1.202144980430603,0.712493896484375,6.0575008457782396,2.098197635094741,4.218260175338484,0.0,0.0,0.0,0.0,0.0,3.0941589398505105,-2.0649251318411026,4.4320644381331,-1.7285346984863281e-06,-3.1948089599609375e-05,2.2846191227436066,3.7978230714797974,0
2025-12-05 17:53:10.001314,0.0,0.0,1031.6,85.5,12.1,1.3,6897.2,565.9,26.2,0.00,0.00,0.00,0.00,0,0,0,0,0,0,0,0,0,0,0,0,0,0,0,0,0.0,0.2151949107646942,1.202150821685791,0.7125802040100098,6.055051585590348,2.0895553988659765,4.236219369151085,0.0,0.0,0.0,0.0,0.0,3.0761634464632994,-2.0469659380285017,4.432154405818627,-0.00018596649169921875,-2.6106834411621094e-05,2.2846191227436066,3.7978230714797974,0
2025-12-05 17:53:10.032874,0.0,0.0,1034.2,85.7,12.1,1.3,6897.2,565.9,26.2,0.00,0.00,0.00,0.00,0,0,0,0,0,0,0,0,0,0,0,0,0,0,0,0,0.0,0.2151949107646942,1.202150821685791,0.7125802040100098,6.055051585590348,2.0895553988659765,4.236219369151085,0.0,0.0,0.0,0.0,0.0,3.0761634464632994,-2.0469659380285017,4.432154405818627,-0.00018596649169921875,-2.6106834411621094e-05,2.2846191227436066,3.7978230714797974,0
2025-12-05 17:53:10.064135,0.0,0.0,1028.6,85.2,12.1,1.3,6897.3,565.9,26.2,0.00,0.00,0.00,0.00,0,0,0,0,0,0,0,0,0,0,0,0,0,0,0,0,0.0,0.2151949107646942,1.202150821685791,0.7125802040100098,6.055051585590348,2.0895553988659765,4.236219369151085,0.0,0.0,0.0,0.0,0.0,3.0761634464632994,-2.0469659380285017,4.432154405818627,-0.00018596649169921875,-2.6106834411621094e-05,2.2846191227436066,3.7978230714797974,0
2025-12-05 17:53:10.094853,0.0,0.0,1015.6,84.2,12.1,1.3,6897.3,565.9,26.2,0.00,0.00,0.00,0.00,0,0,0,0,0,0,0,0,0,0,0,0,0,0,0,0,0.0,0.21520301699638367,1.2021434307098389,0.712601363658905,6.070525552804538,2.0871173766226025,4.236549677090137,0.0,0.0,0.0,0.0,0.0,3.075835565381274,-2.0466356300894497,4.432156560235983,-0.00017786026000976562,-3.349781036376953e-05,2.2846191227436066,3.7978230714797974,0
2025-12-05 17:53:10.125680,0.0,0.0,1018.7,84.4,12.1,1.3,6897.4,565.9,26.2,0.00,0.00,0.00,0.00,0,0,0,0,0,0,0,0,0,0,0,0,0,0,0,0,0.0,0.21520301699638367,1.2021434307098389,0.712601363658905,6.070525552804538,2.0871173766226025,4.236549677090137,0.0,0.0,0.0,0.0,0.0,3.075835565381274,-2.0466356300894497,4.432156560235983,-0.00017786026000976562,-3.349781036376953e-05,2.2846191227436066,3.7978230714797974,0
2025-12-05 17:53:10.157062,0.0,0.0,1027.7,84.4,12.1,1.3,6897.5,565.9,26.2,0.00,0.00,0.00,0.00,0,0,0,0,0,0,0,0,0,0,0,0,0,0,0,0,0.0,0.21520301699638367,1.2021434307098389,0.712601363658905,6.070525552804538,2.0871173766226025,4.236549677090137,0.0,0.0,0.0,0.0,0.0,3.075835565381274,-2.0466356300894497,4.432156560235983,-0.00017786026000976562,-3.349781036376953e-05,2.2846191227436066,3.7978230714797974,0
2025-12-05 17:53:10.188362,0.0,0.0,1025.8,85.0,12.1,1.3,6897.5,565.9,26.2,0.00,0.00,0.00,0.00,0,0,0,0,0,0,0,0,0,0,0,0,0,0,0,0,0.0,0.21520301699638367,1.2021434307098389,0.712601363658905,6.070525552804538,2.0871173766226025,4.236549677090137,0.0,0.0,0.0,0.0,0.0,3.075835565381274,-2.0466356300894497,4.432156560235983,-0.00017786026000976562,-3.349781036376953e-05,2.2846191227436066,3.7978230714797974,0
2025-12-05 17:53:10.219779,0.0,0.0,1030.4,85.4,12.1,1.3,6897.6,565.9,26.2,0.00,0.00,0.00,0.00,0,0,0,0,0,0,0,0,0,0,0,0,0,0,0,0,0.0,0.21520301699638367,1.2021434307098389,0.712601363658905,6.070525552804538,2.0871173766226025,4.236549677090137,0.0,0.0,0.0,0.0,0.0,3.075835565381274,-2.0466356300894497,4.432156560235983,-0.00017786026000976562,-3.349781036376953e-05,2.2846191227436066,3.7978230714797974,0
2025-12-05 17:53:10.250612,0.0,0.0,1024.8,84.9,12.1,1.3,6897.6,565.9,26.2,0.00,0.00,0.00,0.00,0,0,0,0,0,0,0,0,0,0,0,0,0,0,0,0,0.0,0.21520301699638367,1.2021434307098389,0.712601363658905,6.070525552804538,2.0871173766226025,4.236549677090137,0.0,0.0,0.0,0.0,0.0,3.075835565381274,-2.0466356300894497,4.432156560235983,-0.00017786026000976562,-3.349781036376953e-05,2.2846191227436066,3.7978230714797974,0
2025-12-05 17:53:10.281823,0.0,0.0,1028.7,84.9,12.1,1.3,6897.7,565.9,26.2,0.00,0.00,0.00,0.00,0,0,0,0,0,0,0,0,0,0,0,0,0,0,0,0,0.0,0.21520301699638367,1.2021434307098389,0.712601363658905,6.070525552804538,2.0871173766226025,4.236549677090137,0.0,0.0,0.0,0.0,0.0,3.075835565381274,-2.0466356300894497,4.432156560235983,-0.00017786026000976562,-3.349781036376953e-05,2.2846191227436066,3.7978230714797974,0
2025-12-05 17:53:10.313336,0.0,0.0,1019.4,84.5,12.1,1.3,6897.8,565.9,26.2,0.00,0.00,0.00,0.00,0,0,0,0,0,0,0,0,0,0,0,0,0,0,0,0,0.0,0.21537141501903534,1.2021604776382446,0.7124882340431213,6.0658843797249045,2.0981104669080057,4.222282935241536,0.0,0.0,0.0,0.0,0.0,3.090132882273104,-2.060902371938051,4.432055145068153,-9.462237358093262e-06,-1.6450881958007812e-05,2.2846191227436066,3.7978230714797974,0
2025-12-05 17:53:10.344722,0.0,0.0,1026.1,85.0,12.1,1.3,6897.8,565.9,26.2,0.00,0.00,0.00,0.00,0,0,0,0,0,0,0,0,0,0,0,0,0,0,0,0,0.0,0.21537141501903534,1.2021604776382446,0.7124882340431213,6.0658843797249045,2.0981104669080057,4.222282935241536,0.0,0.0,0.0,0.0,0.0,3.090132882273104,-2.060902371938051,4.432055145068153,-9.462237358093262e-06,-1.6450881958007812e-05,2.2846191227436066,3.7978230714797974,0
2025-12-05 17:53:10.376095,0.0,0.0,1026.9,85.1,12.1,1.3,6897.9,565.9,26.2,0.00,0.00,0.00,0.00,0,0,0,0,0,0,0,0,0,0,0,0,0,0,0,0,0.0,0.21537141501903534,1.2021604776382446,0.7124882340431213,6.0658843797249045,2.0981104669080057,4.222282935241536,0.0,0.0,0.0,0.0,0.0,3.090132882273104,-2.060902371938051,4.432055145068153,-9.462237358093262e-06,-1.6450881958007812e-05,2.2846191227436066,3.7978230714797974,0
2025-12-05 17:53:10.407540,0.0,0.0,1022.1,84.7,12.1,1.3,6897.9,565.9,26.2,0.00,0.00,0.00,0.00,0,0,0,0,0,0,0,0,0,0,0,0,0,0,0,0,0.0,0.21537794172763824,1.2021772861480713,0.712480366230011,6.061420445180735,2.0958648408484866,4.224055737507383,0.0,0.0,0.0,0.0,0.0,3.0883593869468005,-2.059129569672203,4.432037377436507,-2.9355287551879883e-06,3.5762786865234375e-07,2.2846191227436066,3.7978230714797974,0
2025-12-05 17:53:10.438910,0.0,0.0,1030.8,85.0,12.1,1.3,6898.0,565.9,26.2,0.00,0.00,0.00,0.00,0,0,0,0,0,0,0,0,0,0,0,0,0,0,0,0,0.0,0.21537794172763824,1.2021772861480713,0.712480366230011,6.061420445180735,2.0958648408484866,4.224055737507383,0.0,0.0,0.0,0.0,0.0,3.0883593869468005,-2.059129569672203,4.432037377436507,-2.9355287551879883e-06,3.5762786865234375e-07,2.2846191227436066,3.7978230714797974,0
2025-12-05 17:53:10.470212,0.0,0.0,1026.9,85.1,12.1,1.3,6898.1,565.9,26.2,0.00,0.00,0.00,0.00,0,0,0,0,0,0,0,0,0,0,0,0,0,0,0,0,0.0,0.21537794172763824,1.2021772861480713,0.712480366230011,6.061420445180735,2.0958648408484866,4.224055737507383,0.0,0.0,0.0,0.0,0.0,3.0883593869468005,-2.059129569672203,4.432037377436507,-2.9355287551879883e-06,3.5762786865234375e-07,2.2846191227436066,3.7978230714797974,0
2025-12-05 17:53:10.500848,0.0,0.0,1026.1,85.0,12.1,1.3,6898.1,565.9,26.2,0.00,0.00,0.00,0.00,0,0,0,0,0,0,0,0,0,0,0,0,0,0,0,0,0.0,0.21537938714027405,1.2021498680114746,0.7124849557876587,6.058262796765254,2.0955917791637546,4.2195544408572925,0.0,0.0,0.0,0.0,0.0,3.0928641519726936,-2.063630866322294,4.4320601270457525,-1.4901161193847656e-06,-2.7060508728027344e-05,2.2846191227436066,3.7978230714797974,0
2025-12-05 17:53:10.532192,0.0,0.0,1022.8,84.8,12.1,1.3,6898.2,566.0,26.2,0.00,0.00,0.00,0.00,0,0,0,0,0,0,0,0,0,0,0,0,0,0,0,0,0.0,0.21537938714027405,1.2021498680114746,0.7124849557876587,6.058262796765254,2.0955917791637546,4.2195544408572925,0.0,0.0,0.0,0.0,0.0,3.0928641519726936,-2.063630866322294,4.4320601270457525,-1.4901161193847656e-06,-2.7060508728027344e-05,2.2846191227436066,3.7978230714797974,0
2025-12-05 17:53:10.563122,0.0,0.0,1017.9,84.4,12.1,1.3,6898.2,566.0,26.2,0.00,0.00,0.00,0.00,0,0,0,0,0,0,0,0,0,0,0,0,0,0,0,0,0.0,0.21537938714027405,1.2021498680114746,0.7124849557876587,6.058262796765254,2.0955917791637546,4.2195544408572925,0.0,0.0,0.0,0.0,0.0,3.0928641519726936,-2.063630866322294,4.4320601270457525,-1.4901161193847656e-06,-2.7060508728027344e-05,2.2846191227436066,3.7978230714797974,0
2025-12-05 17:53:10.594174,0.0,0.0,1024.2,84.9,12.1,1.3,6898.3,566.0,26.2,0.00,0.00,0.00,0.00,0,0,0,0,0,0,0,0,0,0,0,0,0,0,0,0,0.0,0.21537938714027405,1.2021498680114746,0.7124849557876587,6.058262796765254,2.0955917791637546,4.2195544408572925,0.0,0.0,0.0,0.0,0.0,3.0928641519726936,-2.063630866322294,4.4320601270457525,-1.4901161193847656e-06,-2.7060508728027344e-05,2.2846191227436066,3.7978230714797974,0
2025-12-05 17:53:10.625614,0.0,0.0,1016.7,84.3,12.1,1.3,6898.3,566.0,26.2,0.00,0.00,0.00,0.00,0,0,0,0,0,0,0,0,0,0,0,0,0,0,0,0,0.0,0.21537408232688904,1.2021795511245728,0.7124645709991455,6.06862045058487,2.0918227995597207,4.22566437419678,0.0,0.0,0.0,0.0,0.0,3.086749740636674,-2.0575209329828064,4.4320374260152695,-6.794929504394531e-06,2.6226043701171875e-06,2.2846191227436066,3.7978230714797974,0
2025-12-05 17:53:10.656509,0.0,0.0,1024.8,85.0,12.1,1.3,6898.4,566.0,26.2,0.00,0.00,0.00,0.00,0,0,0,0,0,0,0,0,0,0,0,0,0,0,0,0,0.0,0.21537408232688904,1.2021795511245728,0.7124645709991455,6.06862045058487,2.0918227995597207,4.22566437419678,0.0,0.0,0.0,0.0,0.0,3.086749740636674,-2.0575209329828064,4.4320374260152695,-6.794929504394531e-06,2.6226043701171875e-06,2.2846191227436066,3.7978230714797974,0
2025-12-05 17:53:10.687435,0.0,0.0,1025.6,85.0,12.1,1.3,6898.5,566.0,26.2,0.00,0.00,0.00,0.00,0,0,0,0,0,0,0,0,0,0,0,0,0,0,0,0,0.0,0.21537408232688904,1.2021795511245728,0.7124645709991455,6.06862045058487,2.0918227995597207,4.22566437419678,0.0,0.0,0.0,0.0,0.0,3.086749740636674,-2.0575209329828064,4.4320374260152695,-6.794929504394531e-06,2.6226043701171875e-06,2.2846191227436066,3.7978230714797974,0
2025-12-05 17:53:10.718790,0.0,0.0,1021.9,84.7,12.1,1.3,6898.5,566.0,26.2,0.00,0.00,0.00,0.00,0,0,0,0,0,0,0,0,0,0,0,0,0,0,0,0,0.0,0.21536500751972198,1.202201247215271,0.7124673128128052,6.079499029113065,2.0871123081707332,4.231606229637562,0.0,0.0,0.0,0.0,0.0,3.0808036072142975,-2.051579077542025,4.432023512518701,-1.5869736671447754e-05,2.4318695068359375e-05,2.2846191227436066,3.7978230714797974,0
2025-12-05 17:53:10.749606,0.0,0.0,1021.4,84.6,12.1,1.3,6898.6,566.0,26.2,0.00,0.00,0.00,0.00,0,0,0,0,0,0,0,0,0,0,0,0,0,0,0,0,0.0,0.21536500751972198,1.202201247215271,0.7124673128128052,6.079499029113065,2.0871123081707332,4.231606229637562,0.0,0.0,0.0,0.0,0.0,3.0808036072142975,-2.051579077542025,4.432023512518701,-1.5869736671447754e-05,2.4318695068359375e-05,2.2846191227436066,3.7978230714797974,0
2025-12-05 17:53:10.780431,0.0,0.0,1018.7,84.4,12.1,1.3,6898.6,566.0,26.2,0.00,0.00,0.00,0.00,0,0,0,0,0,0,0,0,0,0,0,0,0,0,0,0,0.0,0.21536500751972198,1.202201247215271,0.7124673128128052,6.079499029113065,2.0871123081707332,4.231606229637562,0.0,0.0,0.0,0.0,0.0,3.0808036072142975,-2.051579077542025,4.432023512518701,-1.5869736671447754e-05,2.4318695068359375e-05,2.2846191227436066,3.7978230714797974,0
2025-12-05 17:53:10.811470,0.0,0.0,1014.2,84.1,12.1,1.3,6898.7,566.0,26.2,0.00,0.00,0.00,0.00,0,0,0,0,0,0,0,0,0,0,0,0,0,0,0,0,0.0,0.2153836190700531,1.2021631002426147,0.7124840617179871,6.064065055322867,2.095038236487285,4.22148688746668,0.0,0.0,0.0,0.0,0.0,3.0909309845811954,-2.0616984197129065,4.432046606836647,2.7418136596679688e-06,-1.3828277587890625e-05,2.2846191227436066,3.7978230714797974,0
2025-12-05 17:53:10.842795,0.0,0.0,1017.5,84.3,12.1,1.3,6898.8,566.0,26.2,0.00,0.00,0.00,0.00,0,0,0,0,0,0,0,0,0,0,0,0,0,0,0,0,0.0,0.2153836190700531,1.2021631002426147,0.7124840617179871,6.064065055322867,2.095038236487285,4.22148688746668,0.0,0.0,0.0,0.0,0.0,3.0909309845811954,-2.0616984197129065,4.432046606836647,2.7418136596679688e-06,-1.3828277587890625e-05,2.2846191227436066,3.7978230714797974,0
2025-12-05 17:53:10.874236,0.0,0.0,1020.2,84.6,12.1,1.3,6898.8,566.0,26.2,0.00,0.00,0.00,0.00,0,0,0,0,0,0,0,0,0,0,0,0,0,0,0,0,0.0,0.2153836190700531,1.2021631002426147,0.7124840617179871,6.064065055322867,2.095038236487285,4.22148688746668,0.0,0.0,0.0,0.0,0.0,3.0909309845811954,-2.0616984197129065,4.432046606836647,2.7418136596679688e-06,-1.3828277587890625e-05,2.2846191227436066,3.7978230714797974,0
2025-12-05 17:53:10.904872,0.0,0.0,1025.0,85.0,12.1,1.3,6898.9,566.0,26.2,0.00,0.00,0.00,0.00,0,0,0,0,0,0,0,0,0,0,0,0,0,0,0,0,0.0,0.2153836190700531,1.2021631002426147,0.7124840617179871,6.064065055322867,2.095038236487285,4.22148688746668,0.0,0.0,0.0,0.0,0.0,3.0909309845811954,-2.0616984197129065,4.432046606836647,2.7418136596679688e-06,-1.3828277587890625e-05,2.2846191227436066,3.7978230714797974,0
2025-12-05 17:53:10.936327,0.0,0.0,1020.4,84.6,12.1,1.3,6898.9,566.0,26.2,0.00,0.00,0.00,0.00,0,0,0,0,0,0,0,0,0,0,0,0,0,0,0,0,0.0,0.2153884917497635,1.2021616697311401,0.7124728560447693,6.06418443663733,2.095742214228445,4.222768065526735,0.0,0.0,0.0,0.0,0.0,3.0896509149963194,-2.060417241652852,4.432045320897427,7.614493370056152e-06,-1.52587890625e-05,2.2846191227436066,3.7978230714797974,0
2025-12-05 17:53:10.967563,0.0,0.0,1015.5,84.2,12.1,1.3,6899.0,566.0,26.2,0.00,0.00,0.00,0.00,0,0,0,0,0,0,0,0,0,0,0,0,0,0,0,0,0.0,0.2153884917497635,1.2021616697311401,0.7124728560447693,6.06418443663733,2.095742214228445,4.222768065526735,0.0,0.0,0.0,0.0,0.0,3.0896509149963194,-2.060417241652852,4.432045320897427,7.614493370056152e-06,-1.52587890625e-05,2.2846191227436066,3.7978230714797974,0
2025-12-05 17:53:10.999224,0.0,0.0,1021.6,84.7,12.1,1.3,6899.1,566.0,26.2,0.00,0.00,0.00,0.00,0,0,0,0,0,0,0,0,0,0,0,0,0,0,0,0,0.0,0.2153884917497635,1.2021616697311401,0.7124728560447693,6.06418443663733,2.095742214228445,4.222768065526735,0.0,0.0,0.0,0.0,0.0,3.0896509149963194,-2.060417241652852,4.432045320897427,7.614493370056152e-06,-1.52587890625e-05,2.2846191227436066,3.7978230714797974,0
2025-12-05 17:53:11.030537,0.0,0.0,1017.2,84.3,12.1,1.3,6899.1,566.0,26.2,0.00,0.00,0.00,0.00,0,0,0,0,0,0,0,0,0,0,0,0,0,0,0,0,0.0,0.21541450917720795,1.2021323442459106,0.7125017642974854,6.068814927847042,2.0982669378287087,4.2141151621402155,0.0,0.0,0.0,0.0,0.0,3.0983122593882197,-2.069070145039371,4.432057038836604,3.363192081451416e-05,-4.458427429199219e-05,2.2846191227436066,3.7978230714797974,0
2025-12-05 17:53:11.061399,0.0,0.0,1024.3,84.9,12.1,1.3,6899.2,566.0,26.2,0.00,0.00,0.00,0.00,0,0,0,0,0,0,0,0,0,0,0,0,0,0,0,0,0.0,0.21541450917720795,1.2021323442459106,0.7125017642974854,6.068814927847042,2.0982669378287087,4.2141151621402155,0.0,0.0,0.0,0.0,0.0,3.0983122593882197,-2.069070145039371,4.432057038836604,3.363192081451416e-05,-4.458427429199219e-05,2.2846191227436066,3.7978230714797974,0
2025-12-05 17:53:11.092720,0.0,0.0,1022.6,84.7,12.1,1.3,6899.2,566.0,26.2,0.00,0.00,0.00,0.00,0,0,0,0,0,0,0,0,0,0,0,0,0,0,0,0,0.0,0.21541450917720795,1.2021323442459106,0.7125017642974854,6.068814927847042,2.0982669378287087,4.2141151621402155,0.0,0.0,0.0,0.0,0.0,3.0983122593882197,-2.069070145039371,4.432057038836604,3.363192081451416e-05,-4.458427429199219e-05,2.2846191227436066,3.7978230714797974,0
2025-12-05 17:53:11.124100,0.0,0.0,1025.0,85.0,12.1,1.3,6899.3,566.0,26.2,0.00,0.00,0.00,0.00,0,0,0,0,0,0,0,0,0,0,0,0,0,0,0,0,0.0,0.21539665758609772,1.2021610736846924,0.712480366230011,6.066610571675303,2.0960211205760517,4.220493120145177,0.0,0.0,0.0,0.0,0.0,3.0919275085092934,-2.06269218703441,4.432041622368249,1.5780329704284668e-05,-1.5854835510253906e-05,2.2846191227436066,3.7978230714797974,0
2025-12-05 17:53:11.154700,0.0,0.0,1019.8,84.5,12.1,1.3,6899.4,566.0,26.2,0.00,0.00,0.00,0.00,0,0,0,0,0,0,0,0,0,0,0,0,0,0,0,0,0.0,0.21539665758609772,1.2021610736846924,0.712480366230011,6.066610571675303,2.0960211205760517,4.220493120145177,0.0,0.0,0.0,0.0,0.0,3.0919275085092934,-2.06269218703441,4.432041622368249,1.5780329704284668e-05,-1.5854835510253906e-05,2.2846191227436066,3.7978230714797974,0
2025-12-05 17:53:11.186204,0.0,0.0,1027.1,85.1,12.1,1.3,6899.4,566.1,26.2,0.00,0.00,0.00,0.00,0,0,0,0,0,0,0,0,0,0,0,0,0,0,0,0,0.0,0.21539665758609772,1.2021610736846924,0.712480366230011,6.066610571675303,2.0960211205760517,4.220493120145177,0.0,0.0,0.0,0.0,0.0,3.0919275085092934,-2.06269218703441,4.432041622368249,1.5780329704284668e-05,-1.5854835510253906e-05,2.2846191227436066,3.7978230714797974,0
2025-12-05 17:53:11.217253,0.0,0.0,1024.2,84.9,12.1,1.3,6899.5,566.1,26.2,0.00,0.00,0.00,0.00,0,0,0,0,0,0,0,0,0,0,0,0,0,0,0,0,0.0,0.21539665758609772,1.2021610736846924,0.712480366230011,6.066610571675303,2.0960211205760517,4.220493120145177,0.0,0.0,0.0,0.0,0.0,3.0919275085092934,-2.06269218703441,4.432041622368249,1.5780329704284668e-05,-1.5854835510253906e-05,2.2846191227436066,3.7978230714797974,0
2025-12-05 17:53:11.248740,0.0,0.0,1021.9,84.7,12.1,1.3,6899.5,566.1,26.2,0.00,0.00,0.00,0.00,0,0,0,0,0,0,0,0,0,0,0,0,0,0,0,0,0.0,0.21519610285758972,1.2021719217300415,0.7125691175460815,6.067101538025746,2.0815807843977416,4.245099336435244,0.0,0.0,0.0,0.0,0.0,3.067281255482337,-2.038085970744343,4.432135710974206,-0.00018477439880371094,-5.0067901611328125e-06,2.2846191227436066,3.7978230714797974,0
2025-12-05 17:53:11.280068,0.0,0.0,1017.6,84.3,12.1,1.3,6899.6,566.1,26.2,0.00,0.00,0.00,0.00,0,0,0,0,0,0,0,0,0,0,0,0,0,0,0,0,0.0,0.21519610285758972,1.2021719217300415,0.7125691175460815,6.067101538025746,2.0815807843977416,4.245099336435244,0.0,0.0,0.0,0.0,0.0,3.067281255482337,-2.038085970744343,4.432135710974206,-0.00018477439880371094,-5.0067901611328125e-06,2.2846191227436066,3.7978230714797974,0
2025-12-05 17:53:11.311358,0.0,0.0,1023.3,84.8,12.1,1.3,6899.7,566.1,26.2,0.00,0.00,0.00,0.00,0,0,0,0,0,0,0,0,0,0,0,0,0,0,0,0,0.0,0.21519610285758972,1.2021719217300415,0.7125691175460815,6.067101538025746,2.0815807843977416,4.245099336435244,0.0,0.0,0.0,0.0,0.0,3.067281255482337,-2.038085970744343,4.432135710974206,-0.00018477439880371094,-5.0067901611328125e-06,2.2846191227436066,3.7978230714797974,0
2025-12-05 17:53:11.342867,0.0,0.0,1025.6,85.0,12.1,1.3,6899.7,566.1,26.2,0.00,0.00,0.00,0.00,0,0,0,0,0,0,0,0,0,0,0,0,0,0,0,0,0.0,0.21522027254104614,1.2021359205245972,0.7125908732414246,6.06873592292294,2.088897514955889,4.2348321419431425,0.0,0.0,0.0,0.0,0.0,3.0775573101255276,-2.048353165236444,4.432154100341837,-0.00016060471534729004,-4.100799560546875e-05,2.2846191227436066,3.7978230714797974,0
2025-12-05 17:53:11.374248,0.0,0.0,1025.0,85.0,12.1,1.3,6899.8,566.1,26.2,0.00,0.00,0.00,0.00,0,0,0,0,0,0,0,0,0,0,0,0,0,0,0,0,0.0,0.21522027254104614,1.2021359205245972,0.7125908732414246,6.06873592292294,2.088897514955889,4.2348321419431425,0.0,0.0,0.0,0.0,0.0,3.0775573101255276,-2.048353165236444,4.432154100341837,-0.00016060471534729004,-4.100799560546875e-05,2.2846191227436066,3.7978230714797974,0
2025-12-05 17:53:11.405671,0.0,0.0,1012.5,83.9,12.1,1.3,6899.8,566.1,26.2,0.00,0.00,0.00,0.00,0,0,0,0,0,0,0,0,0,0,0,0,0,0,0,0,0.0,0.21522027254104614,1.2021359205245972,0.7125908732414246,6.06873592292294,2.088897514955889,4.2348321419431425,0.0,0.0,0.0,0.0,0.0,3.0775573101255276,-2.048353165236444,4.432154100341837,-0.00016060471534729004,-4.100799560546875e-05,2.2846191227436066,3.7978230714797974,0
2025-12-05 17:53:11.437030,0.0,0.0,1018.3,84.6,12.1,1.3,6899.9,566.1,26.2,0.00,0.00,0.00,0.00,0,0,0,0,0,0,0,0,0,0,0,0,0,0,0,0,0.0,0.21523748338222504,1.2021260261535645,0.7126033306121826,6.059586902311036,2.092631197884314,4.227530528127117,0.0,0.0,0.0,0.0,0.0,3.0848634022019166,-2.0556547790524697,4.4321537065586645,-0.000143393874168396,-5.0902366638183594e-05,2.2846191227436066,3.7978230714797974,0
2025-12-05 17:53:11.467729,0.0,0.0,1033.3,85.6,12.1,1.3,6900.0,566.1,26.2,0.00,0.00,0.00,0.00,0,0,0,0,0,0,0,0,0,0,0,0,0,0,0,0,0.0,0.21523748338222504,1.2021260261535645,0.7126033306121826,6.059586902311036,2.092631197884314,4.227530528127117,0.0,0.0,0.0,0.0,0.0,3.0848634022019166,-2.0556547790524697,4.4321537065586645,-0.000143393874168396,-5.0902366638183594e-05,2.2846191227436066,3.7978230714797974,0
2025-12-05 17:53:11.499115,0.0,0.0,1031.2,85.5,12.1,1.3,6900.0,566.1,26.2,0.00,0.00,0.00,0.00,0,0,0,0,0,0,0,0,0,0,0,0,0,0,0,0,0.0,0.21523748338222504,1.2021260261535645,0.7126033306121826,6.059586902311036,2.092631197884314,4.227530528127117,0.0,0.0,0.0,0.0,0.0,3.0848634022019166,-2.0556547790524697,4.4321537065586645,-0.000143393874168396,-5.0902366638183594e-05,2.2846191227436066,3.7978230714797974,0
2025-12-05 17:53:11.530643,0.0,0.0,1027.9,85.2,12.1,1.3,6900.1,566.1,26.2,0.00,0.00,0.00,0.00,0,0,0,0,0,0,0,0,0,0,0,0,0,0,0,0,0.0,0.2153802067041397,1.2021738290786743,0.7124955654144287,6.069294529322044,2.0931190707767997,4.224445461546322,0.0,0.0,0.0,0.0,0.0,3.0879705029072033,-2.0587398456332644,4.4320391722607955,-6.705522537231445e-07,-3.0994415283203125e-06,2.2846191227436066,3.7978230714797974,0
2025-12-05 17:53:11.561450,0.0,0.0,1020.2,84.6,12.1,1.3,6900.1,566.1,26.2,0.00,0.00,0.00,0.00,0,0,0,0,0,0,0,0,0,0,0,0,0,0,0,0,0.0,0.2153802067041397,1.2021738290786743,0.7124955654144287,6.069294529322044,2.0931190707767997,4.224445461546322,0.0,0.0,0.0,0.0,0.0,3.0879705029072033,-2.0587398456332644,4.4320391722607955,-6.705522537231445e-07,-3.0994415283203125e-06,2.2846191227436066,3.7978230714797974,0
2025-12-05 17:53:11.593115,0.0,0.0,1013.1,84.0,12.1,1.3,6900.2,566.1,26.2,0.00,0.00,0.00,0.00,0,0,0,0,0,0,0,0,0,0,0,0,0,0,0,0,0.0,0.2153802067041397,1.2021738290786743,0.7124955654144287,6.069294529322044,2.0931190707767997,4.224445461546322,0.0,0.0,0.0,0.0,0.0,3.0879705029072033,-2.0587398456332644,4.4320391722607955,-6.705522537231445e-07,-3.0994415283203125e-06,2.2846191227436066,3.7978230714797974,0
2025-12-05 17:53:11.624222,0.0,0.0,1015.1,84.1,12.1,1.3,6900.2,566.1,26.2,0.00,0.00,0.00,0.00,0,0,0,0,0,0,0,0,0,0,0,0,0,0,0,0,0.0,0.2153802067041397,1.2021738290786743,0.7124955654144287,6.069294529322044,2.0931190707767997,4.224445461546322,0.0,0.0,0.0,0.0,0.0,3.0879705029072033,-2.0587398456332644,4.4320391722607955,-6.705522537231445e-07,-3.0994415283203125e-06,2.2846191227436066,3.7978230714797974,0
2025-12-05 17:53:11.655554,0.0,0.0,1022.2,84.2,12.1,1.3,6900.3,566.1,26.2,0.00,0.00,0.00,0.00,0,0,0,0,0,0,0,0,0,0,0,0,0,0,0,0,0.0,0.21537737548351288,1.2021753787994385,0.7124818563461304,6.069543656062791,2.0924657386869328,4.22893969975854,0.0,0.0,0.0,0.0,0.0,3.083475537055265,-2.054245607421047,4.43203930373477,-3.5017728805541992e-06,-1.5497207641601562e-06,2.2846191227436066,3.7978230714797974,0
2025-12-05 17:53:11.686795,0.0,0.0,1020.2,84.6,12.1,1.3,6900.4,566.1,26.2,0.00,0.00,0.00,0.00,0,0,0,0,0,0,0,0,0,0,0,0,0,0,0,0,0.0,0.21537737548351288,1.2021753787994385,0.7124818563461304,6.069543656062791,2.0924657386869328,4.22893969975854,0.0,0.0,0.0,0.0,0.0,3.083475537055265,-2.054245607421047,4.43203930373477,-3.5017728805541992e-06,-1.5497207641601562e-06,2.2846191227436066,3.7978230714797974,0
2025-12-05 17:53:11.718250,0.0,0.0,1026.5,85.1,12.1,1.3,6900.4,566.1,26.2,0.00,0.00,0.00,0.00,0,0,0,0,0,0,0,0,0,0,0,0,0,0,0,0,0.0,0.21537737548351288,1.2021753787994385,0.7124818563461304,6.069543656062791,2.0924657386869328,4.22893969975854,0.0,0.0,0.0,0.0,0.0,3.083475537055265,-2.054245607421047,4.43203930373477,-3.5017728805541992e-06,-1.5497207641601562e-06,2.2846191227436066,3.7978230714797974,0
2025-12-05 17:53:11.749705,0.0,0.0,1020.3,84.6,12.1,1.3,6900.5,566.1,26.2,0.00,0.00,0.00,0.00,0,0,0,0,0,0,0,0,0,0,0,0,0,0,0,0,0.0,0.21522194147109985,1.202146053314209,0.7125887870788574,6.063719497252254,2.086664161163725,4.234860018194565,0.0,0.0,0.0,0.0,0.0,3.077528577996098,-2.0483252889850214,4.432144557332481,-0.0001589357852935791,-3.0875205993652344e-05,2.2846191227436066,3.7978230714797974,0
2025-12-05 17:53:11.780928,0.0,0.0,1020.0,84.5,12.1,1.3,6900.5,566.1,26.2,0.00,0.00,0.00,0.00,0,0,0,0,0,0,0,0,0,0,0,0,0,0,0,0,0.0,0.21522194147109985,1.202146053314209,0.7125887870788574,6.063719497252254,2.086664161163725,4.234860018194565,0.0,0.0,0.0,0.0,0.0,3.077528577996098,-2.0483252889850214,4.432144557332481,-0.0001589357852935791,-3.0875205993652344e-05,2.2846191227436066,3.7978230714797974,0
2025-12-05 17:53:11.812287,0.0,0.0,1022.9,84.8,12.1,1.3,6900.6,566.2,26.2,0.00,0.00,0.00,0.00,0,0,0,0,0,0,0,0,0,0,0,0,0,0,0,0,0.0,0.21522194147109985,1.202146053314209,0.7125887870788574,6.063719497252254,2.086664161163725,4.234860018194565,0.0,0.0,0.0,0.0,0.0,3.077528577996098,-2.0483252889850214,4.432144557332481,-0.0001589357852935791,-3.0875205993652344e-05,2.2846191227436066,3.7978230714797974,0
2025-12-05 17:53:11.843315,0.0,0.0,1026.2,85.0,12.1,1.3,6900.7,566.2,26.2,0.00,0.00,0.00,0.00,0,0,0,0,0,0,0,0,0,0,0,0,0,0,0,0,0.0,0.21522194147109985,1.202146053314209,0.7125887870788574,6.063719497252254,2.086664161163725,4.234860018194565,0.0,0.0,0.0,0.0,0.0,3.077528577996098,-2.0483252889850214,4.432144557332481,-0.0001589357852935791,-3.0875205993652344e-05,2.2846191227436066,3.7978230714797974,0
2025-12-05 17:53:11.873940,0.0,0.0,1020.6,84.6,12.1,1.3,6900.7,566.2,26.2,0.00,0.00,0.00,0.00,0,0,0,0,0,0,0,0,0,0,0,0,0,0,0,0,0.0,0.2153855264186859,1.2021691799163818,0.7124817371368408,6.06947109813774,2.0927005556591123,4.221185970255517,0.0,0.0,0.0,0.0,0.0,3.091231563457075,-2.0619993369240697,4.432040413948663,4.649162292480469e-06,-7.748603820800781e-06,2.2846191227436066,3.7978230714797974,0
2025-12-05 17:53:11.905133,0.0,0.0,1023.8,84.8,12.1,1.3,6900.8,566.2,26.2,0.00,0.00,0.00,0.00,0,0,0,0,0,0,0,0,0,0,0,0,0,0,0,0,0.0,0.2153855264186859,1.2021691799163818,0.7124817371368408,6.06947109813774,2.0927005556591123,4.221185970255517,0.0,0.0,0.0,0.0,0.0,3.091231563457075,-2.0619993369240697,4.432040413948663,4.649162292480469e-06,-7.748603820800781e-06,2.2846191227436066,3.7978230714797974,0
2025-12-05 17:53:11.936493,0.0,0.0,1019.5,84.5,12.1,1.3,6900.8,566.2,26.2,0.00,0.00,0.00,0.00,0,0,0,0,0,0,0,0,0,0,0,0,0,0,0,0,0.0,0.2153855264186859,1.2021691799163818,0.7124817371368408,6.06947109813774,2.0927005556591123,4.221185970255517,0.0,0.0,0.0,0.0,0.0,3.091231563457075,-2.0619993369240697,4.432040413948663,4.649162292480469e-06,-7.748603820800781e-06,2.2846191227436066,3.7978230714797974,0
2025-12-05 17:53:11.967384,0.0,0.0,1022.3,84.7,12.1,1.3,6900.9,566.2,26.2,0.00,0.00,0.00,0.00,0,0,0,0,0,0,0,0,0,0,0,0,0,0,0,0,0.0,0.21535466611385345,1.202187180519104,0.7124372124671936,6.066963484498089,2.0894384527174545,4.2320680719977,0.0,0.0,0.0,0.0,0.0,3.0803414015010606,-2.0511172351818865,4.432040897088064,-2.6211142539978027e-05,1.0251998901367188e-05,2.2846191227436066,3.7978230714797974,0
2025-12-05 17:53:11.998040,0.0,0.0,1027.4,85.1,12.1,1.3,6901.0,566.2,26.2,0.00,0.00,0.00,0.00,0,0,0,0,0,0,0,0,0,0,0,0,0,0,0,0,0.0,0.21535466611385345,1.202187180519104,0.7124372124671936,6.066963484498089,2.0894384527174545,4.2320680719977,0.0,0.0,0.0,0.0,0.0,3.0803414015010606,-2.0511172351818865,4.432040897088064,-2.6211142539978027e-05,1.0251998901367188e-05,2.2846191227436066,3.7978230714797974,0
2025-12-05 17:53:12.028651,0.0,0.0,1036.6,85.9,12.1,1.3,6901.0,566.2,26.2,0.00,0.00,0.00,0.00,0,0,0,0,0,0,0,0,0,0,0,0,0,0,0,0,0.0,0.21535466611385345,1.202187180519104,0.7124372124671936,6.066963484498089,2.0894384527174545,4.2320680719977,0.0,0.0,0.0,0.0,0.0,3.0803414015010606,-2.0511172351818865,4.432040897088064,-2.6211142539978027e-05,1.0251998901367188e-05,2.2846191227436066,3.7978230714797974,0
2025-12-05 17:53:12.059397,0.0,0.0,1021.2,84.6,12.1,1.3,6901.1,566.2,26.2,0.00,0.00,0.00,0.00,0,0,0,0,0,0,0,0,0,0,0,0,0,0,0,0,0.0,0.215195894241333,1.202157974243164,0.7125653624534607,6.0543398286224,2.085552346571936,4.2418129630631665,0.0,0.0,0.0,0.0,0.0,3.0705692107711773,-2.04137234411642,4.432147769907548,-0.0001849830150604248,-1.895427703857422e-05,2.2846191227436066,3.7978230714797974,0
2025-12-05 17:53:12.090729,0.0,0.0,1016.6,84.3,12.1,1.3,6901.1,566.2,26.2,0.00,0.00,0.00,0.00,0,0,0,0,0,0,0,0,0,0,0,0,0,0,0,0,0.0,0.215195894241333,1.202157974243164,0.7125653624534607,6.0543398286224,2.085552346571936,4.2418129630631665,0.0,0.0,0.0,0.0,0.0,3.0705692107711773,-2.04137234411642,4.432147769907548,-0.0001849830150604248,-1.895427703857422e-05,2.2846191227436066,3.7978230714797974,0
2025-12-05 17:53:12.122207,0.0,0.0,1024.7,84.9,12.1,1.3,6901.2,566.2,26.2,0.00,0.00,0.00,0.00,0,0,0,0,0,0,0,0,0,0,0,0,0,0,0,0,0.0,0.215195894241333,1.202157974243164,0.7125653624534607,6.0543398286224,2.085552346571936,4.2418129630631665,0.0,0.0,0.0,0.0,0.0,3.0705692107711773,-2.04137234411642,4.432147769907548,-0.0001849830150604248,-1.895427703857422e-05,2.2846191227436066,3.7978230714797974,0
2025-12-05 17:53:12.153527,0.0,0.0,1033.0,85.6,12.1,1.3,6901.3,566.2,26.2,0.00,0.00,0.00,0.00,0,0,0,0,0,0,0,0,0,0,0,0,0,0,0,0,0.0,0.2152264565229416,1.202120065689087,0.7126016020774841,6.052962437856255,2.095817859830034,4.228248600519548,0.0,0.0,0.0,0.0,0.0,3.0841438911856462,-2.054936706660039,4.432164498347752,-0.00015442073345184326,-5.6862831115722656e-05,2.2846191227436066,3.7978230714797974,0
2025-12-05 17:53:12.184659,0.0,0.0,1031.8,85.5,12.1,1.3,6901.3,566.2,26.2,0.00,0.00,0.00,0.00,0,0,0,0,0,0,0,0,0,0,0,0,0,0,0,0,0.0,0.2152264565229416,1.202120065689087,0.7126016020774841,6.052962437856255,2.095817859830034,4.228248600519548,0.0,0.0,0.0,0.0,0.0,3.0841438911856462,-2.054936706660039,4.432164498347752,-0.00015442073345184326,-5.6862831115722656e-05,2.2846191227436066,3.7978230714797974,0
2025-12-05 17:53:12.216829,0.0,0.0,1031.3,85.5,12.1,1.3,6901.4,566.2,26.2,0.00,0.00,0.00,0.00,0,0,0,0,0,0,0,0,0,0,0,0,0,0,0,0,0.0,0.2152264565229416,1.202120065689087,0.7126016020774841,6.052962437856255,2.095817859830034,4.228248600519548,0.0,0.0,0.0,0.0,0.0,3.0841438911856462,-2.054936706660039,4.432164498347752,-0.00015442073345184326,-5.6862831115722656e-05,2.2846191227436066,3.7978230714797974,0
2025-12-05 17:53:12.247742,0.0,0.0,1017.3,83.9,12.1,1.3,6901.4,566.2,26.2,0.00,0.00,0.00,0.00,0,0,0,0,0,0,0,0,0,0,0,0,0,0,0,0,0.0,0.2152264565229416,1.202120065689087,0.7126016020774841,6.052962437856255,2.095817859830034,4.228248600519548,0.0,0.0,0.0,0.0,0.0,3.0841438911856462,-2.054936706660039,4.432164498347752,-0.00015442073345184326,-5.6862831115722656e-05,2.2846191227436066,3.7978230714797974,0
2025-12-05 17:53:12.279116,0.0,0.0,1016.4,84.2,12.1,1.3,6901.5,566.2,26.2,0.00,0.00,0.00,0.00,0,0,0,0,0,0,0,0,0,0,0,0,0,0,0,0,0.0,0.21536143124103546,1.2021939754486084,0.7124577760696411,6.065413791847536,2.0900046018010636,4.228527497926548,0.0,0.0,0.0,0.0,0.0,3.0838824932482853,-2.054657809253039,4.432031587204659,-1.944601535797119e-05,1.704692840576172e-05,2.2846191227436066,3.7978230714797974,0
2025-12-05 17:53:12.310492,0.0,0.0,1020.4,84.6,12.1,1.3,6901.5,566.2,26.2,0.00,0.00,0.00,0.00,0,0,0,0,0,0,0,0,0,0,0,0,0,0,0,0,0.0,0.21536143124103546,1.2021939754486084,0.7124577760696411,6.065413791847536,2.0900046018010636,4.228527497926548,0.0,0.0,0.0,0.0,0.0,3.0838824932482853,-2.054657809253039,4.432031587204659,-1.944601535797119e-05,1.704692840576172e-05,2.2846191227436066,3.7978230714797974,0
2025-12-05 17:53:12.341918,0.0,0.0,1020.7,84.6,12.1,1.3,6901.6,566.2,26.2,0.00,0.00,0.00,0.00,0,0,0,0,0,0,0,0,0,0,0,0,0,0,0,0,0.0,0.21536143124103546,1.2021939754486084,0.7124577760696411,6.065413791847536,2.0900046018010636,4.228527497926548,0.0,0.0,0.0,0.0,0.0,3.0838824932482853,-2.054657809253039,4.432031587204659,-1.944601535797119e-05,1.704692840576172e-05,2.2846191227436066,3.7978230714797974,0
2025-12-05 17:53:12.372759,0.0,0.0,1028.0,84.8,12.1,1.3,6901.7,566.2,26.2,0.00,0.00,0.00,0.00,0,0,0,0,0,0,0,0,0,0,0,0,0,0,0,0,0.0,0.2152155637741089,1.2021677494049072,0.7125734090805054,6.069865601790033,2.082731848345076,4.240938959971556,0.0,0.0,0.0,0.0,0.0,3.0714458797069955,-2.0422463472080303,4.432129253945585,-0.0001653134822845459,-9.179115295410156e-06,2.2846191227436066,3.7978230714797974,0
2025-12-05 17:53:12.404116,0.0,0.0,1025.4,85.0,12.1,1.3,6901.7,566.2,26.2,0.00,0.00,0.00,0.00,0,0,0,0,0,0,0,0,0,0,0,0,0,0,0,0,0.0,0.2152155637741089,1.2021677494049072,0.7125734090805054,6.069865601790033,2.082731848345076,4.240938959971556,0.0,0.0,0.0,0.0,0.0,3.0714458797069955,-2.0422463472080303,4.432129253945585,-0.0001653134822845459,-9.179115295410156e-06,2.2846191227436066,3.7978230714797974,0
2025-12-05 17:53:12.434860,0.0,0.0,1033.2,85.6,12.1,1.3,6901.8,566.3,26.2,0.00,0.00,0.00,0.00,0,0,0,0,0,0,0,0,0,0,0,0,0,0,0,0,0.0,0.2152155637741089,1.2021677494049072,0.7125734090805054,6.069865601790033,2.082731848345076,4.240938959971556,0.0,0.0,0.0,0.0,0.0,3.0714458797069955,-2.0422463472080303,4.432129253945585,-0.0001653134822845459,-9.179115295410156e-06,2.2846191227436066,3.7978230714797974,0
2025-12-05 17:53:12.465778,0.0,0.0,1027.9,85.2,12.1,1.3,6901.8,566.3,26.2,0.00,0.00,0.00,0.00,0,0,0,0,0,0,0,0,0,0,0,0,0,0,0,0,0.0,0.21538187563419342,1.2021489143371582,0.7124806642532349,6.0562909346803755,2.0995798277135336,4.218421461929735,0.0,0.0,0.0,0.0,0.0,3.0939977229492897,-2.064763845249852,4.432059661494999,9.98377799987793e-07,-2.8014183044433594e-05,2.2846191227436066,3.7978230714797974,0
2025-12-05 17:53:12.496949,0.0,0.0,1033.4,85.6,12.1,1.3,6901.9,566.3,26.2,0.00,0.00,0.00,0.00,0,0,0,0,0,0,0,0,0,0,0,0,0,0,0,0,0.0,0.21538187563419342,1.2021489143371582,0.7124806642532349,6.0562909346803755,2.0995798277135336,4.218421461929735,0.0,0.0,0.0,0.0,0.0,3.0939977229492897,-2.064763845249852,4.432059661494999,9.98377799987793e-07,-2.8014183044433594e-05,2.2846191227436066,3.7978230714797974,0
2025-12-05 17:53:12.528245,0.0,0.0,1034.9,85.3,12.1,1.3,6902.0,566.3,26.2,0.00,0.00,0.00,0.00,0,0,0,0,0,0,0,0,0,0,0,0,0,0,0,0,0.0,0.21538187563419342,1.2021489143371582,0.7124806642532349,6.0562909346803755,2.0995798277135336,4.218421461929735,0.0,0.0,0.0,0.0,0.0,3.0939977229492897,-2.064763845249852,4.432059661494999,9.98377799987793e-07,-2.8014183044433594e-05,2.2846191227436066,3.7978230714797974,0
2025-12-05 17:53:12.559681,0.0,0.0,1021.9,84.7,12.1,1.3,6902.0,566.3,26.2,0.00,0.00,0.00,0.00,0,0,0,0,0,0,0,0,0,0,0,0,0,0,0,0,0.0,0.21538187563419342,1.2021489143371582,0.7124806642532349,6.0562909346803755,2.0995798277135336,4.218421461929735,0.0,0.0,0.0,0.0,0.0,3.0939977229492897,-2.064763845249852,4.432059661494999,9.98377799987793e-07,-2.8014183044433594e-05,2.2846191227436066,3.7978230714797974,0
2025-12-05 17:53:12.590992,0.0,0.0,1016.5,84.2,12.1,1.3,6902.1,566.3,26.2,0.00,0.00,0.00,0.00,0,0,0,0,0,0,0,0,0,0,0,0,0,0,0,0,0.0,0.21537047624588013,1.2021715641021729,0.7124720215797424,6.0639564336572125,2.093036637669968,4.225382487557992,0.0,0.0,0.0,0.0,0.0,3.087031859017635,-2.0578028196215947,4.4320461289705815,-1.0401010513305664e-05,-5.364418029785156e-06,2.2846191227436066,3.7978230714797974,0
2025-12-05 17:53:12.621669,0.0,0.0,1015.9,84.2,12.1,1.3,6902.1,566.3,26.2,0.00,0.00,0.00,0.00,0,0,0,0,0,0,0,0,0,0,0,0,0,0,0,0,0.0,0.21537047624588013,1.2021715641021729,0.7124720215797424,6.0639564336572125,2.093036637669968,4.225382487557992,0.0,0.0,0.0,0.0,0.0,3.087031859017635,-2.0578028196215947,4.4320461289705815,-1.0401010513305664e-05,-5.364418029785156e-06,2.2846191227436066,3.7978230714797974,0
2025-12-05 17:53:12.652527,0.0,0.0,1027.1,85.1,12.1,1.3,6902.2,566.3,26.2,0.00,0.00,0.00,0.00,0,0,0,0,0,0,0,0,0,0,0,0,0,0,0,0,0.0,0.21537047624588013,1.2021715641021729,0.7124720215797424,6.0639564336572125,2.093036637669968,4.225382487557992,0.0,0.0,0.0,0.0,0.0,3.087031859017635,-2.0578028196215947,4.4320461289705815,-1.0401010513305664e-05,-5.364418029785156e-06,2.2846191227436066,3.7978230714797974,0
2025-12-05 17:53:12.683842,0.0,0.0,1020.3,84.6,12.1,1.3,6902.3,566.3,26.2,0.00,0.00,0.00,0.00,0,0,0,0,0,0,0,0,0,0,0,0,0,0,0,0,0.0,0.2152097225189209,1.2021199464797974,0.7125940918922424,6.056711133963077,2.0926854921911517,4.231327315620602,0.0,0.0,0.0,0.0,0.0,3.0810619546947207,-2.0518579915589847,4.432173226871743,-0.00017115473747253418,-5.698204040527344e-05,2.2846191227436066,3.7978230714797974,0
2025-12-05 17:53:12.715367,0.0,0.0,1024.8,84.9,12.1,1.3,6902.3,566.3,26.2,0.00,0.00,0.00,0.00,0,0,0,0,0,0,0,0,0,0,0,0,0,0,0,0,0.0,0.2152097225189209,1.2021199464797974,0.7125940918922424,6.056711133963077,2.0926854921911517,4.231327315620602,0.0,0.0,0.0,0.0,0.0,3.0810619546947207,-2.0518579915589847,4.432173226871743,-0.00017115473747253418,-5.698204040527344e-05,2.2846191227436066,3.7978230714797974,0
2025-12-05 17:53:12.746661,0.0,0.0,1026.0,85.0,12.1,1.3,6902.4,566.3,26.2,0.00,0.00,0.00,0.00,0,0,0,0,0,0,0,0,0,0,0,0,0,0,0,0,0.0,0.2152097225189209,1.2021199464797974,0.7125940918922424,6.056711133963077,2.0926854921911517,4.231327315620602,0.0,0.0,0.0,0.0,0.0,3.0810619546947207,-2.0518579915589847,4.432173226871743,-0.00017115473747253418,-5.698204040527344e-05,2.2846191227436066,3.7978230714797974,0
2025-12-05 17:53:12.777612,0.0,0.0,1024.4,84.9,12.1,1.3,6902.4,566.3,26.2,0.00,0.00,0.00,0.00,0,0,0,0,0,0,0,0,0,0,0,0,0,0,0,0,0.0,0.2152097225189209,1.2021199464797974,0.7125940918922424,6.056711133963077,2.0926854921911517,4.231327315620602,0.0,0.0,0.0,0.0,0.0,3.0810619546947207,-2.0518579915589847,4.432173226871743,-0.00017115473747253418,-5.698204040527344e-05,2.2846191227436066,3.7978230714797974,0
2025-12-05 17:53:12.808367,0.0,0.0,1036.2,84.7,12.1,1.3,6902.5,566.3,26.2,0.00,0.00,0.00,0.00,0,0,0,0,0,0,0,0,0,0,0,0,0,0,0,0,0.0,0.2152097225189209,1.2021199464797974,0.7125940918922424,6.056711133963077,2.0926854921911517,4.231327315620602,0.0,0.0,0.0,0.0,0.0,3.0810619546947207,-2.0518579915589847,4.432173226871743,-0.00017115473747253418,-5.698204040527344e-05,2.2846191227436066,3.7978230714797974,0
2025-12-05 17:53:12.839243,0.0,0.0,1036.5,85.9,12.1,1.3,6902.6,566.3,26.2,0.00,0.00,0.00,0.00,0,0,0,0,0,0,0,0,0,0,0,0,0,0,0,0,0.0,0.2152097225189209,1.2021199464797974,0.7125940918922424,6.056711133963077,2.0926854921911517,4.231327315620602,0.0,0.0,0.0,0.0,0.0,3.0810619546947207,-2.0518579915589847,4.432173226871743,-0.00017115473747253418,-5.698204040527344e-05,2.2846191227436066,3.7978230714797974,0
2025-12-05 17:53:12.869901,0.0,0.0,1032.5,85.6,12.1,1.3,6902.6,566.3,26.2,0.00,0.00,0.00,0.00,0,0,0,0,0,0,0,0,0,0,0,0,0,0,0,0,0.0,0.2152097225189209,1.2021199464797974,0.7125940918922424,6.056711133963077,2.0926854921911517,4.231327315620602,0.0,0.0,0.0,0.0,0.0,3.0810619546947207,-2.0518579915589847,4.432173226871743,-0.00017115473747253418,-5.698204040527344e-05,2.2846191227436066,3.7978230714797974,0
2025-12-05 17:53:12.901009,0.0,0.0,1012.3,83.9,12.1,1.3,6902.7,566.3,26.2,0.00,0.00,0.00,0.00,0,0,0,0,0,0,0,0,0,0,0,0,0,0,0,0,0.0,0.215207040309906,1.2021464109420776,0.7125884890556335,6.052969620282113,2.091476398295426,4.233617254289227,0.0,0.0,0.0,0.0,0.0,3.0787684193950646,-2.04956805289036,4.432151932478123,-0.00017383694648742676,-3.0517578125e-05,2.2846191227436066,3.7978230714797974,0
2025-12-05 17:53:12.932537,0.0,0.0,1019.8,84.5,12.1,1.3,6902.7,566.3,26.2,0.00,0.00,0.00,0.00,0,0,0,0,0,0,0,0,0,0,0,0,0,0,0,0,0.0,0.215207040309906,1.2021464109420776,0.7125884890556335,6.052969620282113,2.091476398295426,4.233617254289227,0.0,0.0,0.0,0.0,0.0,3.0787684193950646,-2.04956805289036,4.432151932478123,-0.00017383694648742676,-3.0517578125e-05,2.2846191227436066,3.7978230714797974,0
2025-12-05 17:53:12.963142,0.0,0.0,1023.9,84.9,12.1,1.3,6902.8,566.3,26.2,0.00,0.00,0.00,0.00,0,0,0,0,0,0,0,0,0,0,0,0,0,0,0,0,0.0,0.215207040309906,1.2021464109420776,0.7125884890556335,6.052969620282113,2.091476398295426,4.233617254289227,0.0,0.0,0.0,0.0,0.0,3.0787684193950646,-2.04956805289036,4.432151932478123,-0.00017383694648742676,-3.0517578125e-05,2.2846191227436066,3.7978230714797974,0
2025-12-05 17:53:12.993838,0.0,0.0,1021.8,84.7,12.1,1.3,6902.9,566.3,26.2,0.00,0.00,0.00,0.00,0,0,0,0,0,0,0,0,0,0,0,0,0,0,0,0,0.0,0.215171217918396,1.202171802520752,0.7125644683837891,6.049898799759568,2.087093806023179,4.241708559723717,0.0,0.0,0.0,0.0,0.0,3.070667234957755,-2.0414767474558695,4.432148641572954,-0.00020965933799743652,-5.125999450683594e-06,2.2846191227436066,3.7978230714797974,0
2025-12-05 17:53:13.024753,0.0,0.0,1027.0,84.4,12.1,1.3,6902.9,566.3,26.2,0.00,0.00,0.00,0.00,0,0,0,0,0,0,0,0,0,0,0,0,0,0,0,0,0.0,0.215171217918396,1.202171802520752,0.7125644683837891,6.049898799759568,2.087093806023179,4.241708559723717,0.0,0.0,0.0,0.0,0.0,3.070667234957755,-2.0414767474558695,4.432148641572954,-0.00020965933799743652,-5.125999450683594e-06,2.2846191227436066,3.7978230714797974,0
2025-12-05 17:53:13.055341,0.0,0.0,1020.3,84.6,12.1,1.3,6903.0,566.4,26.2,0.00,0.00,0.00,0.00,0,0,0,0,0,0,0,0,0,0,0,0,0,0,0,0,0.0,0.215171217918396,1.202171802520752,0.7125644683837891,6.049898799759568,2.087093806023179,4.241708559723717,0.0,0.0,0.0,0.0,0.0,3.070667234957755,-2.0414767474558695,4.432148641572954,-0.00020965933799743652,-5.125999450683594e-06,2.2846191227436066,3.7978230714797974,0
2025-12-05 17:53:13.087248,0.0,0.0,1020.3,84.6,12.1,1.3,6903.0,566.4,26.2,0.00,0.00,0.00,0.00,0,0,0,0,0,0,0,0,0,0,0,0,0,0,0,0,0.0,0.21521678566932678,1.2021511793136597,0.7125841379165649,6.061990206400941,2.087919746881448,4.2361248667781535,0.0,0.0,0.0,0.0,0.0,3.0762621364112794,-2.047060440401433,4.432142822752424,-0.0001640915870666504,-2.574920654296875e-05,2.2846191227436066,3.7978230714797974,0
2025-12-05 17:53:13.117932,0.0,0.0,1024.5,84.9,12.1,1.3,6903.1,566.4,26.2,0.00,0.00,0.00,0.00,0,0,0,0,0,0,0,0,0,0,0,0,0,0,0,0,0.0,0.21521678566932678,1.2021511793136597,0.7125841379165649,6.061990206400941,2.087919746881448,4.2361248667781535,0.0,0.0,0.0,0.0,0.0,3.0762621364112794,-2.047060440401433,4.432142822752424,-0.0001640915870666504,-2.574920654296875e-05,2.2846191227436066,3.7978230714797974,0
2025-12-05 17:53:13.148860,0.0,0.0,1026.1,85.0,12.1,1.3,6903.2,566.4,26.2,0.00,0.00,0.00,0.00,0,0,0,0,0,0,0,0,0,0,0,0,0,0,0,0,0.0,0.21521678566932678,1.2021511793136597,0.7125841379165649,6.061990206400941,2.087919746881448,4.2361248667781535,0.0,0.0,0.0,0.0,0.0,3.0762621364112794,-2.047060440401433,4.432142822752424,-0.0001640915870666504,-2.574920654296875e-05,2.2846191227436066,3.7978230714797974,0
2025-12-05 17:53:13.180042,0.0,0.0,1025.2,85.0,12.1,1.3,6903.2,566.4,26.2,0.00,0.00,0.00,0.00,0,0,0,0,0,0,0,0,0,0,0,0,0,0,0,0,0.0,0.21521678566932678,1.2021511793136597,0.7125841379165649,6.061990206400941,2.087919746881448,4.2361248667781535,0.0,0.0,0.0,0.0,0.0,3.0762621364112794,-2.047060440401433,4.432142822752424,-0.0001640915870666504,-2.574920654296875e-05,2.2846191227436066,3.7978230714797974,0
2025-12-05 17:53:13.211407,0.0,0.0,1022.6,84.7,12.1,1.3,6903.3,566.4,26.2,0.00,0.00,0.00,0.00,0,0,0,0,0,0,0,0,0,0,0,0,0,0,0,0,0.0,0.2153620719909668,1.2021647691726685,0.7124782800674438,6.0573762135560525,2.098905064072131,4.2231565175534325,0.0,0.0,0.0,0.0,0.0,3.0892569944268313,-2.060028789626154,4.432056283781908,-1.8805265426635742e-05,-1.2159347534179688e-05,2.2846191227436066,3.7978230714797974,0
2025-12-05 17:53:13.241944,0.0,0.0,1021.6,84.6,12.1,1.3,6903.3,566.4,26.2,0.00,0.00,0.00,0.00,0,0,0,0,0,0,0,0,0,0,0,0,0,0,0,0,0.0,0.2153620719909668,1.2021647691726685,0.7124782800674438,6.0573762135560525,2.098905064072131,4.2231565175534325,0.0,0.0,0.0,0.0,0.0,3.0892569944268313,-2.060028789626154,4.432056283781908,-1.8805265426635742e-05,-1.2159347534179688e-05,2.2846191227436066,3.7978230714797974,0
2025-12-05 17:53:13.272834,0.0,0.0,1017.9,84.4,12.1,1.3,6903.4,566.4,26.2,0.00,0.00,0.00,0.00,0,0,0,0,0,0,0,0,0,0,0,0,0,0,0,0,0.0,0.2153620719909668,1.2021647691726685,0.7124782800674438,6.0573762135560525,2.098905064072131,4.2231565175534325,0.0,0.0,0.0,0.0,0.0,3.0892569944268313,-2.060028789626154,4.432056283781908,-1.8805265426635742e-05,-1.2159347534179688e-05,2.2846191227436066,3.7978230714797974,0
2025-12-05 17:53:13.303460,0.0,0.0,1028.7,85.3,12.1,1.3,6903.5,566.4,26.2,0.00,0.00,0.00,0.00,0,0,0,0,0,0,0,0,0,0,0,0,0,0,0,0,0.0,0.21537883579730988,1.2021812200546265,0.7124868631362915,6.0690886457151425,2.0893101006185115,4.226196168739476,0.0,0.0,0.0,0.0,0.0,3.086218671033695,-2.0569891384401107,4.432033545589273,-2.041459083557129e-06,4.291534423828125e-06,2.2846191227436066,3.7978230714797974,0
2025-12-05 17:53:13.334569,0.0,0.0,1025.4,85.0,12.1,1.3,6903.5,566.4,26.2,0.00,0.00,0.00,0.00,0,0,0,0,0,0,0,0,0,0,0,0,0,0,0,0,0.0,0.21537883579730988,1.2021812200546265,0.7124868631362915,6.0690886457151425,2.0893101006185115,4.226196168739476,0.0,0.0,0.0,0.0,0.0,3.086218671033695,-2.0569891384401107,4.432033545589273,-2.041459083557129e-06,4.291534423828125e-06,2.2846191227436066,3.7978230714797974,0
2025-12-05 17:53:13.366035,0.0,0.0,1020.3,84.6,12.1,1.3,6903.6,566.4,26.2,0.00,0.00,0.00,0.00,0,0,0,0,0,0,0,0,0,0,0,0,0,0,0,0,0.0,0.21537883579730988,1.2021812200546265,0.7124868631362915,6.0690886457151425,2.0893101006185115,4.226196168739476,0.0,0.0,0.0,0.0,0.0,3.086218671033695,-2.0569891384401107,4.432033545589273,-2.041459083557129e-06,4.291534423828125e-06,2.2846191227436066,3.7978230714797974,0
2025-12-05 17:53:13.397237,0.0,0.0,1023.7,84.8,12.1,1.3,6903.6,566.4,26.2,0.00,0.00,0.00,0.00,0,0,0,0,0,0,0,0,0,0,0,0,0,0,0,0,0.0,0.2154000848531723,1.202130913734436,0.7125094532966614,6.061212876421241,2.101706063258089,4.214037045688526,0.0,0.0,0.0,0.0,0.0,3.0983877533735127,-2.0691482614910606,4.432065699953073,1.920759677886963e-05,-4.601478576660156e-05,2.2846191227436066,3.7978230714797974,0
2025-12-05 17:53:13.428574,0.0,0.0,1025.6,85.0,12.1,1.3,6903.7,566.4,26.2,0.00,0.00,0.00,0.00,0,0,0,0,0,0,0,0,0,0,0,0,0,0,0,0,0.0,0.2154000848531723,1.202130913734436,0.7125094532966614,6.061212876421241,2.101706063258089,4.214037045688526,0.0,0.0,0.0,0.0,0.0,3.0983877533735127,-2.0691482614910606,4.432065699953073,1.920759677886963e-05,-4.601478576660156e-05,2.2846191227436066,3.7978230714797974,0
2025-12-05 17:53:13.459964,0.0,0.0,1019.4,84.5,12.1,1.3,6903.8,566.4,26.2,0.00,0.00,0.00,0.00,0,0,0,0,0,0,0,0,0,0,0,0,0,0,0,0,0.0,0.2154000848531723,1.202130913734436,0.7125094532966614,6.061212876421241,2.101706063258089,4.214037045688526,0.0,0.0,0.0,0.0,0.0,3.0983877533735127,-2.0691482614910606,4.432065699953073,1.920759677886963e-05,-4.601478576660156e-05,2.2846191227436066,3.7978230714797974,0
