Timestamp,forward_vel_cmd,steering_vel_cmd,power_mW,current_mA,busVoltage_V,shuntVoltage_mV,energy,charge,dieTemp,Left_Stick_X,Left_Stick_Y,Right_Stick_X,Right_Stick_Y,Button_0,Button_1,Button_2,Button_3,Button_4,Button_5,Button_6,Button_7,Button_8,Button_9,Button_10,Button_11,Button_12,Button_13,Button_14,Button_15,mocap_velocity,mocap_x,mocap_y,mocap_z,mocap_roll,mocap_pitch,mocap_yaw_raw,forward_vel_cmd,steering_vel_cmd,left_wheel_vel,right_wheel_vel,ppo_control_active,heading_error_rad,current_heading_rad,distance_to_target,relative_x,relative_y,target_relative_x,target_relative_y,current_waypoint_idx
2025-12-05 17:06:54.806188,0.2,0.2,15833.1,1302.4,12.2,19.5,3892.9,318.1,25.8,0.00,0.00,0.00,0.00,0,0,0,0,0,0,0,0,0,0,0,0,0,0,0,0,0.0,0.08061429858207703,2.614882230758667,0.19704380631446838,1.1794823032570796,2.0476733890461825,1.439493758260495,0.2,0.2,1.0,-0.02499999999999991,1.0,-0.6612279346169662,1.439493758260495,3.3973833968771094,2.808868885040283e-06,-0.00012040138244628906,2.419388510286808,2.3849973678588867,0
2025-12-05 17:06:54.837679,0.2,0.2,16976.4,1147.3,12.2,21.0,3893.8,318.2,25.8,0.00,0.00,0.00,0.00,0,0,0,0,0,0,0,0,0,0,0,0,0,0,0,0,0.0,0.08061429858207703,2.614882230758667,0.19704380631446838,1.1794823032570796,2.0476733890461825,1.439493758260495,0.2,0.2,1.0,-0.02499999999999991,1.0,-0.6612279346169662,1.439493758260495,3.3973833968771094,2.808868885040283e-06,-0.00012040138244628906,2.419388510286808,2.3849973678588867,0
2025-12-05 17:06:54.869016,0.2,0.2,11284.4,927.3,12.2,13.9,3894.6,318.2,25.8,0.00,0.00,0.00,0.00,0,0,0,0,0,0,0,0,0,0,0,0,0,0,0,0,0.0,0.08061429858207703,2.614882230758667,0.19704380631446838,1.1794823032570796,2.0476733890461825,1.439493758260495,0.2,0.2,1.0,-0.02499999999999991,1.0,-0.6612279346169662,1.439493758260495,3.3973833968771094,2.808868885040283e-06,-0.00012040138244628906,2.419388510286808,2.3849973678588867,0
2025-12-05 17:06:54.900386,0.2,0.2,13309.8,1094.2,12.2,16.4,3895.4,318.3,25.8,0.00,0.00,0.00,0.00,0,0,0,0,0,0,0,0,0,0,0,0,0,0,0,0,0.0,0.08063442260026932,2.614891290664673,0.1970418095588684,1.180742533290029,2.048812343621574,1.4411923601981034,0.2,0.2,1.0,-0.02499999999999991,1.0,-0.6629242771175822,1.4411923601981034,3.397362705460511,2.2932887077331543e-05,-0.00011134147644042969,2.419388510286808,2.3849973678588867,0
2025-12-05 17:06:54.930966,0.2,0.2,14488.8,1191.5,12.2,17.9,3896.1,318.4,25.8,0.00,0.00,0.00,0.00,0,0,0,0,0,0,0,0,0,0,0,0,0,0,0,0,0.0,0.08063442260026932,2.614891290664673,0.1970418095588684,1.180742533290029,2.048812343621574,1.4411923601981034,0.2,0.2,1.0,-0.02499999999999991,1.0,-0.6629242771175822,1.4411923601981034,3.397362705460511,2.2932887077331543e-05,-0.00011134147644042969,2.419388510286808,2.3849973678588867,0
2025-12-05 17:06:55.022691,0.2,0.2,14140.7,1162.8,12.2,17.4,3897.0,318.4,25.8,0.00,0.00,0.00,0.00,0,0,0,0,0,0,0,0,0,0,0,0,0,0,0,0,0.0,0.0806226134300232,2.614910125732422,0.19703182578086853,1.1840795646099396,2.0456673669040843,1.4430541099116265,0.2,0.2,1.0,-0.02499999999999991,1.0,-0.6647924152131214,1.4430541099116265,3.3973578920949588,1.1123716831207275e-05,-9.250640869140625e-05,2.419388510286808,2.3849973678588867,0
2025-12-05 17:06:55.054048,0.2,0.2,13797.2,1134.6,12.2,17.0,3897.8,318.5,25.8,0.00,0.00,0.00,0.00,0,0,0,0,0,0,0,0,0,0,0,0,0,0,0,0,0.0,0.0806226134300232,2.614910125732422,0.19703182578086853,1.1840795646099396,2.0456673669040843,1.4430541099116265,0.2,0.2,1.0,-0.02499999999999991,1.0,-0.6647924152131214,1.4430541099116265,3.3973578920949588,1.1123716831207275e-05,-9.250640869140625e-05,2.419388510286808,2.3849973678588867,0
2025-12-05 17:06:55.084975,0.2,0.2,12893.4,1060.0,12.2,15.9,3898.6,318.6,25.8,0.00,0.00,0.00,0.00,0,0,0,0,0,0,0,0,0,0,0,0,0,0,0,0,0.0,0.0806226134300232,2.614910125732422,0.19703182578086853,1.1840795646099396,2.0456673669040843,1.4430541099116265,0.2,0.2,1.0,-0.02499999999999991,1.0,-0.6647924152131214,1.4430541099116265,3.3973578920949588,1.1123716831207275e-05,-9.250640869140625e-05,2.419388510286808,2.3849973678588867,0
2025-12-05 17:06:55.116415,0.2,0.2,13039.0,1071.9,12.2,16.1,3899.3,318.6,25.8,0.00,0.00,0.00,0.00,0,0,0,0,0,0,0,0,0,0,0,0,0,0,0,0,0.0,0.08065100014209747,2.614932060241699,0.19700534641742706,1.1911641729903284,2.044716215835978,1.4489031801943923,0.2,0.2,1.0,-0.02499999999999991,1.0,-0.6706402173356295,1.4489031801943923,3.3973222779678025,3.951042890548706e-05,-7.05718994140625e-05,2.419388510286808,2.3849973678588867,0
2025-12-05 17:06:55.156145,0.2,0.2,14226.7,1169.9,12.2,17.5,3900.1,318.7,25.8,0.00,0.00,0.00,0.00,0,0,0,0,0,0,0,0,0,0,0,0,0,0,0,0,0.0,0.08065100014209747,2.614932060241699,0.19700534641742706,1.1911641729903284,2.044716215835978,1.4489031801943923,0.2,0.2,1.0,-0.02499999999999991,1.0,-0.6706402173356295,1.4489031801943923,3.3973222779678025,3.951042890548706e-05,-7.05718994140625e-05,2.419388510286808,2.3849973678588867,0
2025-12-05 17:06:55.217404,0.2,0.2,12787.5,1051.2,12.2,15.8,3900.9,318.7,25.8,0.00,0.00,0.00,0.00,0,0,0,0,0,0,0,0,0,0,0,0,0,0,0,0,0.0,0.08060117065906525,2.6149699687957764,0.19683897495269775,1.276625356559441,1.9922296944265132,1.4496791105884395,0.2,0.2,1.0,-0.02499999999999991,1.0,-0.671434391001903,1.4496791105884395,3.3973311503535104,-1.0319054126739502e-05,-3.266334533691406e-05,2.419388510286808,2.3849973678588867,0
2025-12-05 17:06:55.380108,0.2,0.2,9609.8,789.4,12.2,11.8,3901.5,318.8,25.8,0.00,0.00,0.00,0.00,0,0,0,0,0,0,0,0,0,0,0,0,0,0,0,0,0.0,0.08058012276887894,2.614954710006714,0.1968214213848114,1.276262188553944,1.993213614818369,1.44507815332768,0.2,0.2,1.0,-0.02499999999999991,1.0,-0.6668345845655793,1.44507815332768,3.3973568516804664,-3.1366944313049316e-05,-4.792213439941406e-05,2.419388510286808,2.3849973678588867,0
2025-12-05 17:06:55.410899,0.2,0.2,12017.8,702.3,12.2,14.8,3902.1,318.8,25.8,0.00,0.00,0.00,0.00,0,0,0,0,0,0,0,0,0,0,0,0,0,0,0,0,0.0,0.08058193325996399,2.6149673461914062,0.1968069076538086,1.281266923628094,1.9936262718016713,1.446757395852913,0.2,0.2,1.0,-0.02499999999999991,1.0,-0.6685161017516442,1.446757395852913,3.397346691375691,-2.9556453227996826e-05,-3.528594970703125e-05,2.419388510286808,2.3849973678588867,0
2025-12-05 17:06:55.441691,0.2,0.2,11351.7,932.9,12.2,14.0,3902.9,318.9,25.8,0.00,0.00,0.00,0.00,0,0,0,0,0,0,0,0,0,0,0,0,0,0,0,0,0.0,0.08058193325996399,2.6149673461914062,0.1968069076538086,1.281266923628094,1.9936262718016713,1.446757395852913,0.2,0.2,1.0,-0.02499999999999991,1.0,-0.6685161017516442,1.446757395852913,3.397346691375691,-2.9556453227996826e-05,-3.528594970703125e-05,2.419388510286808,2.3849973678588867,0
2025-12-05 17:06:55.472456,0.2,0.2,15115.6,1061.7,12.2,18.7,3903.7,319.0,25.8,0.00,0.00,0.00,0.00,0,0,0,0,0,0,0,0,0,0,0,0,0,0,0,0,0.0,0.08058193325996399,2.6149673461914062,0.1968069076538086,1.281266923628094,1.9936262718016713,1.446757395852913,0.2,0.2,1.0,-0.02499999999999991,1.0,-0.6685161017516442,1.446757395852913,3.397346691375691,-2.9556453227996826e-05,-3.528594970703125e-05,2.419388510286808,2.3849973678588867,0
2025-12-05 17:06:55.525172,0.2,0.2,14413.2,1185.4,12.2,17.8,3904.6,319.1,25.8,0.00,0.00,0.00,0.00,0,0,0,0,0,0,0,0,0,0,0,0,0,0,0,0,0.0,0.0806300938129425,2.614933967590332,0.19694706797599792,1.1972524877422792,2.0454032408489327,1.4481477926154227,0.2,0.2,1.0,-0.02499999999999991,1.0,-0.6698895497610328,1.4481477926154227,3.3973358270736154,1.86040997505188e-05,-6.866455078125e-05,2.419388510286808,2.3849973678588867,0
2025-12-05 17:06:55.694508,0.2,0.2,10339.4,1071.9,12.2,16.1,3905.4,319.1,25.8,0.00,0.00,0.00,0.00,0,0,0,0,0,0,0,0,0,0,0,0,0,0,0,0,0.0,0.08063280582427979,2.6149120330810547,0.19695766270160675,1.1971688085791392,2.046033565908243,1.4466720054471782,0.2,0.2,1.0,-0.02499999999999991,1.0,-0.6684086043580417,1.4466720054471782,3.397349294699508,2.1316111087799072e-05,-9.059906005859375e-05,2.419388510286808,2.3849973678588867,0
2025-12-05 17:06:55.725762,0.2,0.2,17984.1,1480.3,12.1,22.2,3906.2,319.2,25.8,0.00,0.00,0.00,0.00,0,0,0,0,0,0,0,0,0,0,0,0,0,0,0,0,0.0,0.08061954379081726,2.6149044036865234,0.1969892680644989,1.1851794637326798,2.051032192946241,1.4409844474114433,0.2,0.2,1.0,-0.02499999999999991,1.0,-0.6627221876125928,1.4409844474114433,3.397364095212771,8.054077625274658e-06,-9.822845458984375e-05,2.419388510286808,2.3849973678588867,0
2025-12-05 17:06:55.756477,0.2,0.2,15753.4,1295.9,12.2,19.4,3907.2,319.3,25.8,0.00,0.00,0.00,0.00,0,0,0,0,0,0,0,0,0,0,0,0,0,0,0,0,0.0,0.08061954379081726,2.6149044036865234,0.1969892680644989,1.1851794637326798,2.051032192946241,1.4409844474114433,0.2,0.2,1.0,-0.02499999999999991,1.0,-0.6627221876125928,1.4409844474114433,3.397364095212771,8.054077625274658e-06,-9.822845458984375e-05,2.419388510286808,2.3849973678588867,0
2025-12-05 17:06:55.787834,0.2,0.2,13343.5,1096.9,12.2,16.5,3908.0,319.3,25.8,0.00,0.00,0.00,0.00,0,0,0,0,0,0,0,0,0,0,0,0,0,0,0,0,0.0,0.08061954379081726,2.6149044036865234,0.1969892680644989,1.1851794637326798,2.051032192946241,1.4409844474114433,0.2,0.2,1.0,-0.02499999999999991,1.0,-0.6627221876125928,1.4409844474114433,3.397364095212771,8.054077625274658e-06,-9.822845458984375e-05,2.419388510286808,2.3849973678588867,0
2025-12-05 17:06:55.833832,0.2,0.2,9828.8,807.5,12.2,12.1,3908.5,319.4,25.8,0.00,0.00,0.00,0.00,0,0,0,0,0,0,0,0,0,0,0,0,0,0,0,0,0.0,0.0806129202246666,2.614891529083252,0.196989044547081,1.1887148939911771,2.0472555892653266,1.4408559195530213,0.2,0.2,1.0,-0.02499999999999991,1.0,-0.6625923297807857,1.4408559195530213,3.3973778506110626,1.430511474609375e-06,-0.00011110305786132812,2.419388510286808,2.3849973678588867,0
2025-12-05 17:06:55.910029,0.2,0.2,12558.2,1032.3,12.2,15.5,3909.3,319.4,25.8,0.00,0.00,0.00,0.00,0,0,0,0,0,0,0,0,0,0,0,0,0,0,0,0,0.0,0.0806129202246666,2.614891529083252,0.196989044547081,1.1887148939911771,2.0472555892653266,1.4408559195530213,0.2,0.2,1.0,-0.02499999999999991,1.0,-0.6625923297807857,1.4408559195530213,3.3973778506110626,1.430511474609375e-06,-0.00011110305786132812,2.419388510286808,2.3849973678588867,0
2025-12-05 17:06:55.941288,0.2,0.2,11321.5,930.4,12.2,14.0,3909.9,319.5,25.8,0.00,0.00,0.00,0.00,0,0,0,0,0,0,0,0,0,0,0,0,0,0,0,0,0.0,0.0805947482585907,2.6148719787597656,0.19701620936393738,1.1772259211049632,2.0542688865122853,1.4335192262488707,0.2,0.2,1.0,-0.02499999999999991,1.0,-0.6552552935899322,1.4335192262488707,3.3974045166655187,-1.6741454601287842e-05,-0.00013065338134765625,2.419388510286808,2.3849973678588867,0
2025-12-05 17:06:55.976240,0.2,0.2,15668.0,1289.0,12.2,19.3,3910.7,319.6,25.8,0.00,0.00,0.00,0.00,0,0,0,0,0,0,0,0,0,0,0,0,0,0,0,0,0.0,0.0805947482585907,2.6148719787597656,0.19701620936393738,1.1772259211049632,2.0542688865122853,1.4335192262488707,0.2,0.2,1.0,-0.02499999999999991,1.0,-0.6552552935899322,1.4335192262488707,3.3974045166655187,-1.6741454601287842e-05,-0.00013065338134765625,2.419388510286808,2.3849973678588867,0
2025-12-05 17:06:56.037591,0.2,0.2,14639.3,1204.1,12.2,18.1,3911.5,319.6,25.8,0.00,0.00,0.00,0.00,0,0,0,0,0,0,0,0,0,0,0,0,0,0,0,0,0.0,0.08061341196298599,2.614879846572876,0.19701042771339417,1.1808413003849039,2.0531374013485486,1.4390559299002668,0.2,0.2,1.0,-0.02499999999999991,1.0,-0.6607897897168089,1.4390559299002668,3.3973857020741125,1.9222497940063477e-06,-0.0001227855682373047,2.419388510286808,2.3849973678588867,0
2025-12-05 17:06:56.139761,0.2,0.2,7338.9,602.6,12.2,9.0,3912.1,319.7,25.8,0.00,0.00,0.00,0.00,0,0,0,0,0,0,0,0,0,0,0,0,0,0,0,0,0.0,0.08071422576904297,2.614773750305176,0.1971101611852646,1.14840805725123,2.0711106889556423,1.44573790623574,0.2,0.2,1.0,-0.02499999999999991,1.0,-0.6674286946050528,1.44573790623574,3.3973883969351397,0.00010273605585098267,-0.0002288818359375,2.419388510286808,2.3849973678588867,0
2025-12-05 17:06:56.241582,0.2,0.2,13047.1,1072.6,12.2,16.1,3912.8,319.7,25.8,0.00,0.00,0.00,0.00,0,0,0,0,0,0,0,0,0,0,0,0,0,0,0,0,0.0,0.08072345703840256,2.6147255897521973,0.19711974263191223,1.1387032227237923,2.069221060302371,1.4486185863160728,0.2,0.2,1.0,-0.02499999999999991,1.0,-0.6702973725436047,1.4486185863160728,3.3974156359661416,0.00011196732521057129,-0.0002770423889160156,2.419388510286808,2.3849973678588867,0
2025-12-05 17:06:56.272785,0.2,0.2,14252.2,1172.1,12.2,17.6,3913.4,319.8,25.8,0.00,0.00,0.00,0.00,0,0,0,0,0,0,0,0,0,0,0,0,0,0,0,0,0.0,0.08072345703840256,2.6147255897521973,0.19711974263191223,1.1387032227237923,2.069221060302371,1.4486185863160728,0.2,0.2,1.0,-0.02499999999999991,1.0,-0.6702973725436047,1.4486185863160728,3.3974156359661416,0.00011196732521057129,-0.0002770423889160156,2.419388510286808,2.3849973678588867,0
2025-12-05 17:06:56.304086,0.2,0.2,12073.9,992.6,12.2,14.9,3914.2,319.8,25.8,0.00,0.00,0.00,0.00,0,0,0,0,0,0,0,0,0,0,0,0,0,0,0,0,0.0,0.08072345703840256,2.6147255897521973,0.19711974263191223,1.1387032227237923,2.069221060302371,1.4486185863160728,0.2,0.2,1.0,-0.02499999999999991,1.0,-0.6702973725436047,1.4486185863160728,3.3974156359661416,0.00011196732521057129,-0.0002770423889160156,2.419388510286808,2.3849973678588867,0
2025-12-05 17:06:56.343834,0.2,0.2,14177.8,1166.1,12.2,17.5,3915.0,319.9,25.8,0.00,0.00,0.00,0.00,0,0,0,0,0,0,0,0,0,0,0,0,0,0,0,0,0.0,0.08069351315498352,2.6147611141204834,0.19711974263191223,1.1396379232561054,2.073099717589849,1.443824616347964,0.2,0.2,1.0,-0.02499999999999991,1.0,-0.6655170364269815,1.443824616347964,3.397412017992833,8.202344179153442e-05,-0.0002415180206298828,2.419388510286808,2.3849973678588867,0
2025-12-05 17:06:56.392900,0.2,0.2,14706.8,1209.7,12.2,18.1,3915.9,320.0,25.8,0.00,0.00,0.00,0.00,0,0,0,0,0,0,0,0,0,0,0,0,0,0,0,0,0.0,0.08069351315498352,2.6147611141204834,0.19711974263191223,1.1396379232561054,2.073099717589849,1.443824616347964,0.2,0.2,1.0,-0.02499999999999991,1.0,-0.6655170364269815,1.443824616347964,3.397412017992833,8.202344179153442e-05,-0.0002415180206298828,2.419388510286808,2.3849973678588867,0
2025-12-05 17:06:56.769973,0.2,0.2,12615.1,1037.3,12.2,15.6,3916.8,320.1,25.8,0.00,0.00,0.00,0.00,0,0,0,0,0,0,0,0,0,0,0,0,0,0,0,0,0.0,0.0807153657078743,2.6147654056549072,0.19714607298374176,1.139404496622111,2.064470135636259,1.4477013628928308,0.2,0.2,1.0,-0.02499999999999991,1.0,-0.6693901666338598,1.4477013628928308,3.397393443771649,0.00010387599468231201,-0.0002372264862060547,2.419388510286808,2.3849973678588867,0
2025-12-05 17:06:56.855273,0.2,0.2,13409.1,1102.5,12.2,16.5,3917.6,320.1,25.8,0.00,0.00,0.00,0.00,0,0,0,0,0,0,0,0,0,0,0,0,0,0,0,0,0.0,0.08069224655628204,2.6147921085357666,0.19713200628757477,1.1420100539467275,2.0649543978984917,1.444066409780902,0.2,0.2,1.0,-0.02499999999999991,1.0,-0.6657655881209779,1.444066409780902,3.397391159607051,8.075684309005737e-05,-0.0002105236053466797,2.419388510286808,2.3849973678588867,0
2025-12-05 17:06:56.886448,0.2,0.2,10157.0,834.4,12.2,12.5,3918.2,320.2,25.8,0.00,0.00,0.00,0.00,0,0,0,0,0,0,0,0,0,0,0,0,0,0,0,0,0.0,0.08069224655628204,2.6147921085357666,0.19713200628757477,1.1420100539467275,2.0649543978984917,1.444066409780902,0.2,0.2,1.0,-0.02499999999999991,1.0,-0.6657655881209779,1.444066409780902,3.397391159607051,8.075684309005737e-05,-0.0002105236053466797,2.419388510286808,2.3849973678588867,0
2025-12-05 17:06:56.917764,0.2,0.2,16735.5,1377.2,12.2,20.7,3919.2,320.3,25.8,0.00,0.00,0.00,0.00,0,0,0,0,0,0,0,0,0,0,0,0,0,0,0,0,0.0,0.08069224655628204,2.6147921085357666,0.19713200628757477,1.1420100539467275,2.0649543978984917,1.444066409780902,0.2,0.2,1.0,-0.02499999999999991,1.0,-0.6657655881209779,1.444066409780902,3.397391159607051,8.075684309005737e-05,-0.0002105236053466797,2.419388510286808,2.3849973678588867,0
2025-12-05 17:06:56.948181,0.2,0.2,19944.9,1642.4,12.1,24.6,3920.3,320.3,25.8,0.00,0.00,0.00,0.00,0,0,0,0,0,0,0,0,0,0,0,0,0,0,0,0,0.0,0.08060505986213684,2.614868402481079,0.19694703817367554,1.2318024731823012,2.016027379790603,1.4397156458170617,0.2,0.2,1.0,-0.02499999999999991,1.0,-0.6614488327232178,1.4397156458170617,3.3973996841478415,-6.429851055145264e-06,-0.0001342296600341797,2.419388510286808,2.3849973678588867,0
2025-12-05 17:06:56.979548,0.2,0.2,13427.2,1104.2,12.2,16.6,3921.1,320.4,25.8,0.00,0.00,0.00,0.00,0,0,0,0,0,0,0,0,0,0,0,0,0,0,0,0,0.0,0.08060505986213684,2.614868402481079,0.19694703817367554,1.2318024731823012,2.016027379790603,1.4397156458170617,0.2,0.2,1.0,-0.02499999999999991,1.0,-0.6614488327232178,1.4397156458170617,3.3973996841478415,-6.429851055145264e-06,-0.0001342296600341797,2.419388510286808,2.3849973678588867,0
2025-12-05 17:06:57.010988,0.2,0.2,9073.7,745.4,12.2,11.2,3921.7,320.5,25.8,0.00,0.00,0.00,0.00,0,0,0,0,0,0,0,0,0,0,0,0,0,0,0,0,0.0,0.08060505986213684,2.614868402481079,0.19694703817367554,1.2318024731823012,2.016027379790603,1.4397156458170617,0.2,0.2,1.0,-0.02499999999999991,1.0,-0.6614488327232178,1.4397156458170617,3.3973996841478415,-6.429851055145264e-06,-0.0001342296600341797,2.419388510286808,2.3849973678588867,0
2025-12-05 17:06:57.042431,0.2,0.2,12731.7,1046.8,12.2,15.7,3922.4,320.5,25.8,0.00,0.00,0.00,0.00,0,0,0,0,0,0,0,0,0,0,0,0,0,0,0,0,0.0,0.08060505986213684,2.614868402481079,0.19694703817367554,1.2318024731823012,2.016027379790603,1.4397156458170617,0.2,0.2,1.0,-0.02499999999999991,1.0,-0.6614488327232178,1.4397156458170617,3.3973996841478415,-6.429851055145264e-06,-0.0001342296600341797,2.419388510286808,2.3849973678588867,0
2025-12-05 17:06:57.074511,0.2,0.2,11606.3,954.0,12.2,14.3,3923.1,320.6,25.8,0.00,0.00,0.00,0.00,0,0,0,0,0,0,0,0,0,0,0,0,0,0,0,0,0.0,0.0806078091263771,2.614886999130249,0.19701850414276123,1.1764862766442232,2.052893294780695,1.439250047802581,0.2,0.2,1.0,-0.02499999999999991,1.0,-0.6609865646663524,1.439250047802581,3.397384670622121,-3.680586814880371e-06,-0.00011563301086425781,2.419388510286808,2.3849973678588867,0
2025-12-05 17:06:57.107321,0.2,0.2,15087.5,1241.3,12.2,18.6,3924.0,320.6,25.8,0.00,0.00,0.00,0.00,0,0,0,0,0,0,0,0,0,0,0,0,0,0,0,0,0.0,0.0806078091263771,2.614886999130249,0.19701850414276123,1.1764862766442232,2.052893294780695,1.439250047802581,0.2,0.2,1.0,-0.02499999999999991,1.0,-0.6609865646663524,1.439250047802581,3.397384670622121,-3.680586814880371e-06,-0.00011563301086425781,2.419388510286808,2.3849973678588867,0
2025-12-05 17:06:57.150230,0.2,0.2,14157.5,1299.6,12.2,17.5,3924.9,320.7,25.8,0.00,0.00,0.00,0.00,0,0,0,0,0,0,0,0,0,0,0,0,0,0,0,0,0.0,0.0806078091263771,2.614886999130249,0.19701850414276123,1.1764862766442232,2.052893294780695,1.439250047802581,0.2,0.2,1.0,-0.02499999999999991,1.0,-0.6609865646663524,1.439250047802581,3.397384670622121,-3.680586814880371e-06,-0.00011563301086425781,2.419388510286808,2.3849973678588867,0
2025-12-05 17:06:57.191620,0.2,0.2,11264.0,925.9,12.2,13.9,3925.6,320.8,25.8,0.00,0.00,0.00,0.00,0,0,0,0,0,0,0,0,0,0,0,0,0,0,0,0,0.0,0.0806078091263771,2.614886999130249,0.19701850414276123,1.1764862766442232,2.052893294780695,1.439250047802581,0.2,0.2,1.0,-0.02499999999999991,1.0,-0.6609865646663524,1.439250047802581,3.397384670622121,-3.680586814880371e-06,-0.00011563301086425781,2.419388510286808,2.3849973678588867,0
2025-12-05 17:06:57.223401,0.2,0.2,14415.8,1027.4,12.2,17.8,3926.3,320.8,25.8,0.00,0.00,0.00,0.00,0,0,0,0,0,0,0,0,0,0,0,0,0,0,0,0,0.0,0.0806078091263771,2.614886999130249,0.19701850414276123,1.1764862766442232,2.052893294780695,1.439250047802581,0.2,0.2,1.0,-0.02499999999999991,1.0,-0.6609865646663524,1.439250047802581,3.397384670622121,-3.680586814880371e-06,-0.00011563301086425781,2.419388510286808,2.3849973678588867,0
2025-12-05 17:06:57.255835,0.2,0.2,15761.5,1296.8,12.2,19.5,3927.2,320.9,25.8,0.00,0.00,0.00,0.00,0,0,0,0,0,0,0,0,0,0,0,0,0,0,0,0,0.0,0.08062838762998581,2.6149497032165527,0.19694200158119202,1.196437745369691,2.0414986249587446,1.4517027585187474,0.2,0.2,1.0,-0.02499999999999991,1.0,-0.6734481666936833,1.4517027585187474,3.397325995092124,1.6897916793823242e-05,-5.2928924560546875e-05,2.419388510286808,2.3849973678588867,0
2025-12-05 17:06:57.288712,0.2,0.2,15341.1,1262.1,12.2,18.9,3928.0,321.0,25.8,0.00,0.00,0.00,0.00,0,0,0,0,0,0,0,0,0,0,0,0,0,0,0,0,0.0,0.08062838762998581,2.6149497032165527,0.19694200158119202,1.196437745369691,2.0414986249587446,1.4517027585187474,0.2,0.2,1.0,-0.02499999999999991,1.0,-0.6734481666936833,1.4517027585187474,3.397325995092124,1.6897916793823242e-05,-5.2928924560546875e-05,2.419388510286808,2.3849973678588867,0
2025-12-05 17:06:57.368168,0.2,0.2,15037.8,1237.2,12.2,18.6,3928.9,321.0,25.8,0.00,0.00,0.00,0.00,0,0,0,0,0,0,0,0,0,0,0,0,0,0,0,0,0.0,0.08063872903585434,2.6149537563323975,0.1969185769557953,1.2009667639367816,2.042961823563403,1.4527577217186174,0.2,0.2,1.0,-0.02499999999999991,1.0,-0.6745018425039274,1.4527577217186174,3.3973157851271623,2.7239322662353516e-05,-4.887580871582031e-05,2.419388510286808,2.3849973678588867,0
2025-12-05 17:06:57.458505,0.2,0.2,15195.7,1250.4,12.2,18.8,3929.8,321.1,25.8,0.00,0.00,0.00,0.00,0,0,0,0,0,0,0,0,0,0,0,0,0,0,0,0,0.0,0.08063872903585434,2.6149537563323975,0.1969185769557953,1.2009667639367816,2.042961823563403,1.4527577217186174,0.2,0.2,1.0,-0.02499999999999991,1.0,-0.6745018425039274,1.4527577217186174,3.3973157851271623,2.7239322662353516e-05,-4.887580871582031e-05,2.419388510286808,2.3849973678588867,0
2025-12-05 17:06:57.517672,0.2,0.2,14204.9,1168.5,12.2,17.5,3930.6,321.2,25.8,0.00,0.00,0.00,0.00,0,0,0,0,0,0,0,0,0,0,0,0,0,0,0,0,0.0,0.0806167870759964,2.6149344444274902,0.19696512818336487,1.1894584094017033,2.0436297588458445,1.445110191596017,0.2,0.2,1.0,-0.02499999999999991,1.0,-0.666854798448322,1.445110191596017,3.3973449685536616,5.297362804412842e-06,-6.818771362304688e-05,2.419388510286808,2.3849973678588867,0
2025-12-05 17:06:57.547946,0.2,0.2,12380.1,1017.9,12.2,15.3,3931.3,321.2,25.9,0.00,0.00,0.00,0.00,0,0,0,0,0,0,0,0,0,0,0,0,0,0,0,0,0.0,0.0806167870759964,2.6149344444274902,0.19696512818336487,1.1894584094017033,2.0436297588458445,1.445110191596017,0.2,0.2,1.0,-0.02499999999999991,1.0,-0.666854798448322,1.445110191596017,3.3973449685536616,5.297362804412842e-06,-6.818771362304688e-05,2.419388510286808,2.3849973678588867,0
2025-12-05 17:06:57.578641,0.2,0.2,12488.8,1026.7,12.2,15.4,3932.1,321.3,25.8,0.00,0.00,0.00,0.00,0,0,0,0,0,0,0,0,0,0,0,0,0,0,0,0,0.0,0.08061428368091583,2.6149168014526367,0.19698616862297058,1.1818277173916467,2.0448425738526135,1.4428600135244007,0.2,0.2,1.0,-0.02499999999999991,1.0,-0.6646014394416235,1.4428600135244007,3.3973591373774026,2.7939677238464355e-06,-8.58306884765625e-05,2.419388510286808,2.3849973678588867,0
2025-12-05 17:06:57.627259,0.2,0.2,11937.9,981.4,12.2,14.7,3932.8,321.4,25.8,0.00,0.00,0.00,0.00,0,0,0,0,0,0,0,0,0,0,0,0,0,0,0,0,0.0,0.08061428368091583,2.6149168014526367,0.19698616862297058,1.1818277173916467,2.0448425738526135,1.4428600135244007,0.2,0.2,1.0,-0.02499999999999991,1.0,-0.6646014394416235,1.4428600135244007,3.3973591373774026,2.7939677238464355e-06,-8.58306884765625e-05,2.419388510286808,2.3849973678588867,0
2025-12-05 17:06:57.768274,0.2,0.2,13668.7,1124.3,12.2,16.9,3933.6,321.4,25.8,0.00,0.00,0.00,0.00,0,0,0,0,0,0,0,0,0,0,0,0,0,0,0,0,0.0,0.08062225580215454,2.61491060256958,0.19700951874256134,1.1814529472434314,2.0449660754734813,1.443446907143521,0.2,0.2,1.0,-0.02499999999999991,1.0,-0.665185386298475,1.443446907143521,3.3973578120143393,1.0766088962554932e-05,-9.202957153320312e-05,2.419388510286808,2.3849973678588867,0
2025-12-05 17:06:57.810329,0.2,0.2,12089.0,994.0,12.2,14.9,3934.4,321.5,25.8,0.00,0.00,0.00,0.00,0,0,0,0,0,0,0,0,0,0,0,0,0,0,0,0,0.0,0.08062613010406494,2.61490535736084,0.19701606035232544,1.1810183610442033,2.048059294555973,1.442752374589963,0.2,0.2,1.0,-0.02499999999999991,1.0,-0.6644889536742586,1.442752374589963,3.397358735353283,1.4640390872955322e-05,-9.72747802734375e-05,2.419388510286808,2.3849973678588867,0
2025-12-05 17:06:57.841569,0.2,0.2,15082.1,1240.6,12.2,18.6,3935.2,321.6,25.8,0.00,0.00,0.00,0.00,0,0,0,0,0,0,0,0,0,0,0,0,0,0,0,0,0.0,0.08062613010406494,2.61490535736084,0.19701606035232544,1.1810183610442033,2.048059294555973,1.442752374589963,0.2,0.2,1.0,-0.02499999999999991,1.0,-0.6644889536742586,1.442752374589963,3.397358735353283,1.4640390872955322e-05,-9.72747802734375e-05,2.419388510286808,2.3849973678588867,0
2025-12-05 17:06:57.880155,0.2,0.2,10796.0,887.3,12.2,13.3,3935.8,321.6,25.8,0.00,0.00,0.00,0.00,0,0,0,0,0,0,0,0,0,0,0,0,0,0,0,0,0.0,0.08062323182821274,2.6149094104766846,0.19701312482357025,1.1794738180817115,2.0499330544016576,1.4427281188216856,0.2,0.2,1.0,-0.02499999999999991,1.0,-0.6644661464072326,1.4427281188216856,3.397357953852087,1.1742115020751953e-05,-9.322166442871094e-05,2.419388510286808,2.3849973678588867,0
2025-12-05 17:06:57.920644,0.2,0.2,16437.1,1352.9,12.2,20.3,3936.8,321.7,25.8,0.00,0.00,0.00,0.00,0,0,0,0,0,0,0,0,0,0,0,0,0,0,0,0,0.0,0.08062323182821274,2.6149094104766846,0.19701312482357025,1.1794738180817115,2.0499330544016576,1.4427281188216856,0.2,0.2,1.0,-0.02499999999999991,1.0,-0.6644661464072326,1.4427281188216856,3.397357953852087,1.1742115020751953e-05,-9.322166442871094e-05,2.419388510286808,2.3849973678588867,0
2025-12-05 17:06:57.982715,0.2,0.2,14588.9,1200.2,12.2,18.0,3937.7,321.8,25.9,0.00,0.00,0.00,0.00,0,0,0,0,0,0,0,0,0,0,0,0,0,0,0,0,0.0,0.08063878864049911,2.6149210929870605,0.1969904601573944,1.1883483691330092,2.0452913985473136,1.4467451230192303,0.2,0.2,1.0,-0.02499999999999991,1.0,-0.6684823847036246,1.4467451230192303,3.3973386736839983,2.7298927307128906e-05,-8.153915405273438e-05,2.419388510286808,2.3849973678588867,0
2025-12-05 17:06:58.115880,0.2,0.2,11964.4,983.8,12.2,14.8,3938.5,321.8,25.8,0.00,0.00,0.00,0.00,0,0,0,0,0,0,0,0,0,0,0,0,0,0,0,0,0.0,0.08063893020153046,2.614924192428589,0.19700047373771667,1.1835206933059437,2.0485119930667,1.446315114727378,0.2,0.2,1.0,-0.02499999999999991,1.0,-0.6680529968497363,1.446315114727378,3.397336396931987,2.744048833847046e-05,-7.843971252441406e-05,2.419388510286808,2.3849973678588867,0
2025-12-05 17:06:58.146589,0.2,0.2,8237.1,676.6,12.2,10.1,3939.1,321.9,25.8,0.00,0.00,0.00,0.00,0,0,0,0,0,0,0,0,0,0,0,0,0,0,0,0,0.0,0.08063893020153046,2.614924192428589,0.19700047373771667,1.1835206933059437,2.0485119930667,1.446315114727378,0.2,0.2,1.0,-0.02499999999999991,1.0,-0.6680529968497363,1.446315114727378,3.397336396931987,2.744048833847046e-05,-7.843971252441406e-05,2.419388510286808,2.3849973678588867,0
2025-12-05 17:06:58.187166,0.2,0.2,9283.3,762.8,12.2,11.4,3939.8,321.9,25.8,0.00,0.00,0.00,0.00,0,0,0,0,0,0,0,0,0,0,0,0,0,0,0,0,0.0,0.08069213479757309,2.614802360534668,0.197116881608963,1.1450414233634982,2.0644404290868996,1.446251067055158,0.2,0.2,1.0,-0.02499999999999991,1.0,-0.6679524173568928,1.446251067055158,3.3973840415739454,8.064508438110352e-05,-0.0002002716064453125,2.419388510286808,2.3849973678588867,0
2025-12-05 17:06:58.218507,0.2,0.2,14206.5,1168.7,12.2,17.5,3940.6,322.0,25.8,0.00,0.00,0.00,0.00,0,0,0,0,0,0,0,0,0,0,0,0,0,0,0,0,0.0,0.08069213479757309,2.614802360534668,0.197116881608963,1.1450414233634982,2.0644404290868996,1.446251067055158,0.2,0.2,1.0,-0.02499999999999991,1.0,-0.6679524173568928,1.446251067055158,3.3973840415739454,8.064508438110352e-05,-0.0002002716064453125,2.419388510286808,2.3849973678588867,0
2025-12-05 17:06:58.291605,0.2,0.2,13722.6,947.8,12.2,16.9,3941.4,322.1,25.8,0.00,0.00,0.00,0.00,0,0,0,0,0,0,0,0,0,0,0,0,0,0,0,0,0.0,0.08072555810213089,2.6147677898406982,0.19715064764022827,1.1383674005516893,2.0664518706302557,1.449563386914237,0.2,0.2,1.0,-0.02499999999999991,1.0,-0.6712505841033084,1.449563386914237,3.3973845118858232,0.00011406838893890381,-0.00023484230041503906,2.419388510286808,2.3849973678588867,0
2025-12-05 17:06:58.422136,0.2,0.2,11975.8,984.5,12.2,14.8,3942.1,322.1,25.8,0.00,0.00,0.00,0.00,0,0,0,0,0,0,0,0,0,0,0,0,0,0,0,0,0.0,0.08068478852510452,2.6147782802581787,0.19712938368320465,1.1413045232664316,2.070543224001195,1.4426678953888743,0.2,0.2,1.0,-0.02499999999999991,1.0,-0.6643657164708372,1.4426678953888743,3.3974061789550496,7.329881191253662e-05,-0.0002243518829345703,2.419388510286808,2.3849973678588867,0
2025-12-05 17:06:58.453425,0.2,0.2,17147.0,1411.5,12.1,21.2,3942.9,322.2,25.9,0.00,0.00,0.00,0.00,0,0,0,0,0,0,0,0,0,0,0,0,0,0,0,0,0.0,0.08068478852510452,2.6147782802581787,0.19712938368320465,1.1413045232664316,2.070543224001195,1.4426678953888743,0.2,0.2,1.0,-0.02499999999999991,1.0,-0.6643657164708372,1.4426678953888743,3.3974061789550496,7.329881191253662e-05,-0.0002243518829345703,2.419388510286808,2.3849973678588867,0
2025-12-05 17:06:58.500344,0.2,0.2,15306.3,1259.6,12.2,18.9,3943.8,322.3,25.9,0.00,0.00,0.00,0.00,0,0,0,0,0,0,0,0,0,0,0,0,0,0,0,0,0.0,0.08063603192567825,2.6148204803466797,0.19710154831409454,1.1538816789381312,2.0667765574210173,1.435381638763646,0.2,0.2,1.0,-0.02499999999999991,1.0,-0.6570983805969228,1.435381638763646,3.397411271981944,2.454221248626709e-05,-0.00018215179443359375,2.419388510286808,2.3849973678588867,0
2025-12-05 17:06:58.531652,0.2,0.2,16228.1,1335.6,12.2,20.0,3944.7,322.4,25.8,0.00,0.00,0.00,0.00,0,0,0,0,0,0,0,0,0,0,0,0,0,0,0,0,0.0,0.08063603192567825,2.6148204803466797,0.19710154831409454,1.1538816789381312,2.0667765574210173,1.435381638763646,0.2,0.2,1.0,-0.02499999999999991,1.0,-0.6570983805969228,1.435381638763646,3.397411271981944,2.454221248626709e-05,-0.00018215179443359375,2.419388510286808,2.3849973678588867,0
2025-12-05 17:06:58.596913,0.2,0.2,15103.6,1242.8,12.2,18.6,3945.7,322.4,25.8,0.00,0.00,0.00,0.00,0,0,0,0,0,0,0,0,0,0,0,0,0,0,0,0,0.0,0.08060701191425323,2.6148898601531982,0.1970144510269165,1.177371536010297,2.051672144238566,1.438477239853496,0.2,0.2,1.0,-0.02499999999999991,1.0,-0.6602145211611384,1.438477239853496,3.397383229781196,-4.477798938751221e-06,-0.00011277198791503906,2.419388510286808,2.3849973678588867,0
2025-12-05 17:06:58.692758,0.2,0.2,15985.0,1331.2,12.1,19.7,3946.7,322.5,25.8,0.00,0.00,0.00,0.00,0,0,0,0,0,0,0,0,0,0,0,0,0,0,0,0,0.0,0.08064445853233337,2.6149580478668213,0.19692771136760712,1.1927517727572226,2.0498471203392437,1.4511607240578694,0.2,0.2,1.0,-0.02499999999999991,1.0,-0.6729045604541191,1.4511607240578694,3.397308692106967,3.296881914138794e-05,-4.458427429199219e-05,2.419388510286808,2.3849973678588867,0
2025-12-05 17:06:58.724016,0.2,0.2,15273.1,1256.8,12.2,18.9,3947.5,322.6,25.8,0.00,0.00,0.00,0.00,0,0,0,0,0,0,0,0,0,0,0,0,0,0,0,0,0.0,0.08064445853233337,2.6149580478668213,0.19692771136760712,1.1927517727572226,2.0498471203392437,1.4511607240578694,0.2,0.2,1.0,-0.02499999999999991,1.0,-0.6729045604541191,1.4511607240578694,3.397308692106967,3.296881914138794e-05,-4.458427429199219e-05,2.419388510286808,2.3849973678588867,0
2025-12-05 17:06:58.755304,0.2,0.2,11531.2,901.9,12.2,14.2,3948.2,322.6,25.8,0.00,0.00,0.00,0.00,0,0,0,0,0,0,0,0,0,0,0,0,0,0,0,0,0.0,0.08064445853233337,2.6149580478668213,0.19692771136760712,1.1927517727572226,2.0498471203392437,1.4511607240578694,0.2,0.2,1.0,-0.02499999999999991,1.0,-0.6729045604541191,1.4511607240578694,3.397308692106967,3.296881914138794e-05,-4.458427429199219e-05,2.419388510286808,2.3849973678588867,0
2025-12-05 17:06:58.809301,0.2,0.2,15600.2,1283.9,12.2,19.3,3949.1,322.7,25.8,0.00,0.00,0.00,0.00,0,0,0,0,0,0,0,0,0,0,0,0,0,0,0,0,0.0,0.08060704916715622,2.6149871349334717,0.19675570726394653,1.291479072442756,1.9894582720669771,1.4548274184466798,0.2,0.2,1.0,-0.02499999999999991,1.0,-0.6765850824836768,1.4548274184466798,3.397314912849927,-4.4405460357666016e-06,-1.5497207641601562e-05,2.419388510286808,2.3849973678588867,0
2025-12-05 17:06:58.903853,0.2,0.2,17942.0,1477.3,12.1,22.2,3950.1,322.8,25.8,0.00,0.00,0.00,0.00,0,0,0,0,0,0,0,0,0,0,0,0,0,0,0,0,0.0,0.08063744008541107,2.614940643310547,0.19694481790065765,1.1936643286304855,2.0480391861762888,1.446193741577014,0.2,0.2,1.0,-0.02499999999999991,1.0,-0.667935379997506,1.446193741577014,3.397325908894874,2.5950372219085693e-05,-6.198883056640625e-05,2.419388510286808,2.3849973678588867,0
2025-12-05 17:06:59.048035,0.2,0.2,15653.3,1288.4,12.2,19.3,3951.1,322.9,25.8,0.00,0.00,0.00,0.00,0,0,0,0,0,0,0,0,0,0,0,0,0,0,0,0,0.0,0.08061076700687408,2.6149067878723145,0.19698762893676758,1.1899007008639013,2.042678033769566,1.440548046093852,0.2,0.2,1.0,-0.02499999999999991,1.0,-0.6622880997150093,1.440548046093852,3.397368671672332,-7.227063179016113e-07,-9.584426879882812e-05,2.419388510286808,2.3849973678588867,0
2025-12-05 17:06:59.105913,0.2,0.2,15887.8,1161.6,12.2,17.4,3952.0,322.9,25.8,0.00,0.00,0.00,0.00,0,0,0,0,0,0,0,0,0,0,0,0,0,0,0,0,0.0,0.08062174916267395,2.614896535873413,0.19701023399829865,1.1838214866701648,2.0495784047294223,1.4395563215071707,0.2,0.2,1.0,-0.02499999999999991,1.0,-0.6612919567825337,1.4395563215071707,3.3973680482416566,1.0259449481964111e-05,-0.00010609626770019531,2.419388510286808,2.3849973678588867,0
2025-12-05 17:06:59.136889,0.2,0.2,16012.9,1318.1,12.1,19.8,3952.8,323.0,25.8,0.00,0.00,0.00,0.00,0,0,0,0,0,0,0,0,0,0,0,0,0,0,0,0,0.0,0.08062174916267395,2.614896535873413,0.19701023399829865,1.1838214866701648,2.0495784047294223,1.4395563215071707,0.2,0.2,1.0,-0.02499999999999991,1.0,-0.6612919567825337,1.4395563215071707,3.3973680482416566,1.0259449481964111e-05,-0.00010609626770019531,2.419388510286808,2.3849973678588867,0
2025-12-05 17:06:59.167869,0.2,0.2,16033.1,1319.5,12.2,19.8,3953.7,323.1,25.8,0.00,0.00,0.00,0.00,0,0,0,0,0,0,0,0,0,0,0,0,0,0,0,0,0.0,0.08062174916267395,2.614896535873413,0.19701023399829865,1.1838214866701648,2.0495784047294223,1.4395563215071707,0.2,0.2,1.0,-0.02499999999999991,1.0,-0.6612919567825337,1.4395563215071707,3.3973680482416566,1.0259449481964111e-05,-0.00010609626770019531,2.419388510286808,2.3849973678588867,0
2025-12-05 17:06:59.198938,0.2,0.2,13828.4,1137.7,12.2,17.1,3954.4,323.1,25.8,0.00,0.00,0.00,0.00,0,0,0,0,0,0,0,0,0,0,0,0,0,0,0,0,0.0,0.08062467724084854,2.614891290664673,0.19701020419597626,1.1836973662302224,2.05042918494962,1.4404255739992422,0.2,0.2,1.0,-0.02499999999999991,1.0,-0.6621595047418394,1.4404255739992422,3.397369645435006,1.3187527656555176e-05,-0.00011134147644042969,2.419388510286808,2.3849973678588867,0
2025-12-05 17:06:59.239072,0.2,0.2,16499.8,1358.2,12.1,20.4,3955.4,323.2,25.8,0.00,0.00,0.00,0.00,0,0,0,0,0,0,0,0,0,0,0,0,0,0,0,0,0.0,0.08062467724084854,2.614891290664673,0.19701020419597626,1.1836973662302224,2.05042918494962,1.4404255739992422,0.2,0.2,1.0,-0.02499999999999991,1.0,-0.6621595047418394,1.4404255739992422,3.397369645435006,1.3187527656555176e-05,-0.00011134147644042969,2.419388510286808,2.3849973678588867,0
2025-12-05 17:06:59.355495,0.2,0.2,15716.1,1293.6,12.2,19.4,3956.3,323.3,25.9,0.00,0.00,0.00,0.00,0,0,0,0,0,0,0,0,0,0,0,0,0,0,0,0,0.0,0.08063387125730515,2.614912986755371,0.19699041545391083,1.1874196279372675,2.048828778820166,1.44335061913762,0.2,0.2,1.0,-0.02499999999999991,1.0,-0.6650871977865193,1.44335061913762,3.3973478664475323,2.238154411315918e-05,-8.96453857421875e-05,2.419388510286808,2.3849973678588867,0
2025-12-05 17:06:59.386786,0.2,0.2,15768.9,1297.8,12.2,19.5,3957.3,323.4,25.8,0.00,0.00,0.00,0.00,0,0,0,0,0,0,0,0,0,0,0,0,0,0,0,0,0.0,0.08063387125730515,2.614912986755371,0.19699041545391083,1.1874196279372675,2.048828778820166,1.44335061913762,0.2,0.2,1.0,-0.02499999999999991,1.0,-0.6650871977865193,1.44335061913762,3.3973478664475323,2.238154411315918e-05,-8.96453857421875e-05,2.419388510286808,2.3849973678588867,0
2025-12-05 17:06:59.418074,0.2,0.2,14730.2,1212.0,12.2,18.2,3958.1,323.5,25.8,0.00,0.00,0.00,0.00,0,0,0,0,0,0,0,0,0,0,0,0,0,0,0,0,0.0,0.08070892840623856,2.614800214767456,0.1971098780632019,1.1542562300039425,2.0617826040318854,1.4469884338279382,0.2,0.2,1.0,-0.02499999999999991,1.0,-0.6686858639572095,1.4469884338279382,3.3973735891960226,9.743869304656982e-05,-0.00020241737365722656,2.419388510286808,2.3849973678588867,0
2025-12-05 17:06:59.452619,0.2,0.2,14703.2,1209.9,12.2,18.1,3959.0,323.5,25.9,0.00,0.00,0.00,0.00,0,0,0,0,0,0,0,0,0,0,0,0,0,0,0,0,0.0,0.08070892840623856,2.614800214767456,0.1971098780632019,1.1542562300039425,2.0617826040318854,1.4469884338279382,0.2,0.2,1.0,-0.02499999999999991,1.0,-0.6686858639572095,1.4469884338279382,3.3973735891960226,9.743869304656982e-05,-0.00020241737365722656,2.419388510286808,2.3849973678588867,0
2025-12-05 17:06:59.519323,0.2,0.2,13701.3,1127.3,12.2,16.9,3959.8,323.6,25.9,0.00,0.00,0.00,0.00,0,0,0,0,0,0,0,0,0,0,0,0,0,0,0,0,0.0,0.08071141690015793,2.6147778034210205,0.19713611900806427,1.1383934334710786,2.0689057052312143,1.4461775164228694,0.2,0.2,1.0,-0.02499999999999991,1.0,-0.6678697347941647,1.4461775164228694,3.3973875515416685,9.992718696594238e-05,-0.00022482872009277344,2.419388510286808,2.3849973678588867,0
2025-12-05 17:06:59.623372,0.2,0.2,14493.3,1192.6,12.2,17.9,3960.6,323.7,25.9,0.00,0.00,0.00,0.00,0,0,0,0,0,0,0,0,0,0,0,0,0,0,0,0,0.0,0.08070264011621475,2.614790678024292,0.19711783528327942,1.1571778076592278,2.065658719114005,1.4437270557595614,0.2,0.2,1.0,-0.02499999999999991,1.0,-0.6654237864260023,1.4437270557595614,3.3973847626049762,9.115040302276611e-05,-0.00021195411682128906,2.419388510286808,2.3849973678588867,0
2025-12-05 17:06:59.654110,0.2,0.2,14672.6,1167.2,12.2,18.1,3961.5,323.7,25.9,0.00,0.00,0.00,0.00,0,0,0,0,0,0,0,0,0,0,0,0,0,0,0,0,0.0,0.08070264011621475,2.614790678024292,0.19711783528327942,1.1571778076592278,2.065658719114005,1.4437270557595614,0.2,0.2,1.0,-0.02499999999999991,1.0,-0.6654237864260023,1.4437270557595614,3.3973847626049762,9.115040302276611e-05,-0.00021195411682128906,2.419388510286808,2.3849973678588867,0
2025-12-05 17:06:59.723449,0.2,0.2,14763.7,1215.1,12.2,18.2,3962.4,323.8,25.8,0.00,0.00,0.00,0.00,0,0,0,0,0,0,0,0,0,0,0,0,0,0,0,0,0.0,0.08070264011621475,2.614790678024292,0.19711783528327942,1.1571778076592278,2.065658719114005,1.4437270557595614,0.2,0.2,1.0,-0.02499999999999991,1.0,-0.6654237864260023,1.4437270557595614,3.3973847626049762,9.115040302276611e-05,-0.00021195411682128906,2.419388510286808,2.3849973678588867,0
