Timestamp,forward_vel_cmd,steering_vel_cmd,power_mW,current_mA,busVoltage_V,shuntVoltage_mV,energy,charge,dieTemp,Left_Stick_X,Left_Stick_Y,Right_Stick_X,Right_Stick_Y,Button_0,Button_1,Button_2,Button_3,Button_4,Button_5,Button_6,Button_7,Button_8,Button_9,Button_10,Button_11,Button_12,Button_13,Button_14,Button_15,mocap_velocity,mocap_x,mocap_y,mocap_z,mocap_roll,mocap_pitch,mocap_yaw_raw,forward_vel_cmd,steering_vel_cmd,left_wheel_vel,right_wheel_vel,ppo_control_active,heading_error_rad,current_heading_rad,distance_to_target,relative_x,relative_y,target_relative_x,target_relative_y,current_waypoint_idx
2025-12-05 17:06:44.796702,0.0,0.0,1039.6,85.0,12.2,1.3,3783.2,309.1,25.8,0.00,0.00,0.00,0.00,0,0,0,0,0,0,0,0,0,0,0,0,0,0,0,0,0.0,0.08065089583396912,2.614950180053711,0.19698943197727203,1.1945418220197965,2.040468329185707,1.4516402334549259,0.0,0.0,0.0,0.0,0.0,-0.6733810903729981,1.4516402334549259,3.397309631378159,3.940612077713013e-05,-5.245208740234375e-05,2.419388510286808,2.3849973678588867,0
2025-12-05 17:06:44.827845,0.0,0.0,1031.9,83.7,12.2,1.3,3783.3,309.1,25.8,0.00,0.00,0.00,0.00,0,0,0,0,0,0,0,0,0,0,0,0,0,0,0,0,0.0,0.08065089583396912,2.614950180053711,0.19698943197727203,1.1945418220197965,2.040468329185707,1.4516402334549259,0.0,0.0,0.0,0.0,0.0,-0.6733810903729981,1.4516402334549259,3.397309631378159,3.940612077713013e-05,-5.245208740234375e-05,2.419388510286808,2.3849973678588867,0
2025-12-05 17:06:44.858970,0.0,0.0,1024.8,83.8,12.2,1.3,3783.4,309.1,25.8,0.00,0.00,0.00,0.00,0,0,0,0,0,0,0,0,0,0,0,0,0,0,0,0,0.0,0.08064830303192139,2.6149539947509766,0.1969856321811676,1.1928331522912403,2.040948494355344,1.451254040055714,0.0,0.0,0.0,0.0,0.0,-0.672996232395192,1.451254040055714,3.3973087997379112,3.6813318729400635e-05,-4.863739013671875e-05,2.419388510286808,2.3849973678588867,0
2025-12-05 17:06:44.889243,0.0,0.0,1043.2,83.8,12.2,1.3,3783.4,309.1,25.8,0.00,0.00,0.00,0.00,0,0,0,0,0,0,0,0,0,0,0,0,0,0,0,0,0.0,0.08064830303192139,2.6149539947509766,0.1969856321811676,1.1928331522912403,2.040948494355344,1.451254040055714,0.0,0.0,0.0,0.0,0.0,-0.672996232395192,1.451254040055714,3.3973087997379112,3.6813318729400635e-05,-4.863739013671875e-05,2.419388510286808,2.3849973678588867,0
2025-12-05 17:06:44.920424,0.0,0.0,982.7,80.4,12.2,1.2,3783.5,309.1,25.8,0.00,0.00,0.00,0.00,0,0,0,0,0,0,0,0,0,0,0,0,0,0,0,0,0.0,0.08064830303192139,2.6149539947509766,0.1969856321811676,1.1928331522912403,2.040948494355344,1.451254040055714,0.0,0.0,0.0,0.0,0.0,-0.672996232395192,1.451254040055714,3.3973087997379112,3.6813318729400635e-05,-4.863739013671875e-05,2.419388510286808,2.3849973678588867,0
2025-12-05 17:06:44.951649,0.0,0.0,1088.2,89.0,12.2,1.3,3783.5,309.1,25.8,0.00,0.00,0.00,0.00,0,0,0,0,0,0,0,0,0,0,0,0,0,0,0,0,0.0,0.08064842224121094,2.6149444580078125,0.1969917118549347,1.195772337171984,2.040158785514391,1.4493540243326493,0.0,0.0,0.0,0.0,0.0,-0.6710941929671599,1.4493540243326493,3.3973154100247434,3.6932528018951416e-05,-5.817413330078125e-05,2.419388510286808,2.3849973678588867,0
2025-12-05 17:06:44.982875,0.0,0.0,1014.9,83.0,12.2,1.2,3783.6,309.1,25.8,0.00,0.00,0.00,0.00,0,0,0,0,0,0,0,0,0,0,0,0,0,0,0,0,0.0,0.08064842224121094,2.6149444580078125,0.1969917118549347,1.195772337171984,2.040158785514391,1.4493540243326493,0.0,0.0,0.0,0.0,0.0,-0.6710941929671599,1.4493540243326493,3.3973154100247434,3.6932528018951416e-05,-5.817413330078125e-05,2.419388510286808,2.3849973678588867,0
2025-12-05 17:06:45.014620,0.0,0.0,1031.7,84.4,12.2,1.3,3783.7,309.1,25.8,0.00,0.00,0.00,0.00,0,0,0,0,0,0,0,0,0,0,0,0,0,0,0,0,0.0,0.08064842224121094,2.6149444580078125,0.1969917118549347,1.195772337171984,2.040158785514391,1.4493540243326493,0.0,0.0,0.0,0.0,0.0,-0.6710941929671599,1.4493540243326493,3.3973154100247434,3.6932528018951416e-05,-5.817413330078125e-05,2.419388510286808,2.3849973678588867,0
2025-12-05 17:06:45.045525,0.0,0.0,1042.1,85.2,12.2,1.3,3783.7,309.1,25.8,0.00,0.00,0.00,0.00,0,0,0,0,0,0,0,0,0,0,0,0,0,0,0,0,0.0,0.08064842224121094,2.6149444580078125,0.1969917118549347,1.195772337171984,2.040158785514391,1.4493540243326493,0.0,0.0,0.0,0.0,0.0,-0.6710941929671599,1.4493540243326493,3.3973154100247434,3.6932528018951416e-05,-5.817413330078125e-05,2.419388510286808,2.3849973678588867,0
2025-12-05 17:06:45.076778,0.0,0.0,1000.9,81.9,12.2,1.2,3783.8,309.1,25.8,0.00,0.00,0.00,0.00,0,0,0,0,0,0,0,0,0,0,0,0,0,0,0,0,0.0,0.08064147084951401,2.614924907684326,0.19700461626052856,1.1917575897310015,2.045996900229355,1.4457272594555803,0.0,0.0,0.0,0.0,0.0,-0.6674647664940158,1.4457272594555803,3.397334085508492,2.9981136322021484e-05,-7.772445678710938e-05,2.419388510286808,2.3849973678588867,0
2025-12-05 17:06:45.108018,0.0,0.0,1041.6,85.2,12.2,1.3,3783.8,309.1,25.8,0.00,0.00,0.00,0.00,0,0,0,0,0,0,0,0,0,0,0,0,0,0,0,0,0.0,0.08064147084951401,2.614924907684326,0.19700461626052856,1.1917575897310015,2.045996900229355,1.4457272594555803,0.0,0.0,0.0,0.0,0.0,-0.6674647664940158,1.4457272594555803,3.397334085508492,2.9981136322021484e-05,-7.772445678710938e-05,2.419388510286808,2.3849973678588867,0
2025-12-05 17:06:45.222410,0.0,0.0,979.4,80.1,12.2,1.2,3783.9,309.1,25.8,0.00,0.00,0.00,0.00,0,0,0,0,0,0,0,0,0,0,0,0,0,0,0,0,0.0,0.08063308149576187,2.6149110794067383,0.19701796770095825,1.186069998807442,2.0463764152955743,1.4437876613170832,0.0,0.0,0.0,0.0,0.0,-0.6655240033579727,1.4437876613170832,3.397349767905775,2.1591782569885254e-05,-9.1552734375e-05,2.419388510286808,2.3849973678588867,0
2025-12-05 17:06:45.282585,0.0,0.0,1025.5,83.9,12.2,1.3,3784.0,309.1,25.8,0.00,0.00,0.00,0.00,0,0,0,0,0,0,0,0,0,0,0,0,0,0,0,0,0.0,0.08063255250453949,2.614894390106201,0.1970285326242447,1.1846241026537911,2.048030072492282,1.4415143980878096,0.0,0.0,0.0,0.0,0.0,-0.6632473511354052,1.4415143980878096,3.397361861260524,2.1062791347503662e-05,-0.00010824203491210938,2.419388510286808,2.3849973678588867,0
2025-12-05 17:06:45.313746,0.0,0.0,1016.1,83.1,12.2,1.2,3784.0,309.1,25.8,0.00,0.00,0.00,0.00,0,0,0,0,0,0,0,0,0,0,0,0,0,0,0,0,0.0,0.08063255250453949,2.614894390106201,0.1970285326242447,1.1846241026537911,2.048030072492282,1.4415143980878096,0.0,0.0,0.0,0.0,0.0,-0.6632473511354052,1.4415143980878096,3.397361861260524,2.1062791347503662e-05,-0.00010824203491210938,2.419388510286808,2.3849973678588867,0
2025-12-05 17:06:45.343895,0.0,0.0,1004.2,83.8,12.2,1.2,3784.1,309.1,25.8,0.00,0.00,0.00,0.00,0,0,0,0,0,0,0,0,0,0,0,0,0,0,0,0,0.0,0.08063255250453949,2.614894390106201,0.1970285326242447,1.1846241026537911,2.048030072492282,1.4415143980878096,0.0,0.0,0.0,0.0,0.0,-0.6632473511354052,1.4415143980878096,3.397361861260524,2.1062791347503662e-05,-0.00010824203491210938,2.419388510286808,2.3849973678588867,0
2025-12-05 17:06:45.374920,0.0,0.0,1032.8,84.5,12.2,1.3,3784.1,309.1,25.8,0.00,0.00,0.00,0.00,0,0,0,0,0,0,0,0,0,0,0,0,0,0,0,0,0.0,0.08062183856964111,2.614889144897461,0.1970372498035431,1.1833679516449802,2.0496425983140356,1.4413157251084545,0.0,0.0,0.0,0.0,0.0,-0.6630497926648665,1.4413157251084545,3.397373173369995,1.0348856449127197e-05,-0.00011348724365234375,2.419388510286808,2.3849973678588867,0
2025-12-05 17:06:45.406162,0.0,0.0,1017.2,82.8,12.2,1.2,3784.2,309.2,25.8,0.00,0.00,0.00,0.00,0,0,0,0,0,0,0,0,0,0,0,0,0,0,0,0,0.0,0.08062183856964111,2.614889144897461,0.1970372498035431,1.1833679516449802,2.0496425983140356,1.4413157251084545,0.0,0.0,0.0,0.0,0.0,-0.6630497926648665,1.4413157251084545,3.397373173369995,1.0348856449127197e-05,-0.00011348724365234375,2.419388510286808,2.3849973678588867,0
2025-12-05 17:06:45.489571,0.0,0.0,1030.8,84.3,12.2,1.3,3784.3,309.2,25.8,0.00,0.00,0.00,0.00,0,0,0,0,0,0,0,0,0,0,0,0,0,0,0,0,0.0,0.08063890039920807,2.614893674850464,0.19705478847026825,1.1849985378133847,2.045751221973594,1.4437217312560904,0.0,0.0,0.0,0.0,0.0,-0.6654532226170846,1.4437217312560904,3.3973578428728812,2.7410686016082764e-05,-0.00010895729064941406,2.419388510286808,2.3849973678588867,0
2025-12-05 17:06:45.520158,0.0,0.0,1011.2,82.7,12.2,1.2,3784.3,309.2,25.8,0.00,0.00,0.00,0.00,0,0,0,0,0,0,0,0,0,0,0,0,0,0,0,0,0.0,0.08063890039920807,2.614893674850464,0.19705478847026825,1.1849985378133847,2.045751221973594,1.4437217312560904,0.0,0.0,0.0,0.0,0.0,-0.6654532226170846,1.4437217312560904,3.3973578428728812,2.7410686016082764e-05,-0.00010895729064941406,2.419388510286808,2.3849973678588867,0
2025-12-05 17:06:45.604676,0.0,0.0,1041.8,85.2,12.2,1.3,3784.4,309.2,25.8,0.00,0.00,0.00,0.00,0,0,0,0,0,0,0,0,0,0,0,0,0,0,0,0,0.0,0.08064644783735275,2.6149089336395264,0.19703073799610138,1.1901631497540281,2.0444865987114427,1.444923883368828,0.0,0.0,0.0,0.0,0.0,-0.6666570135360717,1.444923883368828,3.397341755725285,3.49581241607666e-05,-9.369850158691406e-05,2.419388510286808,2.3849973678588867,0
2025-12-05 17:06:45.635826,0.0,0.0,974.9,79.7,12.2,1.2,3784.4,309.2,25.8,0.00,0.00,0.00,0.00,0,0,0,0,0,0,0,0,0,0,0,0,0,0,0,0,0.0,0.08064644783735275,2.6149089336395264,0.19703073799610138,1.1901631497540281,2.0444865987114427,1.444923883368828,0.0,0.0,0.0,0.0,0.0,-0.6666570135360717,1.444923883368828,3.397341755725285,3.49581241607666e-05,-9.369850158691406e-05,2.419388510286808,2.3849973678588867,0
2025-12-05 17:06:45.694087,0.0,0.0,1024.2,83.8,12.2,1.3,3784.5,309.2,25.8,0.00,0.00,0.00,0.00,0,0,0,0,0,0,0,0,0,0,0,0,0,0,0,0,0.0,0.08065326511859894,2.614926815032959,0.19702807068824768,1.1905499276236702,2.045839266307538,1.446861593213285,0.0,0.0,0.0,0.0,0.0,-0.6685970628256759,1.446861593213285,3.397324347369577,4.1775405406951904e-05,-7.581710815429688e-05,2.419388510286808,2.3849973678588867,0
2025-12-05 17:06:45.896785,0.0,0.0,1029.2,84.2,12.2,1.3,3784.6,309.2,25.8,0.00,0.00,0.00,0.00,0,0,0,0,0,0,0,0,0,0,0,0,0,0,0,0,0.0,0.08064954727888107,2.6149489879608154,0.1969699114561081,1.1980404906692241,2.040486740128046,1.4504205230564597,0.0,0.0,0.0,0.0,0.0,-0.6721614087641944,1.4504205230564597,3.3973114286316206,3.8057565689086914e-05,-5.364418029785156e-05,2.419388510286808,2.3849973678588867,0
2025-12-05 17:06:45.927955,0.0,0.0,989.4,80.9,12.2,1.2,3784.6,309.2,25.8,0.00,0.00,0.00,0.00,0,0,0,0,0,0,0,0,0,0,0,0,0,0,0,0,0.0,0.08064954727888107,2.6149489879608154,0.1969699114561081,1.1980404906692241,2.040486740128046,1.4504205230564597,0.0,0.0,0.0,0.0,0.0,-0.6721614087641944,1.4504205230564597,3.3973114286316206,3.8057565689086914e-05,-5.364418029785156e-05,2.419388510286808,2.3849973678588867,0
2025-12-05 17:06:45.959114,0.0,0.0,1026.2,83.9,12.2,1.3,3784.7,309.2,25.8,0.00,0.00,0.00,0.00,0,0,0,0,0,0,0,0,0,0,0,0,0,0,0,0,0.0,0.08064954727888107,2.6149489879608154,0.1969699114561081,1.1980404906692241,2.040486740128046,1.4504205230564597,0.0,0.0,0.0,0.0,0.0,-0.6721614087641944,1.4504205230564597,3.3973114286316206,3.8057565689086914e-05,-5.364418029785156e-05,2.419388510286808,2.3849973678588867,0
2025-12-05 17:06:45.990316,0.0,0.0,988.1,80.8,12.2,1.2,3784.7,309.2,25.8,0.00,0.00,0.00,0.00,0,0,0,0,0,0,0,0,0,0,0,0,0,0,0,0,0.0,0.0806155875325203,2.6149165630340576,0.19701582193374634,1.1845646066012867,2.044230605678923,1.4422968021194542,0.0,0.0,0.0,0.0,0.0,-0.6640379086287581,1.4422968021194542,3.397358376235849,4.0978193283081055e-06,-8.606910705566406e-05,2.419388510286808,2.3849973678588867,0
2025-12-05 17:06:46.021535,0.0,0.0,1033.4,84.5,12.2,1.3,3784.8,309.2,25.8,0.00,0.00,0.00,0.00,0,0,0,0,0,0,0,0,0,0,0,0,0,0,0,0,0.0,0.0806155875325203,2.6149165630340576,0.19701582193374634,1.1845646066012867,2.044230605678923,1.4422968021194542,0.0,0.0,0.0,0.0,0.0,-0.6640379086287581,1.4422968021194542,3.397358376235849,4.0978193283081055e-06,-8.606910705566406e-05,2.419388510286808,2.3849973678588867,0
2025-12-05 17:06:46.051856,0.0,0.0,1037.5,84.9,12.2,1.3,3784.9,309.2,25.8,0.00,0.00,0.00,0.00,0,0,0,0,0,0,0,0,0,0,0,0,0,0,0,0,0.0,0.0806155875325203,2.6149165630340576,0.19701582193374634,1.1845646066012867,2.044230605678923,1.4422968021194542,0.0,0.0,0.0,0.0,0.0,-0.6640379086287581,1.4422968021194542,3.397358376235849,4.0978193283081055e-06,-8.606910705566406e-05,2.419388510286808,2.3849973678588867,0
2025-12-05 17:06:46.103689,0.0,0.0,1040.8,85.1,12.2,1.3,3784.9,309.2,25.8,0.00,0.00,0.00,0.00,0,0,0,0,0,0,0,0,0,0,0,0,0,0,0,0,0.0,0.08062568306922913,2.614914894104004,0.1970083862543106,1.1915956211965115,2.0414858597070977,1.4479272315553775,0.0,0.0,0.0,0.0,0.0,-0.6696659020550191,1.4479272315553775,3.397352358497886,1.4193356037139893e-05,-8.7738037109375e-05,2.419388510286808,2.3849973678588867,0
2025-12-05 17:06:46.146187,0.0,0.0,1041.7,85.2,12.2,1.3,3785.0,309.2,25.8,0.00,0.00,0.00,0.00,0,0,0,0,0,0,0,0,0,0,0,0,0,0,0,0,0.0,0.08062568306922913,2.614914894104004,0.1970083862543106,1.1915956211965115,2.0414858597070977,1.4479272315553775,0.0,0.0,0.0,0.0,0.0,-0.6696659020550191,1.4479272315553775,3.397352358497886,1.4193356037139893e-05,-8.7738037109375e-05,2.419388510286808,2.3849973678588867,0
2025-12-05 17:06:46.206305,0.0,0.0,995.2,81.4,12.2,1.2,3785.0,309.2,25.8,0.00,0.00,0.00,0.00,0,0,0,0,0,0,0,0,0,0,0,0,0,0,0,0,0.0,0.08071169257164001,2.614814043045044,0.19712433218955994,1.1533092617322664,2.058943382602253,1.4511013937500472,0.0,0.0,0.0,0.0,0.0,-0.6728011511442024,1.4511013937500472,3.3973619123835936,0.00010020285844802856,-0.00018858909606933594,2.419388510286808,2.3849973678588867,0
2025-12-05 17:06:46.308645,0.0,0.0,1050.2,85.9,12.2,1.3,3785.1,309.2,25.8,0.00,0.00,0.00,0.00,0,0,0,0,0,0,0,0,0,0,0,0,0,0,0,0,0.0,0.08084774762392044,2.614656686782837,0.19725026190280914,1.1116046543098725,2.0669849313150928,1.4622780307373286,0.0,0.0,0.0,0.0,0.0,-0.6839166895531443,1.4622780307373286,3.3973755079599446,0.0002362579107284546,-0.0003459453582763672,2.419388510286808,2.3849973678588867,0
2025-12-05 17:06:46.502077,0.0,0.0,981.9,80.3,12.2,1.2,3785.2,309.2,25.8,0.00,0.00,0.00,0.00,0,0,0,0,0,0,0,0,0,0,0,0,0,0,0,0,0.0,0.08089601993560791,2.6145970821380615,0.19731569290161133,1.0857491132862647,2.0739261465738505,1.4621950801145083,0.0,0.0,0.0,0.0,0.0,-0.6838112701577429,1.4621950801145083,3.3973829850206223,0.00028453022241592407,-0.0004055500030517578,2.419388510286808,2.3849973678588867,0
2025-12-05 17:06:46.533275,0.0,0.0,1023.2,83.7,12.2,1.3,3785.2,309.2,25.8,0.00,0.00,0.00,0.00,0,0,0,0,0,0,0,0,0,0,0,0,0,0,0,0,0.0,0.08089601993560791,2.6145970821380615,0.19731569290161133,1.0857491132862647,2.0739261465738505,1.4621950801145083,0.0,0.0,0.0,0.0,0.0,-0.6838112701577429,1.4621950801145083,3.3973829850206223,0.00028453022241592407,-0.0004055500030517578,2.419388510286808,2.3849973678588867,0
2025-12-05 17:06:46.564433,0.0,0.0,1019.5,83.4,12.2,1.3,3785.3,309.2,25.8,0.00,0.00,0.00,0.00,0,0,0,0,0,0,0,0,0,0,0,0,0,0,0,0,0.0,0.08089601993560791,2.6145970821380615,0.19731569290161133,1.0857491132862647,2.0739261465738505,1.4621950801145083,0.0,0.0,0.0,0.0,0.0,-0.6838112701577429,1.4621950801145083,3.3973829850206223,0.00028453022241592407,-0.0004055500030517578,2.419388510286808,2.3849973678588867,0
2025-12-05 17:06:46.595594,0.0,0.0,1000.4,83.8,12.2,1.2,3785.3,309.2,25.8,0.00,0.00,0.00,0.00,0,0,0,0,0,0,0,0,0,0,0,0,0,0,0,0,0.0,0.0808076485991478,2.614682912826538,0.19721050560474396,1.121090283023275,2.0674688583033602,1.4585006744440907,0.0,0.0,0.0,0.0,0.0,-0.6801531170104138,1.4585006744440907,3.3973856477353395,0.00019615888595581055,-0.0003197193145751953,2.419388510286808,2.3849973678588867,0
2025-12-05 17:06:46.626784,0.0,0.0,1048.3,85.8,12.2,1.3,3785.4,309.3,25.8,0.00,0.00,0.00,0.00,0,0,0,0,0,0,0,0,0,0,0,0,0,0,0,0,0.0,0.0808076485991478,2.614682912826538,0.19721050560474396,1.121090283023275,2.0674688583033602,1.4585006744440907,0.0,0.0,0.0,0.0,0.0,-0.6801531170104138,1.4585006744440907,3.3973856477353395,0.00019615888595581055,-0.0003197193145751953,2.419388510286808,2.3849973678588867,0
2025-12-05 17:06:46.778402,0.0,0.0,993.8,82.3,12.2,1.2,3785.5,309.3,25.8,0.00,0.00,0.00,0.00,0,0,0,0,0,0,0,0,0,0,0,0,0,0,0,0,0.0,0.08079387247562408,2.6147093772888184,0.1971832811832428,1.1305577912011144,2.065238071827219,1.4589655331640596,0.0,0.0,0.0,0.0,0.0,-0.680626369541984,1.4589655331640596,3.3973768766866863,0.0001823827624320984,-0.0002932548522949219,2.419388510286808,2.3849973678588867,0
2025-12-05 17:06:46.808885,0.0,0.0,1026.0,83.9,12.2,1.3,3785.5,309.3,25.8,0.00,0.00,0.00,0.00,0,0,0,0,0,0,0,0,0,0,0,0,0,0,0,0,0.0,0.08070902526378632,2.6147964000701904,0.19711416959762573,1.1493694370575829,2.067473717484753,1.446374349211645,0.0,0.0,0.0,0.0,0.0,-0.6680709597464229,1.446374349211645,3.3973761984152153,9.753555059432983e-05,-0.00020623207092285156,2.419388510286808,2.3849973678588867,0
2025-12-05 17:06:46.840006,0.0,0.0,1017.2,82.4,12.2,1.2,3785.6,309.3,25.8,0.00,0.00,0.00,0.00,0,0,0,0,0,0,0,0,0,0,0,0,0,0,0,0,0.0,0.08070902526378632,2.6147964000701904,0.19711416959762573,1.1493694370575829,2.067473717484753,1.446374349211645,0.0,0.0,0.0,0.0,0.0,-0.6680709597464229,1.446374349211645,3.3973761984152153,9.753555059432983e-05,-0.00020623207092285156,2.419388510286808,2.3849973678588867,0
2025-12-05 17:06:46.871191,0.0,0.0,1026.2,83.9,12.2,1.3,3785.6,309.3,25.8,0.00,0.00,0.00,0.00,0,0,0,0,0,0,0,0,0,0,0,0,0,0,0,0,0.0,0.08070902526378632,2.6147964000701904,0.19711416959762573,1.1493694370575829,2.067473717484753,1.446374349211645,0.0,0.0,0.0,0.0,0.0,-0.6680709597464229,1.446374349211645,3.3973761984152153,9.753555059432983e-05,-0.00020623207092285156,2.419388510286808,2.3849973678588867,0
2025-12-05 17:06:46.902404,0.0,0.0,1060.5,82.7,12.2,1.2,3785.7,309.3,25.8,0.00,0.00,0.00,0.00,0,0,0,0,0,0,0,0,0,0,0,0,0,0,0,0,0.0,0.08070902526378632,2.6147964000701904,0.19711416959762573,1.1493694370575829,2.067473717484753,1.446374349211645,0.0,0.0,0.0,0.0,0.0,-0.6680709597464229,1.446374349211645,3.3973761984152153,9.753555059432983e-05,-0.00020623207092285156,2.419388510286808,2.3849973678588867,0
2025-12-05 17:06:46.933561,0.0,0.0,1001.6,81.9,12.2,1.2,3785.8,309.3,25.8,0.00,0.00,0.00,0.00,0,0,0,0,0,0,0,0,0,0,0,0,0,0,0,0,0.0,0.08070902526378632,2.6147964000701904,0.19711416959762573,1.1493694370575829,2.067473717484753,1.446374349211645,0.0,0.0,0.0,0.0,0.0,-0.6680709597464229,1.446374349211645,3.3973761984152153,9.753555059432983e-05,-0.00020623207092285156,2.419388510286808,2.3849973678588867,0
2025-12-05 17:06:47.111911,0.0,0.0,1042.0,85.2,12.2,1.3,3785.8,309.3,25.8,0.00,0.00,0.00,0.00,0,0,0,0,0,0,0,0,0,0,0,0,0,0,0,0,0.0,0.08064739406108856,2.6149542331695557,0.1969418227672577,1.2002247647346687,2.046045161973967,1.4512579393386602,0.0,0.0,1.0,-0.02499999999999991,1.0,-0.6730003694900356,1.4512579393386602,3.3973092796710787,3.590434789657593e-05,-4.839897155761719e-05,2.419388510286808,2.3849973678588867,0
2025-12-05 17:06:47.151302,0.0,0.0,1004.0,82.1,12.2,1.2,3785.9,309.3,25.8,0.00,0.00,0.00,0.00,0,0,0,0,0,0,0,0,0,0,0,0,0,0,0,0,0.0,0.08064739406108856,2.6149542331695557,0.1969418227672577,1.2002247647346687,2.046045161973967,1.4512579393386602,0.0,0.0,1.0,-0.02499999999999991,1.0,-0.6730003694900356,1.4512579393386602,3.3973092796710787,3.590434789657593e-05,-4.839897155761719e-05,2.419388510286808,2.3849973678588867,0
2025-12-05 17:06:47.182679,0.0,0.0,1022.8,83.7,12.2,1.3,3785.9,309.3,25.8,0.00,0.00,0.00,0.00,0,0,0,0,0,0,0,0,0,0,0,0,0,0,0,0,0.0,0.08064739406108856,2.6149542331695557,0.1969418227672577,1.2002247647346687,2.046045161973967,1.4512579393386602,0.0,0.0,1.0,-0.02499999999999991,1.0,-0.6730003694900356,1.4512579393386602,3.3973092796710787,3.590434789657593e-05,-4.839897155761719e-05,2.419388510286808,2.3849973678588867,0
2025-12-05 17:06:47.213503,0.0,0.0,1005.9,82.3,12.2,1.2,3786.0,309.3,25.8,0.00,0.00,0.00,0.00,0,0,0,0,0,0,0,0,0,0,0,0,0,0,0,0,0.0,0.08059436827898026,2.614975929260254,0.19681578874588013,1.279894089324151,1.998166927073438,1.4483542141320065,0.0,0.0,1.0,-0.02499999999999991,1.0,-0.6701121496303883,1.4483542141320065,3.3973318102315786,-1.7121434211730957e-05,-2.6702880859375e-05,2.419388510286808,2.3849973678588867,0
2025-12-05 17:06:47.244880,0.0,0.0,1038.6,85.0,12.2,1.3,3786.1,309.3,25.8,0.00,0.00,0.00,0.00,0,0,0,0,0,0,0,0,0,0,0,0,0,0,0,0,0.0,0.08059436827898026,2.614975929260254,0.19681578874588013,1.279894089324151,1.998166927073438,1.4483542141320065,0.0,0.0,1.0,-0.02499999999999991,1.0,-0.6701121496303883,1.4483542141320065,3.3973318102315786,-1.7121434211730957e-05,-2.6702880859375e-05,2.419388510286808,2.3849973678588867,0
2025-12-05 17:06:47.333964,0.0,0.0,1043.1,85.3,12.2,1.3,3786.1,309.3,25.8,0.00,0.00,0.00,0.00,0,0,0,0,0,0,0,0,0,0,0,0,0,0,0,0,0.0,0.08064889907836914,2.6148746013641357,0.19693508744239807,1.2454690407349536,2.0110479016124496,1.4489520776691016,0.0,0.0,1.0,-0.02499999999999991,1.0,-0.6706775048133118,1.4489520776691016,3.3973641130659806,3.740936517715454e-05,-0.00012803077697753906,2.419388510286808,2.3849973678588867,0
2025-12-05 17:06:47.364666,0.0,0.0,1020.0,83.4,12.2,1.3,3786.2,309.3,25.8,0.00,0.00,0.00,0.00,0,0,0,0,0,0,0,0,0,0,0,0,0,0,0,0,0.0,0.08064889907836914,2.6148746013641357,0.19693508744239807,1.2454690407349536,2.0110479016124496,1.4489520776691016,0.0,0.0,1.0,-0.02499999999999991,1.0,-0.6706775048133118,1.4489520776691016,3.3973641130659806,3.740936517715454e-05,-0.00012803077697753906,2.419388510286808,2.3849973678588867,0
2025-12-05 17:06:47.395972,0.0,0.0,1042.2,85.3,12.2,1.3,3786.2,309.3,25.8,0.00,0.00,0.00,0.00,0,0,0,0,0,0,0,0,0,0,0,0,0,0,0,0,0.0,0.08064889907836914,2.6148746013641357,0.19693508744239807,1.2454690407349536,2.0110479016124496,1.4489520776691016,0.0,0.0,1.0,-0.02499999999999991,1.0,-0.6706775048133118,1.4489520776691016,3.3973641130659806,3.740936517715454e-05,-0.00012803077697753906,2.419388510286808,2.3849973678588867,0
2025-12-05 17:06:47.441439,0.0,0.0,995.7,81.4,12.2,1.2,3786.3,309.3,25.8,0.00,0.00,0.00,0.00,0,0,0,0,0,0,0,0,0,0,0,0,0,0,0,0,0.0,0.08076075464487076,2.614703416824341,0.19707709550857544,1.1926275254570355,2.029926899014399,1.4526978249052362,0.0,0.0,1.0,-0.02499999999999991,1.0,-0.6743642560312163,1.4526978249052362,3.3974046441329193,0.00014926493167877197,-0.00029921531677246094,2.419388510286808,2.3849973678588867,0
2025-12-05 17:06:47.538701,0.2,0.2,1028.4,84.1,12.2,1.3,3786.4,309.3,25.8,0.00,0.00,0.00,0.00,0,0,0,0,0,0,0,0,0,0,0,0,0,0,0,0,0.0,0.08087669312953949,2.6145777702331543,0.1973348706960678,1.0859746163596675,2.0787460079705564,1.4556884855044085,0.2,0.2,1.0,-0.02499999999999991,1.0,-0.6773046222405706,1.4556884855044085,3.397410306116955,0.00026520341634750366,-0.0004248619079589844,2.419388510286808,2.3849973678588867,0
2025-12-05 17:06:47.753964,0.2,0.2,7997.4,655.3,12.2,9.8,3786.8,309.4,25.8,0.00,0.00,0.00,0.00,0,0,0,0,0,0,0,0,0,0,0,0,0,0,0,0,0.0,0.08079452067613602,2.614668369293213,0.1972253918647766,1.111571917050946,2.069677235824065,1.4533686749223893,0.2,0.2,1.0,-0.02499999999999991,1.0,-0.6750207822568306,1.4533686749223893,3.397405206866103,0.00018303096294403076,-0.0003342628479003906,2.419388510286808,2.3849973678588867,0
2025-12-05 17:06:47.785231,0.2,0.2,14645.5,1066.7,12.2,18.0,3787.6,309.4,25.8,0.00,0.00,0.00,0.00,0,0,0,0,0,0,0,0,0,0,0,0,0,0,0,0,0.0,0.08079452067613602,2.614668369293213,0.1972253918647766,1.111571917050946,2.069677235824065,1.4533686749223893,0.2,0.2,1.0,-0.02499999999999991,1.0,-0.6750207822568306,1.4533686749223893,3.397405206866103,0.00018303096294403076,-0.0003342628479003906,2.419388510286808,2.3849973678588867,0
2025-12-05 17:06:47.815590,0.2,0.2,16959.0,1392.6,12.2,20.9,3788.6,309.5,25.8,0.00,0.00,0.00,0.00,0,0,0,0,0,0,0,0,0,0,0,0,0,0,0,0,0.0,0.08079452067613602,2.614668369293213,0.1972253918647766,1.111571917050946,2.069677235824065,1.4533686749223893,0.2,0.2,1.0,-0.02499999999999991,1.0,-0.6750207822568306,1.4533686749223893,3.397405206866103,0.00018303096294403076,-0.0003342628479003906,2.419388510286808,2.3849973678588867,0
2025-12-05 17:06:47.846937,0.2,0.2,18623.5,1480.0,12.2,23.0,3789.7,309.6,25.8,0.00,0.00,0.00,0.00,0,0,0,0,0,0,0,0,0,0,0,0,0,0,0,0,0.0,0.08070097863674164,2.614819288253784,0.1971387416124344,1.1540501982939708,2.0612740276547057,1.447257713954647,0.2,0.2,1.0,-0.02499999999999991,1.0,-0.6689607848239028,1.447257713954647,3.3973658593762615,8.94889235496521e-05,-0.00018334388732910156,2.419388510286808,2.3849973678588867,0
2025-12-05 17:06:47.878292,0.2,0.2,20130.1,1654.2,12.2,24.8,3790.8,309.7,25.8,0.00,0.00,0.00,0.00,0,0,0,0,0,0,0,0,0,0,0,0,0,0,0,0,0.0,0.08070097863674164,2.614819288253784,0.1971387416124344,1.1540501982939708,2.0612740276547057,1.447257713954647,0.2,0.2,1.0,-0.02499999999999991,1.0,-0.6689607848239028,1.447257713954647,3.3973658593762615,8.94889235496521e-05,-0.00018334388732910156,2.419388510286808,2.3849973678588867,0
2025-12-05 17:06:47.909742,0.2,0.2,20213.0,1752.7,12.2,24.9,3792.1,309.8,25.8,0.00,0.00,0.00,0.00,0,0,0,0,0,0,0,0,0,0,0,0,0,0,0,0,0.0,0.08070097863674164,2.614819288253784,0.1971387416124344,1.1540501982939708,2.0612740276547057,1.447257713954647,0.2,0.2,1.0,-0.02499999999999991,1.0,-0.6689607848239028,1.447257713954647,3.3973658593762615,8.94889235496521e-05,-0.00018334388732910156,2.419388510286808,2.3849973678588867,0
2025-12-05 17:06:47.947165,0.2,0.2,19356.3,1590.7,12.2,23.9,3793.2,309.9,25.8,0.00,0.00,0.00,0.00,0,0,0,0,0,0,0,0,0,0,0,0,0,0,0,0,0.0,0.08065369725227356,2.6149489879608154,0.1969604790210724,1.2011897530410165,2.0433495622942184,1.4536922280339653,0.2,0.2,1.0,-0.02499999999999991,1.0,-0.6754322561656532,1.4536922280339653,3.3973084732841428,4.2207539081573486e-05,-5.364418029785156e-05,2.419388510286808,2.3849973678588867,0
2025-12-05 17:06:47.978637,0.2,0.2,18423.2,1513.9,12.2,22.7,3794.3,310.0,25.8,0.00,0.00,0.00,0.00,0,0,0,0,0,0,0,0,0,0,0,0,0,0,0,0,0.0,0.08065369725227356,2.6149489879608154,0.1969604790210724,1.2011897530410165,2.0433495622942184,1.4536922280339653,0.2,0.2,1.0,-0.02499999999999991,1.0,-0.6754322561656532,1.4536922280339653,3.3973084732841428,4.2207539081573486e-05,-5.364418029785156e-05,2.419388510286808,2.3849973678588867,0
2025-12-05 17:06:48.049455,0.2,0.2,17577.9,1444.1,12.2,21.7,3795.3,310.1,25.8,0.00,0.00,0.00,0.00,0,0,0,0,0,0,0,0,0,0,0,0,0,0,0,0,0.0,0.08062519133090973,2.6149349212646484,0.1969960480928421,1.1902043889747118,2.0454030176968496,1.4470370978004787,0.2,0.2,1.0,-0.02499999999999991,1.0,-0.668780067920897,1.4470370978004787,3.397338648799302,1.370161771774292e-05,-6.771087646484375e-05,2.419388510286808,2.3849973678588867,0
2025-12-05 17:06:48.087419,0.2,0.2,17656.3,1450.3,12.2,21.8,3796.3,310.2,25.8,0.00,0.00,0.00,0.00,0,0,0,0,0,0,0,0,0,0,0,0,0,0,0,0,0.0,0.08062519133090973,2.6149349212646484,0.1969960480928421,1.1902043889747118,2.0454030176968496,1.4470370978004787,0.2,0.2,1.0,-0.02499999999999991,1.0,-0.668780067920897,1.4470370978004787,3.397338648799302,1.370161771774292e-05,-6.771087646484375e-05,2.419388510286808,2.3849973678588867,0
2025-12-05 17:06:48.179568,0.2,0.2,16473.1,1353.1,12.2,20.3,3797.3,310.2,25.8,0.00,0.00,0.00,0.00,0,0,0,0,0,0,0,0,0,0,0,0,0,0,0,0,0.0,0.08061422407627106,2.6149494647979736,0.19699349999427795,1.1914267309423487,2.042272664106265,1.4468310675137879,0.2,0.2,1.0,-0.02499999999999991,1.0,-0.6685793525186662,1.4468310675137879,3.397336248917604,2.734363079071045e-06,-5.316734313964844e-05,2.419388510286808,2.3849973678588867,0
2025-12-05 17:06:48.414934,0.2,0.2,15341.6,1259.9,12.2,18.9,3798.2,310.3,25.8,0.00,0.00,0.00,0.00,0,0,0,0,0,0,0,0,0,0,0,0,0,0,0,0,0.0,0.08071690797805786,2.614793300628662,0.19717177748680115,1.136782636534636,2.0654404252283793,1.4493134730371278,0.2,0.2,1.0,-0.02499999999999991,1.0,-0.6710078049390923,1.4493134730371278,3.397372761130159,0.00010541826486587524,-0.00020933151245117188,2.419388510286808,2.3849973678588867,0
2025-12-05 17:06:48.445436,0.2,0.2,14288.5,1173.0,12.2,17.6,3799.2,310.4,25.8,0.00,0.00,0.00,0.00,0,0,0,0,0,0,0,0,0,0,0,0,0,0,0,0,0.0,0.08083020150661469,2.6146697998046875,0.19724638760089874,1.112480376100668,2.069484787913306,1.4617551908264268,0.2,0.2,1.0,-0.02499999999999991,1.0,-0.6834002241714955,1.4617551908264268,3.3973787951752357,0.00021871179342269897,-0.00033283233642578125,2.419388510286808,2.3849973678588867,0
2025-12-05 17:06:48.475879,0.2,0.2,15645.1,1308.7,12.2,19.3,3800.1,310.5,25.8,0.00,0.00,0.00,0.00,0,0,0,0,0,0,0,0,0,0,0,0,0,0,0,0,0.0,0.08083020150661469,2.6146697998046875,0.19724638760089874,1.112480376100668,2.069484787913306,1.4617551908264268,0.2,0.2,1.0,-0.02499999999999991,1.0,-0.6834002241714955,1.4617551908264268,3.3973787951752357,0.00021871179342269897,-0.00033283233642578125,2.419388510286808,2.3849973678588867,0
2025-12-05 17:06:48.506250,0.2,0.2,14993.0,1231.2,12.2,18.5,3801.0,310.5,25.8,0.00,0.00,0.00,0.00,0,0,0,0,0,0,0,0,0,0,0,0,0,0,0,0,0.0,0.08083020150661469,2.6146697998046875,0.19724638760089874,1.112480376100668,2.069484787913306,1.4617551908264268,0.2,0.2,1.0,-0.02499999999999991,1.0,-0.6834002241714955,1.4617551908264268,3.3973787951752357,0.00021871179342269897,-0.00033283233642578125,2.419388510286808,2.3849973678588867,0
2025-12-05 17:06:48.536951,0.2,0.2,14929.9,1299.8,12.2,18.4,3801.9,310.6,25.8,0.00,0.00,0.00,0.00,0,0,0,0,0,0,0,0,0,0,0,0,0,0,0,0,0.0,0.080845408141613,2.614656448364258,0.19727110862731934,1.1082368520828123,2.068149683956473,1.462540165382471,0.2,0.2,1.0,-0.02499999999999991,1.0,-0.6841792577128791,1.462540165382471,3.3973773412206856,0.0002339184284210205,-0.00034618377685546875,2.419388510286808,2.3849973678588867,0
2025-12-05 17:06:48.568289,0.2,0.2,13646.4,1120.4,12.2,16.8,3802.7,310.7,25.8,0.00,0.00,0.00,0.00,0,0,0,0,0,0,0,0,0,0,0,0,0,0,0,0,0.0,0.080845408141613,2.614656448364258,0.19727110862731934,1.1082368520828123,2.068149683956473,1.462540165382471,0.2,0.2,1.0,-0.02499999999999991,1.0,-0.6841792577128791,1.462540165382471,3.3973773412206856,0.0002339184284210205,-0.00034618377685546875,2.419388510286808,2.3849973678588867,0
2025-12-05 17:06:48.599450,0.2,0.2,14573.7,1179.7,12.2,17.9,3803.6,310.7,25.8,0.00,0.00,0.00,0.00,0,0,0,0,0,0,0,0,0,0,0,0,0,0,0,0,0.0,0.080845408141613,2.614656448364258,0.19727110862731934,1.1082368520828123,2.068149683956473,1.462540165382471,0.2,0.2,1.0,-0.02499999999999991,1.0,-0.6841792577128791,1.462540165382471,3.3973773412206856,0.0002339184284210205,-0.00034618377685546875,2.419388510286808,2.3849973678588867,0
2025-12-05 17:06:48.670101,0.2,0.2,15328.9,1258.9,12.2,18.9,3804.4,310.8,25.8,0.00,0.00,0.00,0.00,0,0,0,0,0,0,0,0,0,0,0,0,0,0,0,0,0.0,0.08092202991247177,2.6145970821380615,0.19734418392181396,1.0895541059467715,2.07268018502017,1.4666585575312645,0.2,0.2,1.0,-0.02499999999999991,1.0,-0.6882693721215517,1.4666585575312645,3.3973644646853898,0.00031054019927978516,-0.0004055500030517578,2.419388510286808,2.3849973678588867,0
2025-12-05 17:06:48.701493,0.2,0.2,14635.8,1249.1,12.2,18.7,3805.3,310.9,25.8,0.00,0.00,0.00,0.00,0,0,0,0,0,0,0,0,0,0,0,0,0,0,0,0,0.0,0.08092202991247177,2.6145970821380615,0.19734418392181396,1.0895541059467715,2.07268018502017,1.4666585575312645,0.2,0.2,1.0,-0.02499999999999991,1.0,-0.6882693721215517,1.4666585575312645,3.3973644646853898,0.00031054019927978516,-0.0004055500030517578,2.419388510286808,2.3849973678588867,0
2025-12-05 17:06:48.766255,0.2,0.2,15165.8,1245.5,12.2,18.7,3806.3,311.0,25.8,0.00,0.00,0.00,0.00,0,0,0,0,0,0,0,0,0,0,0,0,0,0,0,0,0.0,0.08087161183357239,2.6146256923675537,0.19728805124759674,1.095979294071457,2.072331634276093,1.461022025179684,0.2,0.2,1.0,-0.02499999999999991,1.0,-0.6826492559479418,1.461022025179684,3.397380276911266,0.0002601221203804016,-0.0003769397735595703,2.419388510286808,2.3849973678588867,0
2025-12-05 17:06:48.968606,0.2,0.2,15521.3,1275.0,12.2,19.1,3807.2,311.0,25.8,0.00,0.00,0.00,0.00,0,0,0,0,0,0,0,0,0,0,0,0,0,0,0,0,0.0,0.08064670860767365,2.6148853302001953,0.1970873922109604,1.1715523390585112,2.052859682450024,1.4435674218328334,0.2,0.2,1.0,-0.02499999999999991,1.0,-0.6652955505191882,1.4435674218328334,3.3973581407713134,3.5218894481658936e-05,-0.00011730194091796875,2.419388510286808,2.3849973678588867,0
2025-12-05 17:06:48.999265,0.2,0.2,17872.9,1469.0,12.2,22.0,3808.2,311.1,25.8,0.00,0.00,0.00,0.00,0,0,0,0,0,0,0,0,0,0,0,0,0,0,0,0,0.0,0.08064670860767365,2.6148853302001953,0.1970873922109604,1.1715523390585112,2.052859682450024,1.4435674218328334,0.2,0.2,1.0,-0.02499999999999991,1.0,-0.6652955505191882,1.4435674218328334,3.3973581407713134,3.5218894481658936e-05,-0.00011730194091796875,2.419388510286808,2.3849973678588867,0
2025-12-05 17:06:49.029869,0.2,0.2,17980.3,1477.7,12.2,22.2,3809.2,311.2,25.8,0.00,0.00,0.00,0.00,0,0,0,0,0,0,0,0,0,0,0,0,0,0,0,0,0.0,0.08064670860767365,2.6148853302001953,0.1970873922109604,1.1715523390585112,2.052859682450024,1.4435674218328334,0.2,0.2,1.0,-0.02499999999999991,1.0,-0.6652955505191882,1.4435674218328334,3.3973581407713134,3.5218894481658936e-05,-0.00011730194091796875,2.419388510286808,2.3849973678588867,0
2025-12-05 17:06:49.060513,0.2,0.2,16333.3,1342.0,12.2,20.1,3810.2,311.3,25.8,0.00,0.00,0.00,0.00,0,0,0,0,0,0,0,0,0,0,0,0,0,0,0,0,0.0,0.08044178783893585,2.614792823791504,0.19724243879318237,1.1264783624365866,2.0597274949076105,1.4048084384158503,0.2,0.2,1.0,-0.02499999999999991,1.0,-0.62655952122028,1.4048084384158503,3.3975690155569396,-0.00016970187425613403,-0.000209808349609375,2.419388510286808,2.3849973678588867,0
2025-12-05 17:06:49.091023,0.2,0.2,15923.2,1308.2,12.2,19.6,3811.2,311.4,25.8,0.00,0.00,0.00,0.00,0,0,0,0,0,0,0,0,0,0,0,0,0,0,0,0,0.0,0.08044178783893585,2.614792823791504,0.19724243879318237,1.1264783624365866,2.0597274949076105,1.4048084384158503,0.2,0.2,1.0,-0.02499999999999991,1.0,-0.62655952122028,1.4048084384158503,3.3975690155569396,-0.00016970187425613403,-0.000209808349609375,2.419388510286808,2.3849973678588867,0
2025-12-05 17:06:49.121620,0.2,0.2,15298.9,1256.6,12.2,18.8,3812.1,311.4,25.8,0.00,0.00,0.00,0.00,0,0,0,0,0,0,0,0,0,0,0,0,0,0,0,0,0.0,0.08044178783893585,2.614792823791504,0.19724243879318237,1.1264783624365866,2.0597274949076105,1.4048084384158503,0.2,0.2,1.0,-0.02499999999999991,1.0,-0.62655952122028,1.4048084384158503,3.3975690155569396,-0.00016970187425613403,-0.000209808349609375,2.419388510286808,2.3849973678588867,0
2025-12-05 17:06:49.176979,0.2,0.2,15160.9,1245.3,12.2,18.7,3813.0,311.5,25.8,0.00,0.00,0.00,0.00,0,0,0,0,0,0,0,0,0,0,0,0,0,0,0,0,0.0,0.08047141879796982,2.6147985458374023,0.19723938405513763,1.1280191157005581,2.0645656522977966,1.409269399157596,0.2,0.2,1.0,-0.02499999999999991,1.0,-0.63101555869827,1.409269399157596,3.3975438970222123,-0.00014007091522216797,-0.0002040863037109375,2.419388510286808,2.3849973678588867,0
2025-12-05 17:06:49.231688,0.2,0.2,15292.7,1256.1,12.2,18.8,3813.9,311.6,25.8,0.00,0.00,0.00,0.00,0,0,0,0,0,0,0,0,0,0,0,0,0,0,0,0,0.0,0.08047141879796982,2.6147985458374023,0.19723938405513763,1.1280191157005581,2.0645656522977966,1.409269399157596,0.2,0.2,1.0,-0.02499999999999991,1.0,-0.63101555869827,1.409269399157596,3.3975438970222123,-0.00014007091522216797,-0.0002040863037109375,2.419388510286808,2.3849973678588867,0
2025-12-05 17:06:49.279782,0.2,0.2,15816.3,1299.5,12.2,19.5,3814.8,311.7,25.8,0.00,0.00,0.00,0.00,0,0,0,0,0,0,0,0,0,0,0,0,0,0,0,0,0.0,0.08064766228199005,2.614971876144409,0.19698181748390198,1.1938906430656777,2.0438885401737075,1.4546916928192708,0.2,0.2,1.0,-0.02499999999999991,1.0,-0.6764377658461361,1.4546916928192708,3.3972967026157312,3.6172568798065186e-05,-3.075599670410156e-05,2.419388510286808,2.3849973678588867,0
2025-12-05 17:06:49.330531,0.2,0.2,16980.4,1395.4,12.2,20.9,3815.7,311.7,25.8,0.00,0.00,0.00,0.00,0,0,0,0,0,0,0,0,0,0,0,0,0,0,0,0,0.0,0.08064766228199005,2.614971876144409,0.19698181748390198,1.1938906430656777,2.0438885401737075,1.4546916928192708,0.2,0.2,1.0,-0.02499999999999991,1.0,-0.6764377658461361,1.4546916928192708,3.3972967026157312,3.6172568798065186e-05,-3.075599670410156e-05,2.419388510286808,2.3849973678588867,0
2025-12-05 17:06:49.517355,0.2,0.2,16650.1,1368.4,12.2,20.5,3816.7,311.8,25.8,0.00,0.00,0.00,0.00,0,0,0,0,0,0,0,0,0,0,0,0,0,0,0,0,0.0,0.0806349515914917,2.61491322517395,0.19705204665660858,1.1852815831808055,2.045485159271827,1.4439870366954182,0.2,0.2,1.0,-0.02499999999999991,1.0,-0.6657234420749952,1.4439870366954182,3.3973469297248453,2.3461878299713135e-05,-8.940696716308594e-05,2.419388510286808,2.3849973678588867,0
2025-12-05 17:06:49.574745,0.2,0.2,16133.7,1325.7,12.2,19.9,3817.7,311.9,25.8,0.00,0.00,0.00,0.00,0,0,0,0,0,0,0,0,0,0,0,0,0,0,0,0,0.0,0.0806390792131424,2.6148784160614014,0.19708342850208282,1.1779074469112019,2.04897233785544,1.4414748623281781,0.2,0.2,1.0,-0.02499999999999991,1.0,-0.6632031183084622,1.4414748623281781,3.39736842794543,2.7589499950408936e-05,-0.00012421607971191406,2.419388510286808,2.3849973678588867,0
2025-12-05 17:06:49.606046,0.2,0.2,15591.0,1280.9,12.2,19.2,3818.6,312.0,25.8,0.00,0.00,0.00,0.00,0,0,0,0,0,0,0,0,0,0,0,0,0,0,0,0,0.0,0.0806390792131424,2.6148784160614014,0.19708342850208282,1.1779074469112019,2.04897233785544,1.4414748623281781,0.2,0.2,1.0,-0.02499999999999991,1.0,-0.6632031183084622,1.4414748623281781,3.39736842794543,2.7589499950408936e-05,-0.00012421607971191406,2.419388510286808,2.3849973678588867,0
2025-12-05 17:06:49.636895,0.2,0.2,15514.0,1274.7,12.2,19.1,3819.5,312.1,25.8,0.00,0.00,0.00,0.00,0,0,0,0,0,0,0,0,0,0,0,0,0,0,0,0,0.0,0.0806390792131424,2.6148784160614014,0.19708342850208282,1.1779074469112019,2.04897233785544,1.4414748623281781,0.2,0.2,1.0,-0.02499999999999991,1.0,-0.6632031183084622,1.4414748623281781,3.39736842794543,2.7589499950408936e-05,-0.00012421607971191406,2.419388510286808,2.3849973678588867,0
2025-12-05 17:06:49.668331,0.2,0.2,15218.7,1250.5,12.2,18.8,3820.4,312.1,25.8,0.00,0.00,0.00,0.00,0,0,0,0,0,0,0,0,0,0,0,0,0,0,0,0,0.0,0.0806390792131424,2.6148784160614014,0.19708342850208282,1.1779074469112019,2.04897233785544,1.4414748623281781,0.2,0.2,1.0,-0.02499999999999991,1.0,-0.6632031183084622,1.4414748623281781,3.39736842794543,2.7589499950408936e-05,-0.00012421607971191406,2.419388510286808,2.3849973678588867,0
