Timestamp,forward_vel_cmd,steering_vel_cmd,power_mW,current_mA,busVoltage_V,shuntVoltage_mV,energy,charge,dieTemp,Left_Stick_X,Left_Stick_Y,Right_Stick_X,Right_Stick_Y,Button_0,Button_1,Button_2,Button_3,Button_4,Button_5,Button_6,Button_7,Button_8,Button_9,Button_10,Button_11,Button_12,Button_13,Button_14,Button_15,mocap_velocity,mocap_x,mocap_y,mocap_z,mocap_roll,mocap_pitch,mocap_yaw_raw,forward_vel_cmd,steering_vel_cmd,left_wheel_vel,right_wheel_vel,ppo_control_active,heading_error_rad,current_heading_rad,distance_to_target,relative_x,relative_y,target_relative_x,target_relative_y,current_waypoint_idx
2025-12-05 17:53:13.967774,0.0,0.0,1028.1,85.2,12.1,1.3,6904.7,566.5,26.2,0.00,0.00,0.00,0.00,0,0,0,0,0,0,0,0,0,0,0,0,0,0,0,0,0.0,0.21518981456756592,1.2021684646606445,0.7125715613365173,6.066545039007343,2.0839545352932753,4.244468878144373,0.0,0.0,0.0,0.0,0.0,3.0679109001284717,-2.038716429035214,4.432141914951943,-0.00019106268882751465,-8.463859558105469e-06,2.2846191227436066,3.7978230714797974,0
2025-12-05 17:53:13.999076,0.0,0.0,1021.8,84.7,12.1,1.3,6904.8,566.5,26.2,0.00,0.00,0.00,0.00,0,0,0,0,0,0,0,0,0,0,0,0,0,0,0,0,0.0,0.21518981456756592,1.2021684646606445,0.7125715613365173,6.066545039007343,2.0839545352932753,4.244468878144373,0.0,0.0,0.0,0.0,0.0,3.0679109001284717,-2.038716429035214,4.432141914951943,-0.00019106268882751465,-8.463859558105469e-06,2.2846191227436066,3.7978230714797974,0
2025-12-05 17:53:14.030168,0.0,0.0,1029.4,84.6,12.1,1.3,6904.8,566.5,26.2,0.00,0.00,0.00,0.00,0,0,0,0,0,0,0,0,0,0,0,0,0,0,0,0,0.0,0.21522256731987,1.2021477222442627,0.7125999331474304,6.063315925539396,2.089783651235283,4.2334448676526915,0.0,0.0,0.0,0.0,0.0,3.078943655423533,-2.049740439526895,4.432142804619324,-0.0001583099365234375,-2.9206275939941406e-05,2.2846191227436066,3.7978230714797974,0
2025-12-05 17:53:14.060562,0.0,0.0,1022.2,84.7,12.1,1.3,6904.9,566.5,26.2,0.00,0.00,0.00,0.00,0,0,0,0,0,0,0,0,0,0,0,0,0,0,0,0,0.0,0.21522256731987,1.2021477222442627,0.7125999331474304,6.063315925539396,2.089783651235283,4.2334448676526915,0.0,0.0,0.0,0.0,0.0,3.078943655423533,-2.049740439526895,4.432142804619324,-0.0001583099365234375,-2.9206275939941406e-05,2.2846191227436066,3.7978230714797974,0
2025-12-05 17:53:14.092372,0.0,0.0,1022.0,84.7,12.1,1.3,6904.9,566.5,26.2,0.00,0.00,0.00,0.00,0,0,0,0,0,0,0,0,0,0,0,0,0,0,0,0,0.0,0.21522256731987,1.2021477222442627,0.7125999331474304,6.063315925539396,2.089783651235283,4.2334448676526915,0.0,0.0,0.0,0.0,0.0,3.078943655423533,-2.049740439526895,4.432142804619324,-0.0001583099365234375,-2.9206275939941406e-05,2.2846191227436066,3.7978230714797974,0
2025-12-05 17:53:14.123012,0.0,0.0,1026.4,85.1,12.1,1.3,6905.0,566.5,26.2,0.00,0.00,0.00,0.00,0,0,0,0,0,0,0,0,0,0,0,0,0,0,0,0,0.0,0.21534667909145355,1.2021994590759277,0.7124407291412354,6.0745229853859986,2.0880650059466355,4.235781499002455,0.0,0.0,0.0,0.0,0.0,3.076625002165803,-2.047403808177132,4.43203449280143,-3.419816493988037e-05,2.2530555725097656e-05,2.2846191227436066,3.7978230714797974,0
2025-12-05 17:53:14.154276,0.0,0.0,1020.5,84.6,12.1,1.3,6905.1,566.5,26.2,0.00,0.00,0.00,0.00,0,0,0,0,0,0,0,0,0,0,0,0,0,0,0,0,0.0,0.21534667909145355,1.2021994590759277,0.7124407291412354,6.0745229853859986,2.0880650059466355,4.235781499002455,0.0,0.0,0.0,0.0,0.0,3.076625002165803,-2.047403808177132,4.43203449280143,-3.419816493988037e-05,2.2530555725097656e-05,2.2846191227436066,3.7978230714797974,0
2025-12-05 17:53:14.185559,0.0,0.0,1023.3,84.6,12.1,1.3,6905.1,566.5,26.2,0.00,0.00,0.00,0.00,0,0,0,0,0,0,0,0,0,0,0,0,0,0,0,0,0.0,0.21534667909145355,1.2021994590759277,0.7124407291412354,6.0745229853859986,2.0880650059466355,4.235781499002455,0.0,0.0,0.0,0.0,0.0,3.076625002165803,-2.047403808177132,4.43203449280143,-3.419816493988037e-05,2.2530555725097656e-05,2.2846191227436066,3.7978230714797974,0
2025-12-05 17:53:14.216970,0.0,0.0,1021.0,84.6,12.1,1.3,6905.2,566.5,26.2,0.00,0.00,0.00,0.00,0,0,0,0,0,0,0,0,0,0,0,0,0,0,0,0,0.0,0.21534667909145355,1.2021994590759277,0.7124407291412354,6.0745229853859986,2.0880650059466355,4.235781499002455,0.0,0.0,0.0,0.0,0.0,3.076625002165803,-2.047403808177132,4.43203449280143,-3.419816493988037e-05,2.2530555725097656e-05,2.2846191227436066,3.7978230714797974,0
2025-12-05 17:53:14.248336,0.0,0.0,1021.2,84.6,12.1,1.3,6905.2,566.5,26.2,0.00,0.00,0.00,0.00,0,0,0,0,0,0,0,0,0,0,0,0,0,0,0,0,0.0,0.2151869833469391,1.2021574974060059,0.7125900387763977,6.057434409363909,2.08817706090752,4.241309154422636,0.0,0.0,0.0,0.0,0.0,3.0710713520953243,-2.041876152756951,4.43215277213869,-0.0001938939094543457,-1.9431114196777344e-05,2.2846191227436066,3.7978230714797974,0
2025-12-05 17:53:14.278956,0.0,0.0,1025.4,85.0,12.1,1.3,6905.3,566.5,26.2,0.00,0.00,0.00,0.00,0,0,0,0,0,0,0,0,0,0,0,0,0,0,0,0,0.0,0.2151869833469391,1.2021574974060059,0.7125900387763977,6.057434409363909,2.08817706090752,4.241309154422636,0.0,0.0,0.0,0.0,0.0,3.0710713520953243,-2.041876152756951,4.43215277213869,-0.0001938939094543457,-1.9431114196777344e-05,2.2846191227436066,3.7978230714797974,0
2025-12-05 17:53:14.310202,0.0,0.0,1022.4,84.7,12.1,1.3,6905.4,566.5,26.2,0.00,0.00,0.00,0.00,0,0,0,0,0,0,0,0,0,0,0,0,0,0,0,0,0.0,0.2151869833469391,1.2021574974060059,0.7125900387763977,6.057434409363909,2.08817706090752,4.241309154422636,0.0,0.0,0.0,0.0,0.0,3.0710713520953243,-2.041876152756951,4.43215277213869,-0.0001938939094543457,-1.9431114196777344e-05,2.2846191227436066,3.7978230714797974,0
2025-12-05 17:53:14.341707,0.0,0.0,1020.8,84.6,12.1,1.3,6905.4,566.6,26.2,0.00,0.00,0.00,0.00,0,0,0,0,0,0,0,0,0,0,0,0,0,0,0,0,0.0,0.21521899104118347,1.202166199684143,0.7125818729400635,6.069674958629705,2.0839644887184905,4.239046469616978,0.0,0.0,0.0,0.0,0.0,3.0733392129224484,-2.044138837562608,4.432128815109106,-0.00016188621520996094,-1.0728836059570312e-05,2.2846191227436066,3.7978230714797974,0
2025-12-05 17:53:14.373197,0.0,0.0,1024.2,84.9,12.1,1.3,6905.5,566.6,26.2,0.00,0.00,0.00,0.00,0,0,0,0,0,0,0,0,0,0,0,0,0,0,0,0,0.0,0.21521899104118347,1.202166199684143,0.7125818729400635,6.069674958629705,2.0839644887184905,4.239046469616978,0.0,0.0,0.0,0.0,0.0,3.0733392129224484,-2.044138837562608,4.432128815109106,-0.00016188621520996094,-1.0728836059570312e-05,2.2846191227436066,3.7978230714797974,0
2025-12-05 17:53:14.404461,0.0,0.0,1020.9,84.9,12.1,1.3,6905.5,566.6,26.2,0.00,0.00,0.00,0.00,0,0,0,0,0,0,0,0,0,0,0,0,0,0,0,0,0.0,0.21521899104118347,1.202166199684143,0.7125818729400635,6.069674958629705,2.0839644887184905,4.239046469616978,0.0,0.0,0.0,0.0,0.0,3.0733392129224484,-2.044138837562608,4.432128815109106,-0.00016188621520996094,-1.0728836059570312e-05,2.2846191227436066,3.7978230714797974,0
2025-12-05 17:53:14.435862,0.0,0.0,1020.8,84.6,12.1,1.3,6905.6,566.6,26.2,0.00,0.00,0.00,0.00,0,0,0,0,0,0,0,0,0,0,0,0,0,0,0,0,0.0,0.21520765125751495,1.202141284942627,0.7125999927520752,6.063755042601994,2.089563680300549,4.234992051744923,0.0,0.0,0.0,0.0,0.0,3.0773943362615537,-2.0481932554346636,4.432156009935733,-0.000173225998878479,-3.5643577575683594e-05,2.2846191227436066,3.7978230714797974,0
2025-12-05 17:53:14.466834,0.0,0.0,1031.9,85.2,12.1,1.3,6905.6,566.6,26.2,0.00,0.00,0.00,0.00,0,0,0,0,0,0,0,0,0,0,0,0,0,0,0,0,0.0,0.21520765125751495,1.202141284942627,0.7125999927520752,6.063755042601994,2.089563680300549,4.234992051744923,0.0,0.0,0.0,0.0,0.0,3.0773943362615537,-2.0481932554346636,4.432156009935733,-0.000173225998878479,-3.5643577575683594e-05,2.2846191227436066,3.7978230714797974,0
2025-12-05 17:53:14.497669,0.0,0.0,1024.0,84.9,12.1,1.3,6905.7,566.6,26.2,0.00,0.00,0.00,0.00,0,0,0,0,0,0,0,0,0,0,0,0,0,0,0,0,0.0,0.21520765125751495,1.202141284942627,0.7125999927520752,6.063755042601994,2.089563680300549,4.234992051744923,0.0,0.0,0.0,0.0,0.0,3.0773943362615537,-2.0481932554346636,4.432156009935733,-0.000173225998878479,-3.5643577575683594e-05,2.2846191227436066,3.7978230714797974,0
2025-12-05 17:53:14.528496,0.0,0.0,1018.1,84.4,12.1,1.3,6905.8,566.6,26.2,0.00,0.00,0.00,0.00,0,0,0,0,0,0,0,0,0,0,0,0,0,0,0,0,0.0,0.21520765125751495,1.202141284942627,0.7125999927520752,6.063755042601994,2.089563680300549,4.234992051744923,0.0,0.0,0.0,0.0,0.0,3.0773943362615537,-2.0481932554346636,4.432156009935733,-0.000173225998878479,-3.5643577575683594e-05,2.2846191227436066,3.7978230714797974,0
2025-12-05 17:53:14.559821,0.0,0.0,1027.3,85.1,12.1,1.3,6905.8,566.6,26.2,0.00,0.00,0.00,0.00,0,0,0,0,0,0,0,0,0,0,0,0,0,0,0,0,0.0,0.2153714895248413,1.2022039890289307,0.7124730348587036,6.077273998624168,2.0856711531604697,4.233256573244956,0.0,0.0,0.0,0.0,0.0,3.07915419795948,-2.0499287339346304,4.432017821695182,-9.387731552124023e-06,2.7060508728027344e-05,2.2846191227436066,3.7978230714797974,0
2025-12-05 17:53:14.590943,0.0,0.0,1023.0,84.8,12.1,1.3,6905.9,566.6,26.2,0.00,0.00,0.00,0.00,0,0,0,0,0,0,0,0,0,0,0,0,0,0,0,0,0.0,0.2153714895248413,1.2022039890289307,0.7124730348587036,6.077273998624168,2.0856711531604697,4.233256573244956,0.0,0.0,0.0,0.0,0.0,3.07915419795948,-2.0499287339346304,4.432017821695182,-9.387731552124023e-06,2.7060508728027344e-05,2.2846191227436066,3.7978230714797974,0
2025-12-05 17:53:14.622088,0.0,0.0,1028.9,85.3,12.1,1.3,6905.9,566.6,26.2,0.00,0.00,0.00,0.00,0,0,0,0,0,0,0,0,0,0,0,0,0,0,0,0,0.0,0.2153714895248413,1.2022039890289307,0.7124730348587036,6.077273998624168,2.0856711531604697,4.233256573244956,0.0,0.0,0.0,0.0,0.0,3.07915419795948,-2.0499287339346304,4.432017821695182,-9.387731552124023e-06,2.7060508728027344e-05,2.2846191227436066,3.7978230714797974,0
2025-12-05 17:53:14.653979,0.0,0.0,1022.9,84.8,12.1,1.3,6906.0,566.6,26.2,0.00,0.00,0.00,0.00,0,0,0,0,0,0,0,0,0,0,0,0,0,0,0,0,0.0,0.21538172662258148,1.2021970748901367,0.7124767899513245,6.075949180200446,2.0876128565604226,4.230676234904065,0.0,0.0,0.0,0.0,0.0,3.08173731974722,-2.0525090722755217,4.4320184693910125,8.493661880493164e-07,2.014636993408203e-05,2.2846191227436066,3.7978230714797974,0
2025-12-05 17:53:14.684870,0.0,0.0,1026.7,85.1,12.1,1.3,6906.1,566.6,26.2,0.00,0.00,0.00,0.00,0,0,0,0,0,0,0,0,0,0,0,0,0,0,0,0,0.0,0.21538172662258148,1.2021970748901367,0.7124767899513245,6.075949180200446,2.0876128565604226,4.230676234904065,0.0,0.0,0.0,0.0,0.0,3.08173731974722,-2.0525090722755217,4.4320184693910125,8.493661880493164e-07,2.014636993408203e-05,2.2846191227436066,3.7978230714797974,0
2025-12-05 17:53:14.716083,0.0,0.0,1023.6,84.8,12.1,1.3,6906.1,566.6,26.2,0.00,0.00,0.00,0.00,0,0,0,0,0,0,0,0,0,0,0,0,0,0,0,0,0.0,0.21538172662258148,1.2021970748901367,0.7124767899513245,6.075949180200446,2.0876128565604226,4.230676234904065,0.0,0.0,0.0,0.0,0.0,3.08173731974722,-2.0525090722755217,4.4320184693910125,8.493661880493164e-07,2.014636993408203e-05,2.2846191227436066,3.7978230714797974,0
2025-12-05 17:53:14.747577,0.0,0.0,1023.7,84.8,12.1,1.3,6906.2,566.6,26.2,0.00,0.00,0.00,0.00,0,0,0,0,0,0,0,0,0,0,0,0,0,0,0,0,0.0,0.2153874933719635,1.202141284942627,0.7124794721603394,6.058060838391885,2.09893174424194,4.215509025384035,0.0,0.0,0.0,0.0,0.0,3.0969121329843246,-2.0676762817955514,4.43206330335866,6.616115570068359e-06,-3.5643577575683594e-05,2.2846191227436066,3.7978230714797974,0
2025-12-05 17:53:14.778490,0.0,0.0,1030.5,85.4,12.1,1.3,6906.2,566.6,26.2,0.00,0.00,0.00,0.00,0,0,0,0,0,0,0,0,0,0,0,0,0,0,0,0,0.0,0.2153874933719635,1.202141284942627,0.7124794721603394,6.058060838391885,2.09893174424194,4.215509025384035,0.0,0.0,0.0,0.0,0.0,3.0969121329843246,-2.0676762817955514,4.43206330335866,6.616115570068359e-06,-3.5643577575683594e-05,2.2846191227436066,3.7978230714797974,0
2025-12-05 17:53:14.809637,0.0,0.0,1024.4,84.9,12.1,1.3,6906.3,566.6,26.2,0.00,0.00,0.00,0.00,0,0,0,0,0,0,0,0,0,0,0,0,0,0,0,0,0.0,0.2153874933719635,1.202141284942627,0.7124794721603394,6.058060838391885,2.09893174424194,4.215509025384035,0.0,0.0,0.0,0.0,0.0,3.0969121329843246,-2.0676762817955514,4.43206330335866,6.616115570068359e-06,-3.5643577575683594e-05,2.2846191227436066,3.7978230714797974,0
2025-12-05 17:53:14.840492,0.0,0.0,1025.9,85.0,12.1,1.3,6906.4,566.6,26.2,0.00,0.00,0.00,0.00,0,0,0,0,0,0,0,0,0,0,0,0,0,0,0,0,0.0,0.21518605947494507,1.2021958827972412,0.7125548124313354,6.0699532305549955,2.0782865007288907,4.2492678970182975,0.0,0.0,0.0,0.0,0.0,3.063107966202461,-2.033917410161289,4.432120356608094,-0.00019481778144836426,1.895427703857422e-05,2.2846191227436066,3.7978230714797974,0
2025-12-05 17:53:14.871701,0.0,0.0,1027.6,85.2,12.1,1.3,6906.4,566.6,26.2,0.00,0.00,0.00,0.00,0,0,0,0,0,0,0,0,0,0,0,0,0,0,0,0,0.0,0.21518605947494507,1.2021958827972412,0.7125548124313354,6.0699532305549955,2.0782865007288907,4.2492678970182975,0.0,0.0,0.0,0.0,0.0,3.063107966202461,-2.033917410161289,4.432120356608094,-0.00019481778144836426,1.895427703857422e-05,2.2846191227436066,3.7978230714797974,0
2025-12-05 17:53:14.902823,0.0,0.0,1014.9,84.1,12.1,1.3,6906.5,566.6,26.2,0.00,0.00,0.00,0.00,0,0,0,0,0,0,0,0,0,0,0,0,0,0,0,0,0.0,0.21518605947494507,1.2021958827972412,0.7125548124313354,6.0699532305549955,2.0782865007288907,4.2492678970182975,0.0,0.0,0.0,0.0,0.0,3.063107966202461,-2.033917410161289,4.432120356608094,-0.00019481778144836426,1.895427703857422e-05,2.2846191227436066,3.7978230714797974,0
2025-12-05 17:53:14.933000,0.0,0.0,1015.7,84.2,12.1,1.3,6906.5,566.6,26.2,0.00,0.00,0.00,0.00,0,0,0,0,0,0,0,0,0,0,0,0,0,0,0,0,0.0,0.21518605947494507,1.2021958827972412,0.7125548124313354,6.0699532305549955,2.0782865007288907,4.2492678970182975,0.0,0.0,0.0,0.0,0.0,3.063107966202461,-2.033917410161289,4.432120356608094,-0.00019481778144836426,1.895427703857422e-05,2.2846191227436066,3.7978230714797974,0
2025-12-05 17:53:14.964077,0.0,0.0,1018.8,84.4,12.1,1.3,6906.6,566.7,26.2,0.00,0.00,0.00,0.00,0,0,0,0,0,0,0,0,0,0,0,0,0,0,0,0,0.0,0.21521852910518646,1.202168583869934,0.712579071521759,6.0676179359685865,2.0853468724703164,4.240275499454553,0.0,0.0,0.0,0.0,0.0,3.0721098164697587,-2.042909807725034,4.4321270102614125,-0.00016234815120697021,-8.344650268554688e-06,2.2846191227436066,3.7978230714797974,0
2025-12-05 17:53:14.995208,0.0,0.0,1014.2,84.1,12.1,1.3,6906.7,566.7,26.2,0.00,0.00,0.00,0.00,0,0,0,0,0,0,0,0,0,0,0,0,0,0,0,0,0.0,0.21521852910518646,1.202168583869934,0.712579071521759,6.0676179359685865,2.0853468724703164,4.240275499454553,0.0,0.0,0.0,0.0,0.0,3.0721098164697587,-2.042909807725034,4.4321270102614125,-0.00016234815120697021,-8.344650268554688e-06,2.2846191227436066,3.7978230714797974,0
2025-12-05 17:53:15.027019,0.0,0.0,1028.8,85.3,12.1,1.3,6906.7,566.7,26.2,0.00,0.00,0.00,0.00,0,0,0,0,0,0,0,0,0,0,0,0,0,0,0,0,0.0,0.21521852910518646,1.202168583869934,0.712579071521759,6.0676179359685865,2.0853468724703164,4.240275499454553,0.0,0.0,0.0,0.0,0.0,3.0721098164697587,-2.042909807725034,4.4321270102614125,-0.00016234815120697021,-8.344650268554688e-06,2.2846191227436066,3.7978230714797974,0
2025-12-05 17:53:15.058343,0.0,0.0,1018.8,84.4,12.1,1.3,6906.8,566.7,26.2,0.00,0.00,0.00,0.00,0,0,0,0,0,0,0,0,0,0,0,0,0,0,0,0,0.0,0.2153819054365158,1.2021621465682983,0.7124861478805542,6.062092762539912,2.0993796549281,4.220239091761682,0.0,0.0,0.0,0.0,0.0,3.092178559886516,-2.0629462154179046,4.432048307381769,1.0281801223754883e-06,-1.4781951904296875e-05,2.2846191227436066,3.7978230714797974,0
2025-12-05 17:53:15.089256,0.0,0.0,1022.0,84.7,12.1,1.3,6906.8,566.7,26.2,0.00,0.00,0.00,0.00,0,0,0,0,0,0,0,0,0,0,0,0,0,0,0,0,0.0,0.2153819054365158,1.2021621465682983,0.7124861478805542,6.062092762539912,2.0993796549281,4.220239091761682,0.0,0.0,0.0,0.0,0.0,3.092178559886516,-2.0629462154179046,4.432048307381769,1.0281801223754883e-06,-1.4781951904296875e-05,2.2846191227436066,3.7978230714797974,0
2025-12-05 17:53:15.120617,0.0,0.0,1020.9,84.6,12.1,1.3,6906.9,566.7,26.2,0.00,0.00,0.00,0.00,0,0,0,0,0,0,0,0,0,0,0,0,0,0,0,0,0.0,0.2153819054365158,1.2021621465682983,0.7124861478805542,6.062092762539912,2.0993796549281,4.220239091761682,0.0,0.0,0.0,0.0,0.0,3.092178559886516,-2.0629462154179046,4.432048307381769,1.0281801223754883e-06,-1.4781951904296875e-05,2.2846191227436066,3.7978230714797974,0
2025-12-05 17:53:15.152119,0.0,0.0,1022.9,84.8,12.1,1.3,6907.0,566.7,26.2,0.00,0.00,0.00,0.00,0,0,0,0,0,0,0,0,0,0,0,0,0,0,0,0,0.0,0.2153819054365158,1.2021621465682983,0.7124861478805542,6.062092762539912,2.0993796549281,4.220239091761682,0.0,0.0,0.0,0.0,0.0,3.092178559886516,-2.0629462154179046,4.432048307381769,1.0281801223754883e-06,-1.4781951904296875e-05,2.2846191227436066,3.7978230714797974,0
2025-12-05 17:53:15.183515,0.0,0.0,1027.7,84.6,12.1,1.3,6907.0,566.7,26.2,0.00,0.00,0.00,0.00,0,0,0,0,0,0,0,0,0,0,0,0,0,0,0,0,0.0,0.21539059281349182,1.2021574974060059,0.7124858498573303,6.05501036912268,2.098196257965535,4.218247292034787,0.0,0.0,0.0,0.0,0.0,3.0941725799819078,-2.0649380151447994,4.432047813134973,9.715557098388672e-06,-1.9431114196777344e-05,2.2846191227436066,3.7978230714797974,0
2025-12-05 17:53:15.214888,0.0,0.0,1026.7,85.1,12.1,1.3,6907.1,566.7,26.2,0.00,0.00,0.00,0.00,0,0,0,0,0,0,0,0,0,0,0,0,0,0,0,0,0.0,0.21539059281349182,1.2021574974060059,0.7124858498573303,6.05501036912268,2.098196257965535,4.218247292034787,0.0,0.0,0.0,0.0,0.0,3.0941725799819078,-2.0649380151447994,4.432047813134973,9.715557098388672e-06,-1.9431114196777344e-05,2.2846191227436066,3.7978230714797974,0
2025-12-05 17:53:15.246345,0.0,0.0,1018.2,84.4,12.1,1.3,6907.1,566.7,26.2,0.00,0.00,0.00,0.00,0,0,0,0,0,0,0,0,0,0,0,0,0,0,0,0,0.0,0.21539059281349182,1.2021574974060059,0.7124858498573303,6.05501036912268,2.098196257965535,4.218247292034787,0.0,0.0,0.0,0.0,0.0,3.0941725799819078,-2.0649380151447994,4.432047813134973,9.715557098388672e-06,-1.9431114196777344e-05,2.2846191227436066,3.7978230714797974,0
2025-12-05 17:53:15.277490,0.0,0.0,1017.8,84.4,12.1,1.3,6907.2,566.7,26.2,0.00,0.00,0.00,0.00,0,0,0,0,0,0,0,0,0,0,0,0,0,0,0,0,0.0,0.21520882844924927,1.2021411657333374,0.7125844359397888,6.056902807058391,2.089302794375726,4.236019513381178,0.0,0.0,0.0,0.0,0.0,3.0763671160819896,-2.0471657937984085,4.432155505238234,-0.00017204880714416504,-3.5762786865234375e-05,2.2846191227436066,3.7978230714797974,0
2025-12-05 17:53:15.308370,0.0,0.0,1023.7,84.8,12.1,1.3,6907.3,566.7,26.2,0.00,0.00,0.00,0.00,0,0,0,0,0,0,0,0,0,0,0,0,0,0,0,0,0.0,0.21520882844924927,1.2021411657333374,0.7125844359397888,6.056902807058391,2.089302794375726,4.236019513381178,0.0,0.0,0.0,0.0,0.0,3.0763671160819896,-2.0471657937984085,4.432155505238234,-0.00017204880714416504,-3.5762786865234375e-05,2.2846191227436066,3.7978230714797974,0
2025-12-05 17:53:15.338959,0.0,0.0,1027.8,85.2,12.1,1.3,6907.3,566.7,26.2,0.00,0.00,0.00,0.00,0,0,0,0,0,0,0,0,0,0,0,0,0,0,0,0,0.0,0.21520882844924927,1.2021411657333374,0.7125844359397888,6.056902807058391,2.089302794375726,4.236019513381178,0.0,0.0,0.0,0.0,0.0,3.0763671160819896,-2.0471657937984085,4.432155505238234,-0.00017204880714416504,-3.5762786865234375e-05,2.2846191227436066,3.7978230714797974,0
2025-12-05 17:53:15.370284,0.0,0.0,1025.7,85.0,12.1,1.3,6907.4,566.7,26.2,0.00,0.00,0.00,0.00,0,0,0,0,0,0,0,0,0,0,0,0,0,0,0,0,0.0,0.21520882844924927,1.2021411657333374,0.7125844359397888,6.056902807058391,2.089302794375726,4.236019513381178,0.0,0.0,0.0,0.0,0.0,3.0763671160819896,-2.0471657937984085,4.432155505238234,-0.00017204880714416504,-3.5762786865234375e-05,2.2846191227436066,3.7978230714797974,0
2025-12-05 17:53:15.401456,0.0,0.0,1027.4,85.2,12.1,1.3,6907.4,566.7,26.2,0.00,0.00,0.00,0.00,0,0,0,0,0,0,0,0,0,0,0,0,0,0,0,0,0.0,0.21520882844924927,1.2021411657333374,0.7125844359397888,6.056902807058391,2.089302794375726,4.236019513381178,0.0,0.0,0.0,0.0,0.0,3.0763671160819896,-2.0471657937984085,4.432155505238234,-0.00017204880714416504,-3.5762786865234375e-05,2.2846191227436066,3.7978230714797974,0
2025-12-05 17:53:15.432855,0.0,0.0,1026.1,85.0,12.1,1.3,6907.5,566.7,26.2,0.00,0.00,0.00,0.00,0,0,0,0,0,0,0,0,0,0,0,0,0,0,0,0,0.0,0.21520882844924927,1.2021411657333374,0.7125844359397888,6.056902807058391,2.089302794375726,4.236019513381178,0.0,0.0,0.0,0.0,0.0,3.0763671160819896,-2.0471657937984085,4.432155505238234,-0.00017204880714416504,-3.5762786865234375e-05,2.2846191227436066,3.7978230714797974,0
2025-12-05 17:53:15.464313,0.0,0.0,1022.2,84.7,12.1,1.3,6907.5,566.7,26.2,0.00,0.00,0.00,0.00,0,0,0,0,0,0,0,0,0,0,0,0,0,0,0,0,0.0,0.21520882844924927,1.2021411657333374,0.7125844359397888,6.056902807058391,2.089302794375726,4.236019513381178,0.0,0.0,0.0,0.0,0.0,3.0763671160819896,-2.0471657937984085,4.432155505238234,-0.00017204880714416504,-3.5762786865234375e-05,2.2846191227436066,3.7978230714797974,0
2025-12-05 17:53:15.495443,0.0,0.0,1019.8,84.5,12.1,1.3,6907.6,566.7,26.2,0.00,0.00,0.00,0.00,0,0,0,0,0,0,0,0,0,0,0,0,0,0,0,0,0.0,0.21538135409355164,1.2021701335906982,0.7124854922294617,6.07186916862233,2.093368945245394,4.2244553357358665,0.0,0.0,0.0,0.0,0.0,3.087961280368722,-2.05872997144372,4.43204174748094,4.76837158203125e-07,-6.794929504394531e-06,2.2846191227436066,3.7978230714797974,0
2025-12-05 17:53:15.526721,0.0,0.0,1019.5,84.5,12.1,1.3,6907.7,566.7,26.2,0.00,0.00,0.00,0.00,0,0,0,0,0,0,0,0,0,0,0,0,0,0,0,0,0.0,0.21538135409355164,1.2021701335906982,0.7124854922294617,6.07186916862233,2.093368945245394,4.2244553357358665,0.0,0.0,0.0,0.0,0.0,3.087961280368722,-2.05872997144372,4.43204174748094,4.76837158203125e-07,-6.794929504394531e-06,2.2846191227436066,3.7978230714797974,0
2025-12-05 17:53:15.558167,0.0,0.0,1033.0,85.6,12.1,1.3,6907.7,566.7,26.2,0.00,0.00,0.00,0.00,0,0,0,0,0,0,0,0,0,0,0,0,0,0,0,0,0.0,0.21538135409355164,1.2021701335906982,0.7124854922294617,6.07186916862233,2.093368945245394,4.2244553357358665,0.0,0.0,0.0,0.0,0.0,3.087961280368722,-2.05872997144372,4.43204174748094,4.76837158203125e-07,-6.794929504394531e-06,2.2846191227436066,3.7978230714797974,0
2025-12-05 17:53:15.588925,0.0,0.0,1035.9,85.8,12.1,1.3,6907.8,566.7,26.2,0.00,0.00,0.00,0.00,0,0,0,0,0,0,0,0,0,0,0,0,0,0,0,0,0.0,0.2151932716369629,1.2021503448486328,0.7125826478004456,6.05650570706919,2.08641613496043,4.238094416985744,0.0,0.0,0.0,0.0,0.0,3.0742881371910307,-2.0450908901938427,4.432155659394914,-0.000187605619430542,-2.658367156982422e-05,2.2846191227436066,3.7978230714797974,0
2025-12-05 17:53:15.620284,0.0,0.0,1039.8,86.2,12.1,1.3,6907.8,566.8,26.2,0.00,0.00,0.00,0.00,0,0,0,0,0,0,0,0,0,0,0,0,0,0,0,0,0.0,0.2151932716369629,1.2021503448486328,0.7125826478004456,6.05650570706919,2.08641613496043,4.238094416985744,0.0,0.0,0.0,0.0,0.0,3.0742881371910307,-2.0450908901938427,4.432155659394914,-0.000187605619430542,-2.658367156982422e-05,2.2846191227436066,3.7978230714797974,0
2025-12-05 17:53:15.651596,0.0,0.0,1036.0,85.9,12.1,1.3,6907.9,566.8,26.2,0.00,0.00,0.00,0.00,0,0,0,0,0,0,0,0,0,0,0,0,0,0,0,0,0.0,0.2151932716369629,1.2021503448486328,0.7125826478004456,6.05650570706919,2.08641613496043,4.238094416985744,0.0,0.0,0.0,0.0,0.0,3.0742881371910307,-2.0450908901938427,4.432155659394914,-0.000187605619430542,-2.658367156982422e-05,2.2846191227436066,3.7978230714797974,0
2025-12-05 17:53:15.683134,0.0,0.0,1028.1,85.2,12.1,1.3,6908.0,566.8,26.2,0.00,0.00,0.00,0.00,0,0,0,0,0,0,0,0,0,0,0,0,0,0,0,0,0.0,0.21522745490074158,1.2021414041519165,0.7125923037528992,6.064448361989058,2.0854011061849738,4.233705894945002,0.0,0.0,0.0,0.0,0.0,3.07868430792701,-2.0494794122345845,4.432145698969802,-0.00015342235565185547,-3.552436828613281e-05,2.2846191227436066,3.7978230714797974,0
2025-12-05 17:53:15.714507,0.0,0.0,1021.2,84.6,12.1,1.3,6908.0,566.8,26.2,0.00,0.00,0.00,0.00,0,0,0,0,0,0,0,0,0,0,0,0,0,0,0,0,0.0,0.21522745490074158,1.2021414041519165,0.7125923037528992,6.064448361989058,2.0854011061849738,4.233705894945002,0.0,0.0,0.0,0.0,0.0,3.07868430792701,-2.0494794122345845,4.432145698969802,-0.00015342235565185547,-3.552436828613281e-05,2.2846191227436066,3.7978230714797974,0
2025-12-05 17:53:15.745051,0.0,0.0,1014.5,84.1,12.1,1.3,6908.1,566.8,26.2,0.00,0.00,0.00,0.00,0,0,0,0,0,0,0,0,0,0,0,0,0,0,0,0,0.0,0.21522745490074158,1.2021414041519165,0.7125923037528992,6.064448361989058,2.0854011061849738,4.233705894945002,0.0,0.0,0.0,0.0,0.0,3.07868430792701,-2.0494794122345845,4.432145698969802,-0.00015342235565185547,-3.552436828613281e-05,2.2846191227436066,3.7978230714797974,0
2025-12-05 17:53:15.776413,0.0,0.0,1012.3,83.9,12.1,1.3,6908.1,566.8,26.2,0.00,0.00,0.00,0.00,0,0,0,0,0,0,0,0,0,0,0,0,0,0,0,0,0.0,0.21538324654102325,1.2021769285202026,0.7124835252761841,6.072211564430858,2.0916289611766405,4.2261395034949185,0.0,0.0,0.0,0.0,0.0,3.0862766882017674,-2.057045803684668,4.432034949371414,2.3692846298217773e-06,0.0,2.2846191227436066,3.7978230714797974,0
2025-12-05 17:53:15.807497,0.0,0.0,1020.6,84.6,12.1,1.3,6908.2,566.8,26.2,0.00,0.00,0.00,0.00,0,0,0,0,0,0,0,0,0,0,0,0,0,0,0,0,0.0,0.21538324654102325,1.2021769285202026,0.7124835252761841,6.072211564430858,2.0916289611766405,4.2261395034949185,0.0,0.0,0.0,0.0,0.0,3.0862766882017674,-2.057045803684668,4.432034949371414,2.3692846298217773e-06,0.0,2.2846191227436066,3.7978230714797974,0
2025-12-05 17:53:15.838987,0.0,0.0,1011.6,84.2,12.1,1.3,6908.3,566.8,26.2,0.00,0.00,0.00,0.00,0,0,0,0,0,0,0,0,0,0,0,0,0,0,0,0,0.0,0.21538324654102325,1.2021769285202026,0.7124835252761841,6.072211564430858,2.0916289611766405,4.2261395034949185,0.0,0.0,0.0,0.0,0.0,3.0862766882017674,-2.057045803684668,4.432034949371414,2.3692846298217773e-06,0.0,2.2846191227436066,3.7978230714797974,0
2025-12-05 17:53:15.869704,0.0,0.0,1017.0,84.3,12.1,1.3,6908.3,566.8,26.2,0.00,0.00,0.00,0.00,0,0,0,0,0,0,0,0,0,0,0,0,0,0,0,0,0.0,0.21538324654102325,1.2021769285202026,0.7124835252761841,6.072211564430858,2.0916289611766405,4.2261395034949185,0.0,0.0,0.0,0.0,0.0,3.0862766882017674,-2.057045803684668,4.432034949371414,2.3692846298217773e-06,0.0,2.2846191227436066,3.7978230714797974,0
2025-12-05 17:53:15.900536,0.0,0.0,1014.0,84.0,12.1,1.3,6908.4,566.8,26.2,0.00,0.00,0.00,0.00,0,0,0,0,0,0,0,0,0,0,0,0,0,0,0,0,0.0,0.21536871790885925,1.2021830081939697,0.7124764919281006,6.066885706168536,2.0915958939546457,4.229822991406804,0.0,0.0,0.0,0.0,0.0,3.0825896841723717,-2.0533623157727825,4.432037228900499,-1.2159347534179688e-05,6.079673767089844e-06,2.2846191227436066,3.7978230714797974,0
2025-12-05 17:53:15.932013,0.0,0.0,1020.9,84.6,12.1,1.3,6908.4,566.8,26.2,0.00,0.00,0.00,0.00,0,0,0,0,0,0,0,0,0,0,0,0,0,0,0,0,0.0,0.21536871790885925,1.2021830081939697,0.7124764919281006,6.066885706168536,2.0915958939546457,4.229822991406804,0.0,0.0,0.0,0.0,0.0,3.0825896841723717,-2.0533623157727825,4.432037228900499,-1.2159347534179688e-05,6.079673767089844e-06,2.2846191227436066,3.7978230714797974,0
2025-12-05 17:53:15.963395,0.0,0.0,1028.4,85.2,12.1,1.3,6908.5,566.8,26.2,0.00,0.00,0.00,0.00,0,0,0,0,0,0,0,0,0,0,0,0,0,0,0,0,0.0,0.21536871790885925,1.2021830081939697,0.7124764919281006,6.066885706168536,2.0915958939546457,4.229822991406804,0.0,0.0,0.0,0.0,0.0,3.0825896841723717,-2.0533623157727825,4.432037228900499,-1.2159347534179688e-05,6.079673767089844e-06,2.2846191227436066,3.7978230714797974,0
2025-12-05 17:53:15.993926,0.0,0.0,1033.1,85.6,12.1,1.3,6908.6,566.8,26.2,0.00,0.00,0.00,0.00,0,0,0,0,0,0,0,0,0,0,0,0,0,0,0,0,0.0,0.2153417468070984,1.2022002935409546,0.7124392986297607,6.070537624587529,2.088040145706694,4.2365205197740305,0.0,0.0,0.0,0.0,0.0,3.0758849307216827,-2.046664787405556,4.432036320277943,-3.9130449295043945e-05,2.3365020751953125e-05,2.2846191227436066,3.7978230714797974,0
2025-12-05 17:53:16.025271,0.0,0.0,1031.1,85.5,12.1,1.3,6908.6,566.8,26.2,0.00,0.00,0.00,0.00,0,0,0,0,0,0,0,0,0,0,0,0,0,0,0,0,0.0,0.2153417468070984,1.2022002935409546,0.7124392986297607,6.070537624587529,2.088040145706694,4.2365205197740305,0.0,0.0,0.0,0.0,0.0,3.0758849307216827,-2.046664787405556,4.432036320277943,-3.9130449295043945e-05,2.3365020751953125e-05,2.2846191227436066,3.7978230714797974,0
2025-12-05 17:53:16.056703,0.0,0.0,1016.8,84.4,12.1,1.3,6908.7,566.8,26.2,0.00,0.00,0.00,0.00,0,0,0,0,0,0,0,0,0,0,0,0,0,0,0,0,0.0,0.2153417468070984,1.2022002935409546,0.7124392986297607,6.070537624587529,2.088040145706694,4.2365205197740305,0.0,0.0,0.0,0.0,0.0,3.0758849307216827,-2.046664787405556,4.432036320277943,-3.9130449295043945e-05,2.3365020751953125e-05,2.2846191227436066,3.7978230714797974,0
2025-12-05 17:53:16.088257,0.0,0.0,1014.6,84.1,12.1,1.3,6908.7,566.8,26.2,0.00,0.00,0.00,0.00,0,0,0,0,0,0,0,0,0,0,0,0,0,0,0,0,0.0,0.21538206934928894,1.2021816968917847,0.7124761343002319,6.06434404989007,2.0917894206981598,4.227263552658583,0.0,0.0,0.0,0.0,0.0,3.0851518568392846,-2.0559217545210036,4.4320314701584085,1.1920928955078125e-06,4.76837158203125e-06,2.2846191227436066,3.7978230714797974,0
2025-12-05 17:53:16.119911,0.0,0.0,1019.0,84.4,12.1,1.3,6908.8,566.8,26.2,0.00,0.00,0.00,0.00,0,0,0,0,0,0,0,0,0,0,0,0,0,0,0,0,0.0,0.21538206934928894,1.2021816968917847,0.7124761343002319,6.06434404989007,2.0917894206981598,4.227263552658583,0.0,0.0,0.0,0.0,0.0,3.0851518568392846,-2.0559217545210036,4.4320314701584085,1.1920928955078125e-06,4.76837158203125e-06,2.2846191227436066,3.7978230714797974,0
2025-12-05 17:53:16.151144,0.0,0.0,1026.2,85.1,12.1,1.3,6908.8,566.8,26.2,0.00,0.00,0.00,0.00,0,0,0,0,0,0,0,0,0,0,0,0,0,0,0,0,0.0,0.21538206934928894,1.2021816968917847,0.7124761343002319,6.06434404989007,2.0917894206981598,4.227263552658583,0.0,0.0,0.0,0.0,0.0,3.0851518568392846,-2.0559217545210036,4.4320314701584085,1.1920928955078125e-06,4.76837158203125e-06,2.2846191227436066,3.7978230714797974,0
2025-12-05 17:53:16.181807,0.0,0.0,1021.5,84.7,12.1,1.3,6908.9,566.8,26.2,0.00,0.00,0.00,0.00,0,0,0,0,0,0,0,0,0,0,0,0,0,0,0,0,0.0,0.21538206934928894,1.2021816968917847,0.7124761343002319,6.06434404989007,2.0917894206981598,4.227263552658583,0.0,0.0,0.0,0.0,0.0,3.0851518568392846,-2.0559217545210036,4.4320314701584085,1.1920928955078125e-06,4.76837158203125e-06,2.2846191227436066,3.7978230714797974,0
2025-12-05 17:53:16.212906,0.0,0.0,1016.8,84.3,12.1,1.3,6909.0,566.8,26.2,0.00,0.00,0.00,0.00,0,0,0,0,0,0,0,0,0,0,0,0,0,0,0,0,0.0,0.21537348628044128,1.202172875404358,0.7124711871147156,6.060908291544587,2.0929338477718775,4.225458515475081,0.0,0.0,0.0,0.0,0.0,3.086956260553589,-2.0577267917045057,4.43204345370223,-7.3909759521484375e-06,-4.0531158447265625e-06,2.2846191227436066,3.7978230714797974,0
2025-12-05 17:53:16.244330,0.0,0.0,1026.6,85.1,12.1,1.3,6909.0,566.9,26.2,0.00,0.00,0.00,0.00,0,0,0,0,0,0,0,0,0,0,0,0,0,0,0,0,0.0,0.21537348628044128,1.202172875404358,0.7124711871147156,6.060908291544587,2.0929338477718775,4.225458515475081,0.0,0.0,0.0,0.0,0.0,3.086956260553589,-2.0577267917045057,4.43204345370223,-7.3909759521484375e-06,-4.0531158447265625e-06,2.2846191227436066,3.7978230714797974,0
2025-12-05 17:53:16.275768,0.0,0.0,1028.3,84.6,12.1,1.3,6909.1,566.9,26.2,0.00,0.00,0.00,0.00,0,0,0,0,0,0,0,0,0,0,0,0,0,0,0,0,0.0,0.21537348628044128,1.202172875404358,0.7124711871147156,6.060908291544587,2.0929338477718775,4.225458515475081,0.0,0.0,0.0,0.0,0.0,3.086956260553589,-2.0577267917045057,4.43204345370223,-7.3909759521484375e-06,-4.0531158447265625e-06,2.2846191227436066,3.7978230714797974,0
2025-12-05 17:53:16.306441,0.0,0.0,1025.5,85.0,12.1,1.3,6909.1,566.9,26.2,0.00,0.00,0.00,0.00,0,0,0,0,0,0,0,0,0,0,0,0,0,0,0,0,0.0,0.2151964008808136,1.2021461725234985,0.7125802040100098,6.057585673948452,2.088617648905328,4.237588023269579,0.0,0.0,0.0,0.0,0.0,3.0747956211811016,-2.045597283910008,4.43215762145548,-0.00018447637557983398,-3.075599670410156e-05,2.2846191227436066,3.7978230714797974,0
2025-12-05 17:53:16.337548,0.0,0.0,1019.1,84.5,12.1,1.3,6909.2,566.9,26.2,0.00,0.00,0.00,0.00,0,0,0,0,0,0,0,0,0,0,0,0,0,0,0,0,0.0,0.2151964008808136,1.2021461725234985,0.7125802040100098,6.057585673948452,2.088617648905328,4.237588023269579,0.0,0.0,0.0,0.0,0.0,3.0747956211811016,-2.045597283910008,4.43215762145548,-0.00018447637557983398,-3.075599670410156e-05,2.2846191227436066,3.7978230714797974,0
2025-12-05 17:53:16.368985,0.0,0.0,1027.5,85.1,12.1,1.3,6909.3,566.9,26.2,0.00,0.00,0.00,0.00,0,0,0,0,0,0,0,0,0,0,0,0,0,0,0,0,0.0,0.2151964008808136,1.2021461725234985,0.7125802040100098,6.057585673948452,2.088617648905328,4.237588023269579,0.0,0.0,0.0,0.0,0.0,3.0747956211811016,-2.045597283910008,4.43215762145548,-0.00018447637557983398,-3.075599670410156e-05,2.2846191227436066,3.7978230714797974,0
2025-12-05 17:53:16.399903,0.0,0.0,1019.6,84.5,12.1,1.3,6909.3,566.9,26.2,0.00,0.00,0.00,0.00,0,0,0,0,0,0,0,0,0,0,0,0,0,0,0,0,0.0,0.2151964008808136,1.2021461725234985,0.7125802040100098,6.057585673948452,2.088617648905328,4.237588023269579,0.0,0.0,0.0,0.0,0.0,3.0747956211811016,-2.045597283910008,4.43215762145548,-0.00018447637557983398,-3.075599670410156e-05,2.2846191227436066,3.7978230714797974,0
2025-12-05 17:53:16.431187,0.0,0.0,1016.1,84.2,12.1,1.3,6909.4,566.9,26.2,0.00,0.00,0.00,0.00,0,0,0,0,0,0,0,0,0,0,0,0,0,0,0,0,0.0,0.21514993906021118,1.2021760940551758,0.7125346660614014,6.060418935832387,2.0822745361751283,4.252881312692322,0.0,0.0,0.0,0.0,0.0,3.0594898689271774,-2.0303039944872645,4.432155933802709,-0.00023093819618225098,-8.344650268554688e-07,2.2846191227436066,3.7978230714797974,0
2025-12-05 17:53:16.462596,0.0,0.0,1017.3,84.3,12.1,1.3,6909.4,566.9,26.2,0.00,0.00,0.00,0.00,0,0,0,0,0,0,0,0,0,0,0,0,0,0,0,0,0.0,0.21514993906021118,1.2021760940551758,0.7125346660614014,6.060418935832387,2.0822745361751283,4.252881312692322,0.0,0.0,0.0,0.0,0.0,3.0594898689271774,-2.0303039944872645,4.432155933802709,-0.00023093819618225098,-8.344650268554688e-07,2.2846191227436066,3.7978230714797974,0
2025-12-05 17:53:16.493724,0.0,0.0,1019.8,84.5,12.1,1.3,6909.5,566.9,26.2,0.00,0.00,0.00,0.00,0,0,0,0,0,0,0,0,0,0,0,0,0,0,0,0,0.0,0.21514993906021118,1.2021760940551758,0.7125346660614014,6.060418935832387,2.0822745361751283,4.252881312692322,0.0,0.0,0.0,0.0,0.0,3.0594898689271774,-2.0303039944872645,4.432155933802709,-0.00023093819618225098,-8.344650268554688e-07,2.2846191227436066,3.7978230714797974,0
2025-12-05 17:53:16.525079,0.0,0.0,1024.5,84.9,12.1,1.3,6909.6,566.9,26.2,0.00,0.00,0.00,0.00,0,0,0,0,0,0,0,0,0,0,0,0,0,0,0,0,0.0,0.21537119150161743,1.2021708488464355,0.7124705910682678,6.06139341093339,2.094715479360021,4.226493441751172,0.0,0.0,0.0,0.0,0.0,3.0859211263031203,-2.0566918654284145,4.432046373174873,-9.685754776000977e-06,-6.079673767089844e-06,2.2846191227436066,3.7978230714797974,0
2025-12-05 17:53:16.555647,0.0,0.0,1023.9,85.1,12.1,1.3,6909.6,566.9,26.2,0.00,0.00,0.00,0.00,0,0,0,0,0,0,0,0,0,0,0,0,0,0,0,0,0.0,0.21537119150161743,1.2021708488464355,0.7124705910682678,6.06139341093339,2.094715479360021,4.226493441751172,0.0,0.0,0.0,0.0,0.0,3.0859211263031203,-2.0566918654284145,4.432046373174873,-9.685754776000977e-06,-6.079673767089844e-06,2.2846191227436066,3.7978230714797974,0
2025-12-05 17:53:16.587011,0.0,0.0,1024.2,84.9,12.1,1.3,6909.7,566.9,26.2,0.00,0.00,0.00,0.00,0,0,0,0,0,0,0,0,0,0,0,0,0,0,0,0,0.0,0.21537119150161743,1.2021708488464355,0.7124705910682678,6.06139341093339,2.094715479360021,4.226493441751172,0.0,0.0,0.0,0.0,0.0,3.0859211263031203,-2.0566918654284145,4.432046373174873,-9.685754776000977e-06,-6.079673767089844e-06,2.2846191227436066,3.7978230714797974,0
2025-12-05 17:53:16.617685,0.0,0.0,1021.0,84.6,12.1,1.3,6909.7,566.9,26.2,0.00,0.00,0.00,0.00,0,0,0,0,0,0,0,0,0,0,0,0,0,0,0,0,0.0,0.21538984775543213,1.202142596244812,0.7124893069267273,6.064197064677998,2.096760368343177,4.223079577087672,0.0,0.0,0.0,0.0,0.0,3.089341883970985,-2.0601057300919146,4.432060966074028,8.970499038696289e-06,-3.4332275390625e-05,2.2846191227436066,3.7978230714797974,0
2025-12-05 17:53:16.648999,0.0,0.0,1017.6,84.3,12.1,1.3,6909.8,566.9,26.2,0.00,0.00,0.00,0.00,0,0,0,0,0,0,0,0,0,0,0,0,0,0,0,0,0.0,0.21538984775543213,1.202142596244812,0.7124893069267273,6.064197064677998,2.096760368343177,4.223079577087672,0.0,0.0,0.0,0.0,0.0,3.089341883970985,-2.0601057300919146,4.432060966074028,8.970499038696289e-06,-3.4332275390625e-05,2.2846191227436066,3.7978230714797974,0
2025-12-05 17:53:16.680413,0.0,0.0,1024.5,84.9,12.1,1.3,6909.9,566.9,26.2,0.00,0.00,0.00,0.00,0,0,0,0,0,0,0,0,0,0,0,0,0,0,0,0,0.0,0.21538984775543213,1.202142596244812,0.7124893069267273,6.064197064677998,2.096760368343177,4.223079577087672,0.0,0.0,0.0,0.0,0.0,3.089341883970985,-2.0601057300919146,4.432060966074028,8.970499038696289e-06,-3.4332275390625e-05,2.2846191227436066,3.7978230714797974,0
2025-12-05 17:53:16.711528,0.0,0.0,1023.7,84.8,12.1,1.3,6909.9,566.9,26.2,0.00,0.00,0.00,0.00,0,0,0,0,0,0,0,0,0,0,0,0,0,0,0,0,0.0,0.21521371603012085,1.202115774154663,0.7125999927520752,6.060053783658644,2.0931577278183484,4.233852569503268,0.0,0.0,0.0,0.0,0.0,3.078537958170811,-2.0493327376763184,4.432174743434844,-0.000167161226272583,-6.115436553955078e-05,2.2846191227436066,3.7978230714797974,0
2025-12-05 17:53:16.742524,0.0,0.0,1022.0,84.7,12.1,1.3,6910.0,566.9,26.2,0.00,0.00,0.00,0.00,0,0,0,0,0,0,0,0,0,0,0,0,0,0,0,0,0.0,0.21521371603012085,1.202115774154663,0.7125999927520752,6.060053783658644,2.0931577278183484,4.233852569503268,0.0,0.0,0.0,0.0,0.0,3.078537958170811,-2.0493327376763184,4.432174743434844,-0.000167161226272583,-6.115436553955078e-05,2.2846191227436066,3.7978230714797974,0
2025-12-05 17:53:16.773842,0.0,0.0,1021.5,84.7,12.1,1.3,6910.0,566.9,26.2,0.00,0.00,0.00,0.00,0,0,0,0,0,0,0,0,0,0,0,0,0,0,0,0,0.0,0.21521371603012085,1.202115774154663,0.7125999927520752,6.060053783658644,2.0931577278183484,4.233852569503268,0.0,0.0,0.0,0.0,0.0,3.078537958170811,-2.0493327376763184,4.432174743434844,-0.000167161226272583,-6.115436553955078e-05,2.2846191227436066,3.7978230714797974,0
2025-12-05 17:53:16.804770,0.0,0.0,1020.5,84.6,12.1,1.3,6910.1,566.9,26.2,0.00,0.00,0.00,0.00,0,0,0,0,0,0,0,0,0,0,0,0,0,0,0,0,0.0,0.21521371603012085,1.202115774154663,0.7125999927520752,6.060053783658644,2.0931577278183484,4.233852569503268,0.0,0.0,0.0,0.0,0.0,3.078537958170811,-2.0493327376763184,4.432174743434844,-0.000167161226272583,-6.115436553955078e-05,2.2846191227436066,3.7978230714797974,0
2025-12-05 17:53:16.836229,0.0,0.0,1022.8,84.7,12.1,1.3,6910.2,566.9,26.2,0.00,0.00,0.00,0.00,0,0,0,0,0,0,0,0,0,0,0,0,0,0,0,0,0.0,0.21521002054214478,1.2021667957305908,0.7125744819641113,6.070073950710376,2.081135923005635,4.241969638987468,0.0,0.0,0.0,0.0,0.0,3.070414239912704,-2.0412156681921183,4.4321329287017415,-0.00017085671424865723,-1.0132789611816406e-05,2.2846191227436066,3.7978230714797974,0
2025-12-05 17:53:16.867647,0.0,0.0,1018.3,84.4,12.1,1.3,6910.2,567.0,26.2,0.00,0.00,0.00,0.00,0,0,0,0,0,0,0,0,0,0,0,0,0,0,0,0,0.0,0.21521002054214478,1.2021667957305908,0.7125744819641113,6.070073950710376,2.081135923005635,4.241969638987468,0.0,0.0,0.0,0.0,0.0,3.070414239912704,-2.0412156681921183,4.4321329287017415,-0.00017085671424865723,-1.0132789611816406e-05,2.2846191227436066,3.7978230714797974,0
2025-12-05 17:53:16.899027,0.0,0.0,1016.5,84.2,12.1,1.3,6910.3,567.0,26.2,0.00,0.00,0.00,0.00,0,0,0,0,0,0,0,0,0,0,0,0,0,0,0,0,0.0,0.21521002054214478,1.2021667957305908,0.7125744819641113,6.070073950710376,2.081135923005635,4.241969638987468,0.0,0.0,0.0,0.0,0.0,3.070414239912704,-2.0412156681921183,4.4321329287017415,-0.00017085671424865723,-1.0132789611816406e-05,2.2846191227436066,3.7978230714797974,0
2025-12-05 17:53:16.929652,0.0,0.0,1016.4,84.2,12.1,1.3,6910.3,567.0,26.2,0.00,0.00,0.00,0.00,0,0,0,0,0,0,0,0,0,0,0,0,0,0,0,0,0.0,0.21536576747894287,1.2021727561950684,0.7124845385551453,6.06379927397639,2.0958618909076323,4.224512612645226,0.0,0.0,0.0,0.0,0.0,3.0879006848778854,-2.0586726945343607,4.432047534739902,-1.5109777450561523e-05,-4.172325134277344e-06,2.2846191227436066,3.7978230714797974,0
2025-12-05 17:53:16.960264,0.0,0.0,1019.3,84.5,12.1,1.3,6910.4,567.0,26.2,0.00,0.00,0.00,0.00,0,0,0,0,0,0,0,0,0,0,0,0,0,0,0,0,0.0,0.21536576747894287,1.2021727561950684,0.7124845385551453,6.06379927397639,2.0958618909076323,4.224512612645226,0.0,0.0,0.0,0.0,0.0,3.0879006848778854,-2.0586726945343607,4.432047534739902,-1.5109777450561523e-05,-4.172325134277344e-06,2.2846191227436066,3.7978230714797974,0
2025-12-05 17:53:16.991513,0.0,0.0,1025.3,85.0,12.1,1.3,6910.5,567.0,26.2,0.00,0.00,0.00,0.00,0,0,0,0,0,0,0,0,0,0,0,0,0,0,0,0,0.0,0.21536576747894287,1.2021727561950684,0.7124845385551453,6.06379927397639,2.0958618909076323,4.224512612645226,0.0,0.0,0.0,0.0,0.0,3.0879006848778854,-2.0586726945343607,4.432047534739902,-1.5109777450561523e-05,-4.172325134277344e-06,2.2846191227436066,3.7978230714797974,0
2025-12-05 17:53:17.023089,0.0,0.0,1025.5,85.0,12.1,1.3,6910.5,567.0,26.2,0.00,0.00,0.00,0.00,0,0,0,0,0,0,0,0,0,0,0,0,0,0,0,0,0.0,0.21518626809120178,1.202157974243164,0.7125827074050903,6.0651182634442895,2.084618001128595,4.241810934784267,0.0,0.0,0.0,0.0,0.0,3.0705693779892087,-2.0413743723953197,4.432152732264965,-0.0001946091651916504,-1.895427703857422e-05,2.2846191227436066,3.7978230714797974,0
2025-12-05 17:53:17.054399,0.0,0.0,1034.7,85.4,12.1,1.3,6910.6,567.0,26.2,0.00,0.00,0.00,0.00,0,0,0,0,0,0,0,0,0,0,0,0,0,0,0,0,0.0,0.21518626809120178,1.202157974243164,0.7125827074050903,6.0651182634442895,2.084618001128595,4.241810934784267,0.0,0.0,0.0,0.0,0.0,3.0705693779892087,-2.0413743723953197,4.432152732264965,-0.0001946091651916504,-1.895427703857422e-05,2.2846191227436066,3.7978230714797974,0
2025-12-05 17:53:17.085667,0.0,0.0,1024.1,84.9,12.1,1.3,6910.6,567.0,26.2,0.00,0.00,0.00,0.00,0,0,0,0,0,0,0,0,0,0,0,0,0,0,0,0,0.0,0.21518626809120178,1.202157974243164,0.7125827074050903,6.0651182634442895,2.084618001128595,4.241810934784267,0.0,0.0,0.0,0.0,0.0,3.0705693779892087,-2.0413743723953197,4.432152732264965,-0.0001946091651916504,-1.895427703857422e-05,2.2846191227436066,3.7978230714797974,0
2025-12-05 17:53:17.116512,0.0,0.0,1033.0,85.6,12.1,1.3,6910.7,567.0,26.2,0.00,0.00,0.00,0.00,0,0,0,0,0,0,0,0,0,0,0,0,0,0,0,0,0.0,0.21518626809120178,1.202157974243164,0.7125827074050903,6.0651182634442895,2.084618001128595,4.241810934784267,0.0,0.0,0.0,0.0,0.0,3.0705693779892087,-2.0413743723953197,4.432152732264965,-0.0001946091651916504,-1.895427703857422e-05,2.2846191227436066,3.7978230714797974,0
2025-12-05 17:53:17.147812,0.0,0.0,1028.9,85.3,12.1,1.3,6910.8,567.0,26.2,0.00,0.00,0.00,0.00,0,0,0,0,0,0,0,0,0,0,0,0,0,0,0,0,0.0,0.21519631147384644,1.2021769285202026,0.7125728130340576,6.0707456167876455,2.0794635029261226,4.246840134863758,0.0,0.0,0.0,0.0,0.0,3.0655399150384826,-2.0363451723158286,4.432131313190863,-0.00018456578254699707,0.0,2.2846191227436066,3.7978230714797974,0
2025-12-05 17:53:17.179404,0.0,0.0,1032.2,85.5,12.1,1.3,6910.8,567.0,26.2,0.00,0.00,0.00,0.00,0,0,0,0,0,0,0,0,0,0,0,0,0,0,0,0,0.0,0.21519631147384644,1.2021769285202026,0.7125728130340576,6.0707456167876455,2.0794635029261226,4.246840134863758,0.0,0.0,0.0,0.0,0.0,3.0655399150384826,-2.0363451723158286,4.432131313190863,-0.00018456578254699707,0.0,2.2846191227436066,3.7978230714797974,0
2025-12-05 17:53:17.210603,0.0,0.0,1015.0,84.8,12.1,1.3,6910.9,567.0,26.2,0.00,0.00,0.00,0.00,0,0,0,0,0,0,0,0,0,0,0,0,0,0,0,0,0.0,0.21519631147384644,1.2021769285202026,0.7125728130340576,6.0707456167876455,2.0794635029261226,4.246840134863758,0.0,0.0,0.0,0.0,0.0,3.0655399150384826,-2.0363451723158286,4.432131313190863,-0.00018456578254699707,0.0,2.2846191227436066,3.7978230714797974,0
2025-12-05 17:53:17.241475,0.0,0.0,1015.0,84.1,12.1,1.3,6910.9,567.0,26.2,0.00,0.00,0.00,0.00,0,0,0,0,0,0,0,0,0,0,0,0,0,0,0,0,0.0,0.21537598967552185,1.2021608352661133,0.7124789357185364,6.067553040022758,2.0967942455407167,4.22234615264925,0.0,0.0,0.0,0.0,0.0,3.090070507744748,-2.060839154530337,4.432052480480989,-4.887580871582031e-06,-1.609325408935547e-05,2.2846191227436066,3.7978230714797974,0
2025-12-05 17:53:17.272915,0.0,0.0,1011.3,83.8,12.1,1.3,6911.0,567.0,26.2,0.00,0.00,0.00,0.00,0,0,0,0,0,0,0,0,0,0,0,0,0,0,0,0,0.0,0.21537598967552185,1.2021608352661133,0.7124789357185364,6.067553040022758,2.0967942455407167,4.22234615264925,0.0,0.0,0.0,0.0,0.0,3.090070507744748,-2.060839154530337,4.432052480480989,-4.887580871582031e-06,-1.609325408935547e-05,2.2846191227436066,3.7978230714797974,0
2025-12-05 17:53:17.304337,0.0,0.0,1016.7,84.3,12.1,1.3,6911.0,567.0,26.2,0.00,0.00,0.00,0.00,0,0,0,0,0,0,0,0,0,0,0,0,0,0,0,0,0.0,0.21537598967552185,1.2021608352661133,0.7124789357185364,6.067553040022758,2.0967942455407167,4.22234615264925,0.0,0.0,0.0,0.0,0.0,3.090070507744748,-2.060839154530337,4.432052480480989,-4.887580871582031e-06,-1.609325408935547e-05,2.2846191227436066,3.7978230714797974,0
2025-12-05 17:53:17.335249,0.0,0.0,1017.5,84.3,12.1,1.3,6911.1,567.0,26.2,0.00,0.00,0.00,0.00,0,0,0,0,0,0,0,0,0,0,0,0,0,0,0,0,0.0,0.21519136428833008,1.2021740674972534,0.7125634551048279,6.064419882491805,2.0808506442913153,4.2442210916555165,0.0,0.0,0.0,0.0,0.0,3.068158334556135,-2.0389642155240697,4.43213631507572,-0.0001895129680633545,-2.86102294921875e-06,2.2846191227436066,3.7978230714797974,0
2025-12-05 17:53:17.365898,0.0,0.0,1016.9,84.3,12.1,1.3,6911.2,567.0,26.2,0.00,0.00,0.00,0.00,0,0,0,0,0,0,0,0,0,0,0,0,0,0,0,0,0.0,0.21519136428833008,1.2021740674972534,0.7125634551048279,6.064419882491805,2.0808506442913153,4.2442210916555165,0.0,0.0,0.0,0.0,0.0,3.068158334556135,-2.0389642155240697,4.43213631507572,-0.0001895129680633545,-2.86102294921875e-06,2.2846191227436066,3.7978230714797974,0
2025-12-05 17:53:17.396467,0.0,0.0,1024.7,84.9,12.1,1.3,6911.2,567.0,26.2,0.00,0.00,0.00,0.00,0,0,0,0,0,0,0,0,0,0,0,0,0,0,0,0,0.0,0.21519136428833008,1.2021740674972534,0.7125634551048279,6.064419882491805,2.0808506442913153,4.2442210916555165,0.0,0.0,0.0,0.0,0.0,3.068158334556135,-2.0389642155240697,4.43213631507572,-0.0001895129680633545,-2.86102294921875e-06,2.2846191227436066,3.7978230714797974,0
2025-12-05 17:53:17.427884,0.0,0.0,1033.8,84.5,12.1,1.3,6911.3,567.0,26.2,0.00,0.00,0.00,0.00,0,0,0,0,0,0,0,0,0,0,0,0,0,0,0,0,0.0,0.21519136428833008,1.2021740674972534,0.7125634551048279,6.064419882491805,2.0808506442913153,4.2442210916555165,0.0,0.0,0.0,0.0,0.0,3.068158334556135,-2.0389642155240697,4.43213631507572,-0.0001895129680633545,-2.86102294921875e-06,2.2846191227436066,3.7978230714797974,0
2025-12-05 17:53:17.459247,0.0,0.0,1019.2,84.5,12.1,1.3,6911.3,567.0,26.2,0.00,0.00,0.00,0.00,0,0,0,0,0,0,0,0,0,0,0,0,0,0,0,0,0.0,0.2151796519756317,1.2021515369415283,0.7125670313835144,6.060582017902517,2.0846290403197405,4.241338612642705,0.0,0.0,0.0,0.0,0.0,3.071041169744019,-2.0418466945368814,4.432161658953991,-0.00020122528076171875,-2.5391578674316406e-05,2.2846191227436066,3.7978230714797974,0
2025-12-05 17:53:17.490725,0.0,0.0,1020.4,84.6,12.1,1.3,6911.4,567.0,26.2,0.00,0.00,0.00,0.00,0,0,0,0,0,0,0,0,0,0,0,0,0,0,0,0,0.0,0.2151796519756317,1.2021515369415283,0.7125670313835144,6.060582017902517,2.0846290403197405,4.241338612642705,0.0,0.0,0.0,0.0,0.0,3.071041169744019,-2.0418466945368814,4.432161658953991,-0.00020122528076171875,-2.5391578674316406e-05,2.2846191227436066,3.7978230714797974,0
2025-12-05 17:53:17.521583,0.0,0.0,1019.8,84.5,12.1,1.3,6911.5,567.1,26.2,0.00,0.00,0.00,0.00,0,0,0,0,0,0,0,0,0,0,0,0,0,0,0,0,0.0,0.2151796519756317,1.2021515369415283,0.7125670313835144,6.060582017902517,2.0846290403197405,4.241338612642705,0.0,0.0,0.0,0.0,0.0,3.071041169744019,-2.0418466945368814,4.432161658953991,-0.00020122528076171875,-2.5391578674316406e-05,2.2846191227436066,3.7978230714797974,0
2025-12-05 17:53:17.553556,0.0,0.0,1020.7,84.6,12.1,1.3,6911.5,567.1,26.2,0.00,0.00,0.00,0.00,0,0,0,0,0,0,0,0,0,0,0,0,0,0,0,0,0.0,0.21518896520137787,1.2021753787994385,0.7125601172447205,6.058860098385531,2.0848902904866695,4.242523300479503,0.0,0.0,0.0,0.0,0.0,3.0698555093865867,-2.040662006700084,4.432136428195181,-0.00019191205501556396,-1.5497207641601562e-06,2.2846191227436066,3.7978230714797974,0
2025-12-05 17:53:17.584721,0.0,0.0,1017.9,84.4,12.1,1.3,6911.6,567.1,26.2,0.00,0.00,0.00,0.00,0,0,0,0,0,0,0,0,0,0,0,0,0,0,0,0,0.0,0.21518896520137787,1.2021753787994385,0.7125601172447205,6.058860098385531,2.0848902904866695,4.242523300479503,0.0,0.0,0.0,0.0,0.0,3.0698555093865867,-2.040662006700084,4.432136428195181,-0.00019191205501556396,-1.5497207641601562e-06,2.2846191227436066,3.7978230714797974,0
2025-12-05 17:53:17.616064,0.0,0.0,1022.2,84.7,12.1,1.3,6911.6,567.1,26.2,0.00,0.00,0.00,0.00,0,0,0,0,0,0,0,0,0,0,0,0,0,0,0,0,0.0,0.21518896520137787,1.2021753787994385,0.7125601172447205,6.058860098385531,2.0848902904866695,4.242523300479503,0.0,0.0,0.0,0.0,0.0,3.0698555093865867,-2.040662006700084,4.432136428195181,-0.00019191205501556396,-1.5497207641601562e-06,2.2846191227436066,3.7978230714797974,0
2025-12-05 17:53:17.647511,0.0,0.0,1022.2,86.1,12.1,1.3,6911.7,567.1,26.2,0.00,0.00,0.00,0.00,0,0,0,0,0,0,0,0,0,0,0,0,0,0,0,0,0.0,0.2152104526758194,1.2021405696868896,0.7125831842422485,6.055537346836218,2.088583451667592,4.2335247410621815,0.0,0.0,0.0,0.0,0.0,3.0788622717457486,-2.049660566117405,4.432155178689038,-0.00017042458057403564,-3.635883331298828e-05,2.2846191227436066,3.7978230714797974,0
2025-12-05 17:53:17.678804,0.0,0.0,1022.2,84.7,12.1,1.3,6911.8,567.1,26.2,0.00,0.00,0.00,0.00,0,0,0,0,0,0,0,0,0,0,0,0,0,0,0,0,0.0,0.2152104526758194,1.2021405696868896,0.7125831842422485,6.055537346836218,2.088583451667592,4.2335247410621815,0.0,0.0,0.0,0.0,0.0,3.0788622717457486,-2.049660566117405,4.432155178689038,-0.00017042458057403564,-3.635883331298828e-05,2.2846191227436066,3.7978230714797974,0
2025-12-05 17:53:17.709584,0.0,0.0,1019.7,84.5,12.1,1.3,6911.8,567.1,26.2,0.00,0.00,0.00,0.00,0,0,0,0,0,0,0,0,0,0,0,0,0,0,0,0,0.0,0.2152104526758194,1.2021405696868896,0.7125831842422485,6.055537346836218,2.088583451667592,4.2335247410621815,0.0,0.0,0.0,0.0,0.0,3.0788622717457486,-2.049660566117405,4.432155178689038,-0.00017042458057403564,-3.635883331298828e-05,2.2846191227436066,3.7978230714797974,0
2025-12-05 17:53:17.740854,0.0,0.0,1026.6,85.1,12.1,1.3,6911.9,567.1,26.2,0.00,0.00,0.00,0.00,0,0,0,0,0,0,0,0,0,0,0,0,0,0,0,0,0.0,0.2152104526758194,1.2021405696868896,0.7125831842422485,6.055537346836218,2.088583451667592,4.2335247410621815,0.0,0.0,0.0,0.0,0.0,3.0788622717457486,-2.049660566117405,4.432155178689038,-0.00017042458057403564,-3.635883331298828e-05,2.2846191227436066,3.7978230714797974,0
2025-12-05 17:53:17.772176,0.0,0.0,1021.4,84.6,12.1,1.3,6911.9,567.1,26.2,0.00,0.00,0.00,0.00,0,0,0,0,0,0,0,0,0,0,0,0,0,0,0,0,0.0,0.21519654989242554,1.2021808624267578,0.7125508189201355,6.065186080486603,2.0808972362759217,4.2443427938027,0.0,0.0,0.0,0.0,0.0,3.068036844634145,-2.038842513376887,4.432127819382135,-0.0001843273639678955,3.933906555175781e-06,2.2846191227436066,3.7978230714797974,0
2025-12-05 17:53:17.803660,0.0,0.0,1028.0,85.2,12.1,1.3,6912.0,567.1,26.2,0.00,0.00,0.00,0.00,0,0,0,0,0,0,0,0,0,0,0,0,0,0,0,0,0.0,0.21519654989242554,1.2021808624267578,0.7125508189201355,6.065186080486603,2.0808972362759217,4.2443427938027,0.0,0.0,0.0,0.0,0.0,3.068036844634145,-2.038842513376887,4.432127819382135,-0.0001843273639678955,3.933906555175781e-06,2.2846191227436066,3.7978230714797974,0
2025-12-05 17:53:17.835004,0.0,0.0,1018.7,84.4,12.1,1.3,6912.1,567.1,26.2,0.00,0.00,0.00,0.00,0,0,0,0,0,0,0,0,0,0,0,0,0,0,0,0,0.0,0.21519654989242554,1.2021808624267578,0.7125508189201355,6.065186080486603,2.0808972362759217,4.2443427938027,0.0,0.0,0.0,0.0,0.0,3.068036844634145,-2.038842513376887,4.432127819382135,-0.0001843273639678955,3.933906555175781e-06,2.2846191227436066,3.7978230714797974,0
2025-12-05 17:53:17.865755,0.0,0.0,1020.9,84.6,12.1,1.3,6912.1,567.1,26.2,0.00,0.00,0.00,0.00,0,0,0,0,0,0,0,0,0,0,0,0,0,0,0,0,0.0,0.21519654989242554,1.2021808624267578,0.7125508189201355,6.065186080486603,2.0808972362759217,4.2443427938027,0.0,0.0,0.0,0.0,0.0,3.068036844634145,-2.038842513376887,4.432127819382135,-0.0001843273639678955,3.933906555175781e-06,2.2846191227436066,3.7978230714797974,0
2025-12-05 17:53:17.897056,0.0,0.0,1021.9,84.7,12.1,1.3,6912.2,567.1,26.2,0.00,0.00,0.00,0.00,0,0,0,0,0,0,0,0,0,0,0,0,0,0,0,0,0.0,0.21519654989242554,1.2021808624267578,0.7125508189201355,6.065186080486603,2.0808972362759217,4.2443427938027,0.0,0.0,0.0,0.0,0.0,3.068036844634145,-2.038842513376887,4.432127819382135,-0.0001843273639678955,3.933906555175781e-06,2.2846191227436066,3.7978230714797974,0
2025-12-05 17:53:17.927611,0.0,0.0,1024.5,84.9,12.1,1.3,6912.2,567.1,26.2,0.00,0.00,0.00,0.00,0,0,0,0,0,0,0,0,0,0,0,0,0,0,0,0,0.0,0.21519654989242554,1.2021808624267578,0.7125508189201355,6.065186080486603,2.0808972362759217,4.2443427938027,0.0,0.0,0.0,0.0,0.0,3.068036844634145,-2.038842513376887,4.432127819382135,-0.0001843273639678955,3.933906555175781e-06,2.2846191227436066,3.7978230714797974,0
2025-12-05 17:53:17.958916,0.0,0.0,1023.0,84.8,12.1,1.3,6912.3,567.1,26.2,0.00,0.00,0.00,0.00,0,0,0,0,0,0,0,0,0,0,0,0,0,0,0,0,0.0,0.2153788059949875,1.202172040939331,0.7124609351158142,6.05955165581474,2.0936526302109906,4.226283817404449,0.0,0.0,0.0,0.0,0.0,3.0861320842056967,-2.056901489775138,4.432041426557271,-2.0712614059448242e-06,-4.887580871582031e-06,2.2846191227436066,3.7978230714797974,0
2025-12-05 17:53:17.990385,0.0,0.0,1022.2,84.6,12.1,1.3,6912.4,567.1,26.2,0.00,0.00,0.00,0.00,0,0,0,0,0,0,0,0,0,0,0,0,0,0,0,0,0.0,0.2153788059949875,1.202172040939331,0.7124609351158142,6.05955165581474,2.0936526302109906,4.226283817404449,0.0,0.0,0.0,0.0,0.0,3.0861320842056967,-2.056901489775138,4.432041426557271,-2.0712614059448242e-06,-4.887580871582031e-06,2.2846191227436066,3.7978230714797974,0
2025-12-05 17:53:18.021709,0.0,0.0,1023.3,84.8,12.1,1.3,6912.4,567.1,26.2,0.00,0.00,0.00,0.00,0,0,0,0,0,0,0,0,0,0,0,0,0,0,0,0,0.0,0.2153788059949875,1.202172040939331,0.7124609351158142,6.05955165581474,2.0936526302109906,4.226283817404449,0.0,0.0,0.0,0.0,0.0,3.0861320842056967,-2.056901489775138,4.432041426557271,-2.0712614059448242e-06,-4.887580871582031e-06,2.2846191227436066,3.7978230714797974,0
2025-12-05 17:53:18.053066,0.0,0.0,1024.8,84.9,12.1,1.3,6912.5,567.1,26.2,0.00,0.00,0.00,0.00,0,0,0,0,0,0,0,0,0,0,0,0,0,0,0,0,0.0,0.2153788059949875,1.202172040939331,0.7124609351158142,6.05955165581474,2.0936526302109906,4.226283817404449,0.0,0.0,0.0,0.0,0.0,3.0861320842056967,-2.056901489775138,4.432041426557271,-2.0712614059448242e-06,-4.887580871582031e-06,2.2846191227436066,3.7978230714797974,0
2025-12-05 17:53:18.084258,0.0,0.0,1021.2,84.6,12.1,1.3,6912.5,567.1,26.2,0.00,0.00,0.00,0.00,0,0,0,0,0,0,0,0,0,0,0,0,0,0,0,0,0.0,0.21537987887859344,1.2021772861480713,0.7124686241149902,6.069804511494462,2.093622404972631,4.226821842685025,0.0,0.0,0.0,0.0,0.0,3.0855936563033084,-2.0563634644945616,4.432036378876241,-9.98377799987793e-07,3.5762786865234375e-07,2.2846191227436066,3.7978230714797974,0
2025-12-05 17:53:18.115019,0.0,0.0,1024.4,84.9,12.1,1.3,6912.6,567.1,26.2,0.00,0.00,0.00,0.00,0,0,0,0,0,0,0,0,0,0,0,0,0,0,0,0,0.0,0.21537987887859344,1.2021772861480713,0.7124686241149902,6.069804511494462,2.093622404972631,4.226821842685025,0.0,0.0,0.0,0.0,0.0,3.0855936563033084,-2.0563634644945616,4.432036378876241,-9.98377799987793e-07,3.5762786865234375e-07,2.2846191227436066,3.7978230714797974,0
2025-12-05 17:53:18.146429,0.0,0.0,1021.6,84.7,12.1,1.3,6912.7,567.2,26.2,0.00,0.00,0.00,0.00,0,0,0,0,0,0,0,0,0,0,0,0,0,0,0,0,0.0,0.21537987887859344,1.2021772861480713,0.7124686241149902,6.069804511494462,2.093622404972631,4.226821842685025,0.0,0.0,0.0,0.0,0.0,3.0855936563033084,-2.0563634644945616,4.432036378876241,-9.98377799987793e-07,3.5762786865234375e-07,2.2846191227436066,3.7978230714797974,0
2025-12-05 17:53:18.177048,0.0,0.0,1020.4,84.6,12.1,1.3,6912.7,567.2,26.2,0.00,0.00,0.00,0.00,0,0,0,0,0,0,0,0,0,0,0,0,0,0,0,0,0.0,0.21538770198822021,1.2021540403366089,0.7124873995780945,6.063519519211353,2.0962820009998873,4.2191462903283945,0.0,0.0,0.0,0.0,0.0,3.0932734248469207,-2.064039016851192,4.432052265661835,6.8247318267822266e-06,-2.288818359375e-05,2.2846191227436066,3.7978230714797974,0
2025-12-05 17:53:18.208354,0.0,0.0,1029.0,84.5,12.1,1.3,6912.8,567.2,26.2,0.00,0.00,0.00,0.00,0,0,0,0,0,0,0,0,0,0,0,0,0,0,0,0,0.0,0.21538770198822021,1.2021540403366089,0.7124873995780945,6.063519519211353,2.0962820009998873,4.2191462903283945,0.0,0.0,0.0,0.0,0.0,3.0932734248469207,-2.064039016851192,4.432052265661835,6.8247318267822266e-06,-2.288818359375e-05,2.2846191227436066,3.7978230714797974,0
2025-12-05 17:53:18.239661,0.0,0.0,1022.2,84.7,12.1,1.3,6912.8,567.2,26.2,0.00,0.00,0.00,0.00,0,0,0,0,0,0,0,0,0,0,0,0,0,0,0,0,0.0,0.21538770198822021,1.2021540403366089,0.7124873995780945,6.063519519211353,2.0962820009998873,4.2191462903283945,0.0,0.0,0.0,0.0,0.0,3.0932734248469207,-2.064039016851192,4.432052265661835,6.8247318267822266e-06,-2.288818359375e-05,2.2846191227436066,3.7978230714797974,0
2025-12-05 17:53:18.270497,0.0,0.0,1022.5,84.7,12.1,1.3,6912.9,567.2,26.2,0.00,0.00,0.00,0.00,0,0,0,0,0,0,0,0,0,0,0,0,0,0,0,0,0.0,0.2153577208518982,1.2021771669387817,0.7124584913253784,6.057831111300376,2.094285745871751,4.228127386292654,0.0,0.0,0.0,0.0,0.0,3.0842838424762813,-2.055057920886933,4.432047903057025,-2.3156404495239258e-05,2.384185791015625e-07,2.2846191227436066,3.7978230714797974,0
2025-12-05 17:53:18.301726,0.0,0.0,1027.4,85.2,12.1,1.3,6912.9,567.2,26.2,0.00,0.00,0.00,0.00,0,0,0,0,0,0,0,0,0,0,0,0,0,0,0,0,0.0,0.2153577208518982,1.2021771669387817,0.7124584913253784,6.057831111300376,2.094285745871751,4.228127386292654,0.0,0.0,0.0,0.0,0.0,3.0842838424762813,-2.055057920886933,4.432047903057025,-2.3156404495239258e-05,2.384185791015625e-07,2.2846191227436066,3.7978230714797974,0
2025-12-05 17:53:18.332332,0.0,0.0,1024.1,84.9,12.1,1.3,6913.0,567.2,26.2,0.00,0.00,0.00,0.00,0,0,0,0,0,0,0,0,0,0,0,0,0,0,0,0,0.0,0.2153577208518982,1.2021771669387817,0.7124584913253784,6.057831111300376,2.094285745871751,4.228127386292654,0.0,0.0,0.0,0.0,0.0,3.0842838424762813,-2.055057920886933,4.432047903057025,-2.3156404495239258e-05,2.384185791015625e-07,2.2846191227436066,3.7978230714797974,0
2025-12-05 17:53:18.363265,0.0,0.0,1022.7,84.8,12.1,1.3,6913.1,567.2,26.2,0.00,0.00,0.00,0.00,0,0,0,0,0,0,0,0,0,0,0,0,0,0,0,0,0.0,0.2153577208518982,1.2021771669387817,0.7124584913253784,6.057831111300376,2.094285745871751,4.228127386292654,0.0,0.0,0.0,0.0,0.0,3.0842838424762813,-2.055057920886933,4.432047903057025,-2.3156404495239258e-05,2.384185791015625e-07,2.2846191227436066,3.7978230714797974,0
2025-12-05 17:53:18.394743,0.0,0.0,1018.0,84.4,12.1,1.3,6913.1,567.2,26.2,0.00,0.00,0.00,0.00,0,0,0,0,0,0,0,0,0,0,0,0,0,0,0,0,0.0,0.2153739184141159,1.202176809310913,0.7124873399734497,6.066359345608553,2.094069614378153,4.2266744154535,0.0,0.0,0.0,0.0,0.0,3.085739986582361,-2.0565108917260866,4.432039859973995,-6.9588422775268555e-06,-1.1920928955078125e-07,2.2846191227436066,3.7978230714797974,0
2025-12-05 17:53:18.426071,0.0,0.0,1027.5,85.2,12.1,1.3,6913.2,567.2,26.2,0.00,0.00,0.00,0.00,0,0,0,0,0,0,0,0,0,0,0,0,0,0,0,0,0.0,0.2153739184141159,1.202176809310913,0.7124873399734497,6.066359345608553,2.094069614378153,4.2266744154535,0.0,0.0,0.0,0.0,0.0,3.085739986582361,-2.0565108917260866,4.432039859973995,-6.9588422775268555e-06,-1.1920928955078125e-07,2.2846191227436066,3.7978230714797974,0
2025-12-05 17:53:18.457574,0.0,0.0,1021.2,84.6,12.1,1.3,6913.2,567.2,26.2,0.00,0.00,0.00,0.00,0,0,0,0,0,0,0,0,0,0,0,0,0,0,0,0,0.0,0.2153739184141159,1.202176809310913,0.7124873399734497,6.066359345608553,2.094069614378153,4.2266744154535,0.0,0.0,0.0,0.0,0.0,3.085739986582361,-2.0565108917260866,4.432039859973995,-6.9588422775268555e-06,-1.1920928955078125e-07,2.2846191227436066,3.7978230714797974,0
2025-12-05 17:53:18.488201,0.0,0.0,1025.4,84.7,12.1,1.3,6913.3,567.2,26.2,0.00,0.00,0.00,0.00,0,0,0,0,0,0,0,0,0,0,0,0,0,0,0,0,0.0,0.21536259353160858,1.2021676301956177,0.7124779224395752,6.062537209670203,2.0962557651707354,4.226022518955231,0.0,0.0,0.0,0.0,0.0,3.086390761102698,-2.0571627882243555,4.432053563323506,-1.8283724784851074e-05,-9.298324584960938e-06,2.2846191227436066,3.7978230714797974,0
2025-12-05 17:53:18.518860,0.0,0.0,1025.5,85.0,12.1,1.3,6913.4,567.2,26.2,0.00,0.00,0.00,0.00,0,0,0,0,0,0,0,0,0,0,0,0,0,0,0,0,0.0,0.21536259353160858,1.2021676301956177,0.7124779224395752,6.062537209670203,2.0962557651707354,4.226022518955231,0.0,0.0,0.0,0.0,0.0,3.086390761102698,-2.0571627882243555,4.432053563323506,-1.8283724784851074e-05,-9.298324584960938e-06,2.2846191227436066,3.7978230714797974,0
