Timestamp,forward_vel_cmd,steering_vel_cmd,power_mW,current_mA,busVoltage_V,shuntVoltage_mV,energy,charge,dieTemp,Left_Stick_X,Left_Stick_Y,Right_Stick_X,Right_Stick_Y,Button_0,Button_1,Button_2,Button_3,Button_4,Button_5,Button_6,Button_7,Button_8,Button_9,Button_10,Button_11,Button_12,Button_13,Button_14,Button_15,mocap_velocity,mocap_x,mocap_y,mocap_z,mocap_roll,mocap_pitch,mocap_yaw_raw,forward_vel_cmd,steering_vel_cmd,left_wheel_vel,right_wheel_vel,ppo_control_active,heading_error_rad,current_heading_rad,distance_to_target,relative_x,relative_y,target_relative_x,target_relative_y,current_waypoint_idx
2025-12-05 17:53:24.065510,0.0,0.0,1021.8,84.7,12.1,1.3,6924.1,568.1,26.2,0.00,0.00,0.00,0.00,0,0,0,0,0,0,0,0,0,0,0,0,0,0,0,0,0.0,0.21537166833877563,1.202170729637146,0.71246737241745,6.061975121375072,2.0947355546365043,4.2239896738104346,0.0,0.0,0.0,0.0,0.0,3.088425000301557,-2.059195633369152,4.432046229525816,-9.208917617797852e-06,-6.198883056640625e-06,2.2846191227436066,3.7978230714797974,0
2025-12-05 17:53:24.096293,0.0,0.0,1026.4,85.1,12.1,1.3,6924.2,568.1,26.2,0.00,0.00,0.00,0.00,0,0,0,0,0,0,0,0,0,0,0,0,0,0,0,0,0.0,0.21536920964717865,1.2021682262420654,0.7124693393707275,6.062912073856429,2.093968332742146,4.225455671480601,0.0,0.0,0.0,0.0,0.0,3.0869588184255883,-2.0577296356989856,4.4320496420948965,-1.1667609214782715e-05,-8.702278137207031e-06,2.2846191227436066,3.7978230714797974,0
2025-12-05 17:53:24.127397,0.0,0.0,1022.5,84.7,12.1,1.3,6924.2,568.1,26.2,0.00,0.00,0.00,0.00,0,0,0,0,0,0,0,0,0,0,0,0,0,0,0,0,0.0,0.21536920964717865,1.2021682262420654,0.7124693393707275,6.062912073856429,2.093968332742146,4.225455671480601,0.0,0.0,0.0,0.0,0.0,3.0869588184255883,-2.0577296356989856,4.4320496420948965,-1.1667609214782715e-05,-8.702278137207031e-06,2.2846191227436066,3.7978230714797974,0
2025-12-05 17:53:24.158443,0.0,0.0,1030.8,85.4,12.1,1.3,6924.3,568.1,26.2,0.00,0.00,0.00,0.00,0,0,0,0,0,0,0,0,0,0,0,0,0,0,0,0,0.0,0.21536920964717865,1.2021682262420654,0.7124693393707275,6.062912073856429,2.093968332742146,4.225455671480601,0.0,0.0,0.0,0.0,0.0,3.0869588184255883,-2.0577296356989856,4.4320496420948965,-1.1667609214782715e-05,-8.702278137207031e-06,2.2846191227436066,3.7978230714797974,0
2025-12-05 17:53:24.190057,0.0,0.0,1031.2,85.5,12.1,1.3,6924.4,568.1,26.2,0.00,0.00,0.00,0.00,0,0,0,0,0,0,0,0,0,0,0,0,0,0,0,0,0.0,0.21536920964717865,1.2021682262420654,0.7124693393707275,6.062912073856429,2.093968332742146,4.225455671480601,0.0,0.0,0.0,0.0,0.0,3.0869588184255883,-2.0577296356989856,4.4320496420948965,-1.1667609214782715e-05,-8.702278137207031e-06,2.2846191227436066,3.7978230714797974,0
2025-12-05 17:53:24.221412,0.0,0.0,1029.5,85.3,12.1,1.3,6924.4,568.1,26.2,0.00,0.00,0.00,0.00,0,0,0,0,0,0,0,0,0,0,0,0,0,0,0,0,0.0,0.21519017219543457,1.2021479606628418,0.7125757336616516,6.05231396996477,2.0873068200192995,4.238124735363668,0.0,0.0,0.0,0.0,0.0,3.074257496892786,-2.045060571815919,4.432159300152662,-0.0001907050609588623,-2.8967857360839844e-05,2.2846191227436066,3.7978230714797974,0
2025-12-05 17:53:24.252465,0.0,0.0,1017.6,84.3,12.1,1.3,6924.5,568.1,26.2,0.00,0.00,0.00,0.00,0,0,0,0,0,0,0,0,0,0,0,0,0,0,0,0,0.0,0.21519017219543457,1.2021479606628418,0.7125757336616516,6.05231396996477,2.0873068200192995,4.238124735363668,0.0,0.0,0.0,0.0,0.0,3.074257496892786,-2.045060571815919,4.432159300152662,-0.0001907050609588623,-2.8967857360839844e-05,2.2846191227436066,3.7978230714797974,0
2025-12-05 17:53:24.283105,0.0,0.0,1019.2,84.5,12.1,1.3,6924.5,568.1,26.2,0.00,0.00,0.00,0.00,0,0,0,0,0,0,0,0,0,0,0,0,0,0,0,0,0.0,0.21519017219543457,1.2021479606628418,0.7125757336616516,6.05231396996477,2.0873068200192995,4.238124735363668,0.0,0.0,0.0,0.0,0.0,3.074257496892786,-2.045060571815919,4.432159300152662,-0.0001907050609588623,-2.8967857360839844e-05,2.2846191227436066,3.7978230714797974,0
2025-12-05 17:53:24.314230,0.0,0.0,1021.2,87.8,12.1,1.3,6924.6,568.1,26.2,0.00,0.00,0.00,0.00,0,0,0,0,0,0,0,0,0,0,0,0,0,0,0,0,0.0,0.21516631543636322,1.2021598815917969,0.7125611901283264,6.048662060104363,2.0869914297549004,4.242035508240276,0.0,0.0,0.0,0.0,0.0,3.0703407251755648,-2.0411497989393106,4.432161383693906,-0.0002145618200302124,-1.704692840576172e-05,2.2846191227436066,3.7978230714797974,0
2025-12-05 17:53:24.345707,0.0,0.0,1023.2,84.8,12.1,1.3,6924.7,568.1,26.2,0.00,0.00,0.00,0.00,0,0,0,0,0,0,0,0,0,0,0,0,0,0,0,0,0.0,0.21516631543636322,1.2021598815917969,0.7125611901283264,6.048662060104363,2.0869914297549004,4.242035508240276,0.0,0.0,0.0,0.0,0.0,3.0703407251755648,-2.0411497989393106,4.432161383693906,-0.0002145618200302124,-1.704692840576172e-05,2.2846191227436066,3.7978230714797974,0
2025-12-05 17:53:24.376349,0.0,0.0,1020.4,84.6,12.1,1.3,6924.7,568.2,26.2,0.00,0.00,0.00,0.00,0,0,0,0,0,0,0,0,0,0,0,0,0,0,0,0,0.0,0.21516631543636322,1.2021598815917969,0.7125611901283264,6.048662060104363,2.0869914297549004,4.242035508240276,0.0,0.0,0.0,0.0,0.0,3.0703407251755648,-2.0411497989393106,4.432161383693906,-0.0002145618200302124,-1.704692840576172e-05,2.2846191227436066,3.7978230714797974,0
2025-12-05 17:53:24.407773,0.0,0.0,1017.6,84.3,12.1,1.3,6924.8,568.2,26.2,0.00,0.00,0.00,0.00,0,0,0,0,0,0,0,0,0,0,0,0,0,0,0,0,0.0,0.2153538465499878,1.202170491218567,0.7124645113945007,6.055664875750117,2.0946167968945684,4.225250038460144,0.0,0.0,0.0,0.0,0.0,3.087161217683332,-2.0579352687194423,4.43205562061725,-2.703070640563965e-05,-6.4373016357421875e-06,2.2846191227436066,3.7978230714797974,0
2025-12-05 17:53:24.439101,0.0,0.0,1022.5,84.8,12.1,1.3,6924.8,568.2,26.2,0.00,0.00,0.00,0.00,0,0,0,0,0,0,0,0,0,0,0,0,0,0,0,0,0.0,0.2153538465499878,1.202170491218567,0.7124645113945007,6.055664875750117,2.0946167968945684,4.225250038460144,0.0,0.0,0.0,0.0,0.0,3.087161217683332,-2.0579352687194423,4.43205562061725,-2.703070640563965e-05,-6.4373016357421875e-06,2.2846191227436066,3.7978230714797974,0
2025-12-05 17:53:24.469842,0.0,0.0,1039.6,86.2,12.1,1.3,6924.9,568.2,26.2,0.00,0.00,0.00,0.00,0,0,0,0,0,0,0,0,0,0,0,0,0,0,0,0,0.0,0.2153538465499878,1.202170491218567,0.7124645113945007,6.055664875750117,2.0946167968945684,4.225250038460144,0.0,0.0,0.0,0.0,0.0,3.087161217683332,-2.0579352687194423,4.43205562061725,-2.703070640563965e-05,-6.4373016357421875e-06,2.2846191227436066,3.7978230714797974,0
2025-12-05 17:53:24.500851,0.0,0.0,1027.4,85.2,12.1,1.3,6925.0,568.2,26.2,0.00,0.00,0.00,0.00,0,0,0,0,0,0,0,0,0,0,0,0,0,0,0,0,0.0,0.2153538465499878,1.202170491218567,0.7124645113945007,6.055664875750117,2.0946167968945684,4.225250038460144,0.0,0.0,0.0,0.0,0.0,3.087161217683332,-2.0579352687194423,4.43205562061725,-2.703070640563965e-05,-6.4373016357421875e-06,2.2846191227436066,3.7978230714797974,0
2025-12-05 17:53:24.532209,0.0,0.0,1019.3,84.5,12.1,1.3,6925.0,568.2,26.2,0.00,0.00,0.00,0.00,0,0,0,0,0,0,0,0,0,0,0,0,0,0,0,0,0.0,0.2153485119342804,1.202185034751892,0.7124617099761963,6.055369186343923,2.0922578814457187,4.227511193754266,0.0,0.0,0.0,0.0,0.0,3.0848973394554946,-2.055674113425321,4.432045908176425,-3.236532211303711e-05,8.106231689453125e-06,2.2846191227436066,3.7978230714797974,0
2025-12-05 17:53:24.562835,0.0,0.0,1023.8,85.6,12.1,1.3,6925.1,568.2,26.2,0.00,0.00,0.00,0.00,0,0,0,0,0,0,0,0,0,0,0,0,0,0,0,0,0.0,0.2153485119342804,1.202185034751892,0.7124617099761963,6.055369186343923,2.0922578814457187,4.227511193754266,0.0,0.0,0.0,0.0,0.0,3.0848973394554946,-2.055674113425321,4.432045908176425,-3.236532211303711e-05,8.106231689453125e-06,2.2846191227436066,3.7978230714797974,0
2025-12-05 17:53:24.594139,0.0,0.0,1027.9,85.2,12.1,1.3,6925.1,568.2,26.2,0.00,0.00,0.00,0.00,0,0,0,0,0,0,0,0,0,0,0,0,0,0,0,0,0.0,0.2153485119342804,1.202185034751892,0.7124617099761963,6.055369186343923,2.0922578814457187,4.227511193754266,0.0,0.0,0.0,0.0,0.0,3.0848973394554946,-2.055674113425321,4.432045908176425,-3.236532211303711e-05,8.106231689453125e-06,2.2846191227436066,3.7978230714797974,0
2025-12-05 17:53:24.625485,0.0,0.0,1037.5,84.5,12.1,1.3,6925.2,568.2,26.2,0.00,0.00,0.00,0.00,0,0,0,0,0,0,0,0,0,0,0,0,0,0,0,0,0.0,0.21537023782730103,1.2021576166152954,0.712480902671814,6.057513036409869,2.0998891084904177,4.223134475009685,0.0,0.0,0.0,0.0,0.0,3.0892814476607984,-2.060050832169902,4.432058203503029,-1.0639429092407227e-05,-1.9311904907226562e-05,2.2846191227436066,3.7978230714797974,0
2025-12-05 17:53:24.655859,0.0,0.0,1024.5,84.9,12.1,1.3,6925.3,568.2,26.2,0.00,0.00,0.00,0.00,0,0,0,0,0,0,0,0,0,0,0,0,0,0,0,0,0.0,0.21537023782730103,1.2021576166152954,0.712480902671814,6.057513036409869,2.0998891084904177,4.223134475009685,0.0,0.0,0.0,0.0,0.0,3.0892814476607984,-2.060050832169902,4.432058203503029,-1.0639429092407227e-05,-1.9311904907226562e-05,2.2846191227436066,3.7978230714797974,0
2025-12-05 17:53:24.686675,0.0,0.0,1032.9,85.6,12.1,1.3,6925.3,568.2,26.2,0.00,0.00,0.00,0.00,0,0,0,0,0,0,0,0,0,0,0,0,0,0,0,0,0.0,0.21537023782730103,1.2021576166152954,0.712480902671814,6.057513036409869,2.0998891084904177,4.223134475009685,0.0,0.0,0.0,0.0,0.0,3.0892814476607984,-2.060050832169902,4.432058203503029,-1.0639429092407227e-05,-1.9311904907226562e-05,2.2846191227436066,3.7978230714797974,0
2025-12-05 17:53:24.717531,0.0,0.0,1022.9,84.8,12.1,1.3,6925.4,568.2,26.2,0.00,0.00,0.00,0.00,0,0,0,0,0,0,0,0,0,0,0,0,0,0,0,0,0.0,0.21536484360694885,1.2021831274032593,0.7124685645103455,6.067481032399832,2.0904504196919964,4.22700945691818,0.0,0.0,0.0,0.0,0.0,3.085402455729285,-2.0561758502614063,4.432039123880518,-1.6033649444580078e-05,6.198883056640625e-06,2.2846191227436066,3.7978230714797974,0
2025-12-05 17:53:24.749304,0.0,0.0,1018.3,84.4,12.1,1.3,6925.4,568.2,26.2,0.00,0.00,0.00,0.00,0,0,0,0,0,0,0,0,0,0,0,0,0,0,0,0,0.0,0.21536484360694885,1.2021831274032593,0.7124685645103455,6.067481032399832,2.0904504196919964,4.22700945691818,0.0,0.0,0.0,0.0,0.0,3.085402455729285,-2.0561758502614063,4.432039123880518,-1.6033649444580078e-05,6.198883056640625e-06,2.2846191227436066,3.7978230714797974,0
2025-12-05 17:53:24.780248,0.0,0.0,1025.5,85.0,12.1,1.3,6925.5,568.2,26.2,0.00,0.00,0.00,0.00,0,0,0,0,0,0,0,0,0,0,0,0,0,0,0,0,0.0,0.21536484360694885,1.2021831274032593,0.7124685645103455,6.067481032399832,2.0904504196919964,4.22700945691818,0.0,0.0,0.0,0.0,0.0,3.085402455729285,-2.0561758502614063,4.432039123880518,-1.6033649444580078e-05,6.198883056640625e-06,2.2846191227436066,3.7978230714797974,0
2025-12-05 17:53:24.811103,0.0,0.0,1029.7,85.3,12.1,1.3,6925.6,568.2,26.2,0.00,0.00,0.00,0.00,0,0,0,0,0,0,0,0,0,0,0,0,0,0,0,0,0.0,0.21536484360694885,1.2021831274032593,0.7124685645103455,6.067481032399832,2.0904504196919964,4.22700945691818,0.0,0.0,0.0,0.0,0.0,3.085402455729285,-2.0561758502614063,4.432039123880518,-1.6033649444580078e-05,6.198883056640625e-06,2.2846191227436066,3.7978230714797974,0
2025-12-05 17:53:24.841560,0.0,0.0,1017.2,84.3,12.1,1.3,6925.6,568.2,26.2,0.00,0.00,0.00,0.00,0,0,0,0,0,0,0,0,0,0,0,0,0,0,0,0,0.0,0.21536770462989807,1.2021561861038208,0.7124736309051514,6.059411791479276,2.096411729561901,4.22107381299301,0.0,0.0,0.0,0.0,0.0,3.0913417862825483,-2.062111494186576,4.432060735120576,-1.3172626495361328e-05,-2.0742416381835938e-05,2.2846191227436066,3.7978230714797974,0
2025-12-05 17:53:24.871794,0.0,0.0,1020.0,84.5,12.1,1.3,6925.7,568.2,26.2,0.00,0.00,0.00,0.00,0,0,0,0,0,0,0,0,0,0,0,0,0,0,0,0,0.0,0.21536770462989807,1.2021561861038208,0.7124736309051514,6.059411791479276,2.096411729561901,4.22107381299301,0.0,0.0,0.0,0.0,0.0,3.0913417862825483,-2.062111494186576,4.432060735120576,-1.3172626495361328e-05,-2.0742416381835938e-05,2.2846191227436066,3.7978230714797974,0
2025-12-05 17:53:24.902877,0.0,0.0,1024.9,85.0,12.1,1.3,6925.7,568.2,26.2,0.00,0.00,0.00,0.00,0,0,0,0,0,0,0,0,0,0,0,0,0,0,0,0,0.0,0.21536770462989807,1.2021561861038208,0.7124736309051514,6.059411791479276,2.096411729561901,4.22107381299301,0.0,0.0,0.0,0.0,0.0,3.0913417862825483,-2.062111494186576,4.432060735120576,-1.3172626495361328e-05,-2.0742416381835938e-05,2.2846191227436066,3.7978230714797974,0
2025-12-05 17:53:24.933998,0.0,0.0,1021.1,84.6,12.1,1.3,6925.8,568.2,26.2,0.00,0.00,0.00,0.00,0,0,0,0,0,0,0,0,0,0,0,0,0,0,0,0,0.0,0.21518422663211823,1.202140212059021,0.7125755548477173,6.056408830426189,2.088863347886923,4.238445186433578,0.0,0.0,0.0,0.0,0.0,3.0739367975911516,-2.0447401207460083,4.432169004797738,-0.00019665062427520752,-3.6716461181640625e-05,2.2846191227436066,3.7978230714797974,0
2025-12-05 17:53:24.965178,0.0,0.0,1033.4,85.4,12.1,1.3,6925.9,568.2,26.2,0.00,0.00,0.00,0.00,0,0,0,0,0,0,0,0,0,0,0,0,0,0,0,0,0.0,0.21518422663211823,1.202140212059021,0.7125755548477173,6.056408830426189,2.088863347886923,4.238445186433578,0.0,0.0,0.0,0.0,0.0,3.0739367975911516,-2.0447401207460083,4.432169004797738,-0.00019665062427520752,-3.6716461181640625e-05,2.2846191227436066,3.7978230714797974,0
2025-12-05 17:53:24.996371,0.0,0.0,1032.8,85.6,12.1,1.3,6925.9,568.3,26.2,0.00,0.00,0.00,0.00,0,0,0,0,0,0,0,0,0,0,0,0,0,0,0,0,0.0,0.21518422663211823,1.202140212059021,0.7125755548477173,6.056408830426189,2.088863347886923,4.238445186433578,0.0,0.0,0.0,0.0,0.0,3.0739367975911516,-2.0447401207460083,4.432169004797738,-0.00019665062427520752,-3.6716461181640625e-05,2.2846191227436066,3.7978230714797974,0
2025-12-05 17:53:25.028047,0.0,0.0,1034.5,85.7,12.1,1.3,6926.0,568.3,26.2,0.00,0.00,0.00,0.00,0,0,0,0,0,0,0,0,0,0,0,0,0,0,0,0,0.0,0.2151973396539688,1.2021595239639282,0.7125673890113831,6.065544611941436,2.0810158124359113,4.2401898133744975,0.0,0.0,0.0,0.0,0.0,3.07219245965797,-2.0429954938050887,4.432145696854087,-0.00018353760242462158,-1.7404556274414062e-05,2.2846191227436066,3.7978230714797974,0
2025-12-05 17:53:25.058940,0.0,0.0,1026.6,85.1,12.1,1.3,6926.0,568.3,26.2,0.00,0.00,0.00,0.00,0,0,0,0,0,0,0,0,0,0,0,0,0,0,0,0,0.0,0.2151973396539688,1.2021595239639282,0.7125673890113831,6.065544611941436,2.0810158124359113,4.2401898133744975,0.0,0.0,0.0,0.0,0.0,3.07219245965797,-2.0429954938050887,4.432145696854087,-0.00018353760242462158,-1.7404556274414062e-05,2.2846191227436066,3.7978230714797974,0
2025-12-05 17:53:25.090003,0.0,0.0,1025.5,85.0,12.1,1.3,6926.1,568.3,26.2,0.00,0.00,0.00,0.00,0,0,0,0,0,0,0,0,0,0,0,0,0,0,0,0,0.0,0.2151973396539688,1.2021595239639282,0.7125673890113831,6.065544611941436,2.0810158124359113,4.2401898133744975,0.0,0.0,0.0,0.0,0.0,3.07219245965797,-2.0429954938050887,4.432145696854087,-0.00018353760242462158,-1.7404556274414062e-05,2.2846191227436066,3.7978230714797974,0
2025-12-05 17:53:25.121492,0.0,0.0,1030.5,85.4,12.1,1.3,6926.2,568.3,26.2,0.00,0.00,0.00,0.00,0,0,0,0,0,0,0,0,0,0,0,0,0,0,0,0,0.0,0.2151973396539688,1.2021595239639282,0.7125673890113831,6.065544611941436,2.0810158124359113,4.2401898133744975,0.0,0.0,0.0,0.0,0.0,3.07219245965797,-2.0429954938050887,4.432145696854087,-0.00018353760242462158,-1.7404556274414062e-05,2.2846191227436066,3.7978230714797974,0
2025-12-05 17:53:25.152891,0.0,0.0,1025.9,85.0,12.1,1.3,6926.2,568.3,26.2,0.00,0.00,0.00,0.00,0,0,0,0,0,0,0,0,0,0,0,0,0,0,0,0,0.0,0.2151997834444046,1.2021777629852295,0.7125778198242188,6.079067156144507,2.077812956457567,4.245553548581183,0.0,0.0,0.0,0.0,0.0,3.0668270755151745,-2.0376317585984034,4.432128808319583,-0.00018109381198883057,8.344650268554688e-07,2.2846191227436066,3.7978230714797974,0
2025-12-05 17:53:25.183829,0.0,0.0,1029.8,85.3,12.1,1.3,6926.3,568.3,26.2,0.00,0.00,0.00,0.00,0,0,0,0,0,0,0,0,0,0,0,0,0,0,0,0,0.0,0.2151997834444046,1.2021777629852295,0.7125778198242188,6.079067156144507,2.077812956457567,4.245553548581183,0.0,0.0,0.0,0.0,0.0,3.0668270755151745,-2.0376317585984034,4.432128808319583,-0.00018109381198883057,8.344650268554688e-07,2.2846191227436066,3.7978230714797974,0
2025-12-05 17:53:25.215176,0.0,0.0,1023.4,84.8,12.1,1.3,6926.3,568.3,26.2,0.00,0.00,0.00,0.00,0,0,0,0,0,0,0,0,0,0,0,0,0,0,0,0,0.0,0.2151997834444046,1.2021777629852295,0.7125778198242188,6.079067156144507,2.077812956457567,4.245553548581183,0.0,0.0,0.0,0.0,0.0,3.0668270755151745,-2.0376317585984034,4.432128808319583,-0.00018109381198883057,8.344650268554688e-07,2.2846191227436066,3.7978230714797974,0
2025-12-05 17:53:25.246692,0.0,0.0,1025.1,85.0,12.1,1.3,6926.4,568.3,26.2,0.00,0.00,0.00,0.00,0,0,0,0,0,0,0,0,0,0,0,0,0,0,0,0,0.0,0.215372696518898,1.2021632194519043,0.7124835848808289,6.0678793094821035,2.095742482177343,4.223239895672391,0.0,0.0,0.0,0.0,0.0,3.0891758507182883,-2.059945411507196,4.432052135015478,-8.180737495422363e-06,-1.3709068298339844e-05,2.2846191227436066,3.7978230714797974,0
2025-12-05 17:53:25.277475,0.0,0.0,1019.9,84.5,12.1,1.3,6926.5,568.3,26.2,0.00,0.00,0.00,0.00,0,0,0,0,0,0,0,0,0,0,0,0,0,0,0,0,0.0,0.215372696518898,1.2021632194519043,0.7124835848808289,6.0678793094821035,2.095742482177343,4.223239895672391,0.0,0.0,0.0,0.0,0.0,3.0891758507182883,-2.059945411507196,4.432052135015478,-8.180737495422363e-06,-1.3709068298339844e-05,2.2846191227436066,3.7978230714797974,0
2025-12-05 17:53:25.308773,0.0,0.0,1028.1,85.2,12.1,1.3,6926.5,568.3,26.2,0.00,0.00,0.00,0.00,0,0,0,0,0,0,0,0,0,0,0,0,0,0,0,0,0.0,0.215372696518898,1.2021632194519043,0.7124835848808289,6.0678793094821035,2.095742482177343,4.223239895672391,0.0,0.0,0.0,0.0,0.0,3.0891758507182883,-2.059945411507196,4.432052135015478,-8.180737495422363e-06,-1.3709068298339844e-05,2.2846191227436066,3.7978230714797974,0
2025-12-05 17:53:25.340050,0.0,0.0,1024.8,85.0,12.1,1.3,6926.6,568.3,26.2,0.00,0.00,0.00,0.00,0,0,0,0,0,0,0,0,0,0,0,0,0,0,0,0,0.0,0.21517819166183472,1.2021644115447998,0.7125729322433472,6.06168244308871,2.0853083917632373,4.246353333577757,0.0,0.0,0.0,0.0,0.0,3.066024669019427,-2.03683197360183,4.432151379724584,-0.00020268559455871582,-1.2516975402832031e-05,2.2846191227436066,3.7978230714797974,0
2025-12-05 17:53:25.371632,0.0,0.0,1024.5,84.7,12.1,1.3,6926.6,568.3,26.2,0.00,0.00,0.00,0.00,0,0,0,0,0,0,0,0,0,0,0,0,0,0,0,0,0.0,0.21517819166183472,1.2021644115447998,0.7125729322433472,6.06168244308871,2.0853083917632373,4.246353333577757,0.0,0.0,0.0,0.0,0.0,3.066024669019427,-2.03683197360183,4.432151379724584,-0.00020268559455871582,-1.2516975402832031e-05,2.2846191227436066,3.7978230714797974,0
2025-12-05 17:53:25.403041,0.0,0.0,1023.6,84.8,12.1,1.3,6926.7,568.3,26.2,0.00,0.00,0.00,0.00,0,0,0,0,0,0,0,0,0,0,0,0,0,0,0,0,0.0,0.21517819166183472,1.2021644115447998,0.7125729322433472,6.06168244308871,2.0853083917632373,4.246353333577757,0.0,0.0,0.0,0.0,0.0,3.066024669019427,-2.03683197360183,4.432151379724584,-0.00020268559455871582,-1.2516975402832031e-05,2.2846191227436066,3.7978230714797974,0
2025-12-05 17:53:25.433717,0.0,0.0,1025.3,85.0,12.1,1.3,6926.8,568.3,26.2,0.00,0.00,0.00,0.00,0,0,0,0,0,0,0,0,0,0,0,0,0,0,0,0,0.0,0.21517819166183472,1.2021644115447998,0.7125729322433472,6.06168244308871,2.0853083917632373,4.246353333577757,0.0,0.0,0.0,0.0,0.0,3.066024669019427,-2.03683197360183,4.432151379724584,-0.00020268559455871582,-1.2516975402832031e-05,2.2846191227436066,3.7978230714797974,0
2025-12-05 17:53:25.464381,0.0,0.0,1020.3,84.6,12.1,1.3,6926.8,568.3,26.2,0.00,0.00,0.00,0.00,0,0,0,0,0,0,0,0,0,0,0,0,0,0,0,0,0.0,0.21520419418811798,1.2021528482437134,0.7125803232192993,6.061773270543346,2.08802626388612,4.239720814714287,0.0,0.0,0.0,0.0,0.0,3.072663559992372,-2.0434644924652994,4.432147883629212,-0.00017668306827545166,-2.4080276489257812e-05,2.2846191227436066,3.7978230714797974,0
2025-12-05 17:53:25.495670,0.0,0.0,1025.8,85.0,12.1,1.3,6926.9,568.3,26.2,0.00,0.00,0.00,0.00,0,0,0,0,0,0,0,0,0,0,0,0,0,0,0,0,0.0,0.21520419418811798,1.2021528482437134,0.7125803232192993,6.061773270543346,2.08802626388612,4.239720814714287,0.0,0.0,0.0,0.0,0.0,3.072663559992372,-2.0434644924652994,4.432147883629212,-0.00017668306827545166,-2.4080276489257812e-05,2.2846191227436066,3.7978230714797974,0
2025-12-05 17:53:25.526615,0.0,0.0,1025.4,85.0,12.1,1.3,6927.0,568.3,26.2,0.00,0.00,0.00,0.00,0,0,0,0,0,0,0,0,0,0,0,0,0,0,0,0,0.0,0.21520419418811798,1.2021528482437134,0.7125803232192993,6.061773270543346,2.08802626388612,4.239720814714287,0.0,0.0,0.0,0.0,0.0,3.072663559992372,-2.0434644924652994,4.432147883629212,-0.00017668306827545166,-2.4080276489257812e-05,2.2846191227436066,3.7978230714797974,0
2025-12-05 17:53:25.558131,0.0,0.0,1019.7,84.5,12.1,1.3,6927.0,568.3,26.2,0.00,0.00,0.00,0.00,0,0,0,0,0,0,0,0,0,0,0,0,0,0,0,0,0.0,0.2153683304786682,1.202157735824585,0.7124835252761841,6.067053856561471,2.0947401484131114,4.223922805766859,0.0,0.0,0.0,0.0,0.0,3.088492734268408,-2.059262501412727,4.432059084549401,-1.2546777725219727e-05,-1.919269561767578e-05,2.2846191227436066,3.7978230714797974,0
2025-12-05 17:53:25.589463,0.0,0.0,1023.4,84.8,12.1,1.3,6927.1,568.3,26.2,0.00,0.00,0.00,0.00,0,0,0,0,0,0,0,0,0,0,0,0,0,0,0,0,0.0,0.2153683304786682,1.202157735824585,0.7124835252761841,6.067053856561471,2.0947401484131114,4.223922805766859,0.0,0.0,0.0,0.0,0.0,3.088492734268408,-2.059262501412727,4.432059084549401,-1.2546777725219727e-05,-1.919269561767578e-05,2.2846191227436066,3.7978230714797974,0
2025-12-05 17:53:25.620960,0.0,0.0,1034.3,84.9,12.1,1.3,6927.1,568.4,26.2,0.00,0.00,0.00,0.00,0,0,0,0,0,0,0,0,0,0,0,0,0,0,0,0,0.0,0.2153683304786682,1.202157735824585,0.7124835252761841,6.067053856561471,2.0947401484131114,4.223922805766859,0.0,0.0,0.0,0.0,0.0,3.088492734268408,-2.059262501412727,4.432059084549401,-1.2546777725219727e-05,-1.919269561767578e-05,2.2846191227436066,3.7978230714797974,0
2025-12-05 17:53:25.652251,0.0,0.0,1028.6,85.3,12.1,1.3,6927.2,568.4,26.2,0.00,0.00,0.00,0.00,0,0,0,0,0,0,0,0,0,0,0,0,0,0,0,0,0.0,0.2153683304786682,1.202157735824585,0.7124835252761841,6.067053856561471,2.0947401484131114,4.223922805766859,0.0,0.0,0.0,0.0,0.0,3.088492734268408,-2.059262501412727,4.432059084549401,-1.2546777725219727e-05,-1.919269561767578e-05,2.2846191227436066,3.7978230714797974,0
2025-12-05 17:53:25.682747,0.0,0.0,1046.4,86.7,12.1,1.3,6927.3,568.4,26.2,0.00,0.00,0.00,0.00,0,0,0,0,0,0,0,0,0,0,0,0,0,0,0,0,0.0,0.2153683304786682,1.202157735824585,0.7124835252761841,6.067053856561471,2.0947401484131114,4.223922805766859,0.0,0.0,0.0,0.0,0.0,3.088492734268408,-2.059262501412727,4.432059084549401,-1.2546777725219727e-05,-1.919269561767578e-05,2.2846191227436066,3.7978230714797974,0
2025-12-05 17:53:25.713774,0.0,0.0,1016.4,84.2,12.1,1.3,6927.3,568.4,26.2,0.00,0.00,0.00,0.00,0,0,0,0,0,0,0,0,0,0,0,0,0,0,0,0,0.0,0.2153683304786682,1.202157735824585,0.7124835252761841,6.067053856561471,2.0947401484131114,4.223922805766859,0.0,0.0,0.0,0.0,0.0,3.088492734268408,-2.059262501412727,4.432059084549401,-1.2546777725219727e-05,-1.919269561767578e-05,2.2846191227436066,3.7978230714797974,0
2025-12-05 17:53:25.745086,0.0,0.0,1024.5,84.9,12.1,1.3,6927.4,568.4,26.2,0.00,0.00,0.00,0.00,0,0,0,0,0,0,0,0,0,0,0,0,0,0,0,0,0.0,0.2153683304786682,1.202157735824585,0.7124835252761841,6.067053856561471,2.0947401484131114,4.223922805766859,0.0,0.0,0.0,0.0,0.0,3.088492734268408,-2.059262501412727,4.432059084549401,-1.2546777725219727e-05,-1.919269561767578e-05,2.2846191227436066,3.7978230714797974,0
2025-12-05 17:53:25.776481,0.0,0.0,1017.0,84.3,12.1,1.3,6927.4,568.4,26.2,0.00,0.00,0.00,0.00,0,0,0,0,0,0,0,0,0,0,0,0,0,0,0,0,0.0,0.21517504751682281,1.2021441459655762,0.7125829458236694,6.062035681695258,2.089324604918094,4.242846867707582,0.0,0.0,0.0,0.0,0.0,3.0695328841363985,-2.0403384394720043,4.43217036580424,-0.00020582973957061768,-3.2782554626464844e-05,2.2846191227436066,3.7978230714797974,0
2025-12-05 17:53:25.807322,0.0,0.0,1025.7,85.0,12.1,1.3,6927.5,568.4,26.2,0.00,0.00,0.00,0.00,0,0,0,0,0,0,0,0,0,0,0,0,0,0,0,0,0.0,0.21517504751682281,1.2021441459655762,0.7125829458236694,6.062035681695258,2.089324604918094,4.242846867707582,0.0,0.0,0.0,0.0,0.0,3.0695328841363985,-2.0403384394720043,4.43217036580424,-0.00020582973957061768,-3.2782554626464844e-05,2.2846191227436066,3.7978230714797974,0
2025-12-05 17:53:25.838392,0.0,0.0,1019.8,84.5,12.1,1.3,6927.6,568.4,26.2,0.00,0.00,0.00,0.00,0,0,0,0,0,0,0,0,0,0,0,0,0,0,0,0,0.0,0.21517504751682281,1.2021441459655762,0.7125829458236694,6.062035681695258,2.089324604918094,4.242846867707582,0.0,0.0,0.0,0.0,0.0,3.0695328841363985,-2.0403384394720043,4.43217036580424,-0.00020582973957061768,-3.2782554626464844e-05,2.2846191227436066,3.7978230714797974,0
2025-12-05 17:53:25.869767,0.0,0.0,1018.1,84.4,12.1,1.3,6927.6,568.4,26.2,0.00,0.00,0.00,0.00,0,0,0,0,0,0,0,0,0,0,0,0,0,0,0,0,0.0,0.2151615023612976,1.2021723985671997,0.7125524878501892,6.066589147325479,2.0835388783638535,4.251479588470131,0.0,0.0,0.0,0.0,0.0,3.060894258545095,-2.0317057187094556,4.432153139332699,-0.0002193748950958252,-4.5299530029296875e-06,2.2846191227436066,3.7978230714797974,0
2025-12-05 17:53:25.901413,0.0,0.0,1022.2,84.7,12.1,1.3,6927.7,568.4,26.2,0.00,0.00,0.00,0.00,0,0,0,0,0,0,0,0,0,0,0,0,0,0,0,0,0.0,0.2151615023612976,1.2021723985671997,0.7125524878501892,6.066589147325479,2.0835388783638535,4.251479588470131,0.0,0.0,0.0,0.0,0.0,3.060894258545095,-2.0317057187094556,4.432153139332699,-0.0002193748950958252,-4.5299530029296875e-06,2.2846191227436066,3.7978230714797974,0
2025-12-05 17:53:25.932059,0.0,0.0,1021.2,84.6,12.1,1.3,6927.7,568.4,26.2,0.00,0.00,0.00,0.00,0,0,0,0,0,0,0,0,0,0,0,0,0,0,0,0,0.0,0.2151615023612976,1.2021723985671997,0.7125524878501892,6.066589147325479,2.0835388783638535,4.251479588470131,0.0,0.0,0.0,0.0,0.0,3.060894258545095,-2.0317057187094556,4.432153139332699,-0.0002193748950958252,-4.5299530029296875e-06,2.2846191227436066,3.7978230714797974,0
2025-12-05 17:53:25.963022,0.0,0.0,1023.5,84.8,12.1,1.3,6927.8,568.4,26.2,0.00,0.00,0.00,0.00,0,0,0,0,0,0,0,0,0,0,0,0,0,0,0,0,0.0,0.21520528197288513,1.2021636962890625,0.7125822305679321,6.070157358814864,2.083106768000904,4.241687155741884,0.0,0.0,0.0,0.0,0.0,3.0706961675270508,-2.0414981514377026,4.43213802733053,-0.00017559528350830078,-1.3232231140136719e-05,2.2846191227436066,3.7978230714797974,0
2025-12-05 17:53:25.994449,0.0,0.0,1035.2,85.8,12.1,1.3,6927.9,568.4,26.2,0.00,0.00,0.00,0.00,0,0,0,0,0,0,0,0,0,0,0,0,0,0,0,0,0.0,0.21520528197288513,1.2021636962890625,0.7125822305679321,6.070157358814864,2.083106768000904,4.241687155741884,0.0,0.0,0.0,0.0,0.0,3.0706961675270508,-2.0414981514377026,4.43213802733053,-0.00017559528350830078,-1.3232231140136719e-05,2.2846191227436066,3.7978230714797974,0
2025-12-05 17:53:26.025813,0.0,0.0,1034.1,85.7,12.1,1.3,6927.9,568.4,26.2,0.00,0.00,0.00,0.00,0,0,0,0,0,0,0,0,0,0,0,0,0,0,0,0,0.0,0.21520528197288513,1.2021636962890625,0.7125822305679321,6.070157358814864,2.083106768000904,4.241687155741884,0.0,0.0,0.0,0.0,0.0,3.0706961675270508,-2.0414981514377026,4.43213802733053,-0.00017559528350830078,-1.3232231140136719e-05,2.2846191227436066,3.7978230714797974,0
2025-12-05 17:53:26.057336,0.0,0.0,1021.9,84.7,12.1,1.3,6928.0,568.4,26.2,0.00,0.00,0.00,0.00,0,0,0,0,0,0,0,0,0,0,0,0,0,0,0,0,0.0,0.21520528197288513,1.2021636962890625,0.7125822305679321,6.070157358814864,2.083106768000904,4.241687155741884,0.0,0.0,0.0,0.0,0.0,3.0706961675270508,-2.0414981514377026,4.43213802733053,-0.00017559528350830078,-1.3232231140136719e-05,2.2846191227436066,3.7978230714797974,0
2025-12-05 17:53:26.088251,0.0,0.0,1024.8,84.9,12.1,1.3,6928.0,568.4,26.2,0.00,0.00,0.00,0.00,0,0,0,0,0,0,0,0,0,0,0,0,0,0,0,0,0.0,0.21537181735038757,1.202176809310913,0.7124834060668945,6.070022255716502,2.092079355368429,4.225012241160753,0.0,0.0,0.0,0.0,0.0,3.0874017546502026,-2.0581730660188335,4.4320409430298255,-9.059906005859375e-06,-1.1920928955078125e-07,2.2846191227436066,3.7978230714797974,0
2025-12-05 17:53:26.119687,0.0,0.0,1018.9,84.4,12.1,1.3,6928.1,568.4,26.2,0.00,0.00,0.00,0.00,0,0,0,0,0,0,0,0,0,0,0,0,0,0,0,0,0.0,0.21537181735038757,1.202176809310913,0.7124834060668945,6.070022255716502,2.092079355368429,4.225012241160753,0.0,0.0,0.0,0.0,0.0,3.0874017546502026,-2.0581730660188335,4.4320409430298255,-9.059906005859375e-06,-1.1920928955078125e-07,2.2846191227436066,3.7978230714797974,0
2025-12-05 17:53:26.151153,0.0,0.0,1025.9,84.6,12.1,1.3,6928.2,568.4,26.2,0.00,0.00,0.00,0.00,0,0,0,0,0,0,0,0,0,0,0,0,0,0,0,0,0.0,0.21537181735038757,1.202176809310913,0.7124834060668945,6.070022255716502,2.092079355368429,4.225012241160753,0.0,0.0,0.0,0.0,0.0,3.0874017546502026,-2.0581730660188335,4.4320409430298255,-9.059906005859375e-06,-1.1920928955078125e-07,2.2846191227436066,3.7978230714797974,0
2025-12-05 17:53:26.182227,0.0,0.0,1032.5,85.6,12.1,1.3,6928.2,568.4,26.2,0.00,0.00,0.00,0.00,0,0,0,0,0,0,0,0,0,0,0,0,0,0,0,0,0.0,0.21538233757019043,1.202191948890686,0.7124689221382141,6.074439183903582,2.0853522952686543,4.228549894928504,0.0,0.0,0.0,0.0,0.0,3.083864374040827,-2.054635412251083,4.432022546936892,1.4603137969970703e-06,1.5020370483398438e-05,2.2846191227436066,3.7978230714797974,0
2025-12-05 17:53:26.213776,0.0,0.0,1038.5,86.1,12.1,1.3,6928.3,568.4,26.2,0.00,0.00,0.00,0.00,0,0,0,0,0,0,0,0,0,0,0,0,0,0,0,0,0.0,0.21538233757019043,1.202191948890686,0.7124689221382141,6.074439183903582,2.0853522952686543,4.228549894928504,0.0,0.0,0.0,0.0,0.0,3.083864374040827,-2.054635412251083,4.432022546936892,1.4603137969970703e-06,1.5020370483398438e-05,2.2846191227436066,3.7978230714797974,0
2025-12-05 17:53:26.245193,0.0,0.0,1020.9,84.6,12.1,1.3,6928.3,568.5,26.2,0.00,0.00,0.00,0.00,0,0,0,0,0,0,0,0,0,0,0,0,0,0,0,0,0.0,0.21538233757019043,1.202191948890686,0.7124689221382141,6.074439183903582,2.0853522952686543,4.228549894928504,0.0,0.0,0.0,0.0,0.0,3.083864374040827,-2.054635412251083,4.432022546936892,1.4603137969970703e-06,1.5020370483398438e-05,2.2846191227436066,3.7978230714797974,0
2025-12-05 17:53:26.276769,0.0,0.0,1023.7,84.8,12.1,1.3,6928.4,568.5,26.2,0.00,0.00,0.00,0.00,0,0,0,0,0,0,0,0,0,0,0,0,0,0,0,0,0.0,0.2151961624622345,1.2021416425704956,0.7125905752182007,6.056581446861278,2.087416015598083,4.237832825182677,0.0,0.0,0.0,0.0,0.0,3.0745513000537548,-2.0453524819969098,4.432161626015509,-0.00018471479415893555,-3.528594970703125e-05,2.2846191227436066,3.7978230714797974,0
2025-12-05 17:53:26.308152,0.0,0.0,1042.0,86.4,12.1,1.3,6928.5,568.5,26.2,0.00,0.00,0.00,0.00,0,0,0,0,0,0,0,0,0,0,0,0,0,0,0,0,0.0,0.2151961624622345,1.2021416425704956,0.7125905752182007,6.056581446861278,2.087416015598083,4.237832825182677,0.0,0.0,0.0,0.0,0.0,3.0745513000537548,-2.0453524819969098,4.432161626015509,-0.00018471479415893555,-3.528594970703125e-05,2.2846191227436066,3.7978230714797974,0
2025-12-05 17:53:26.338892,0.0,0.0,1043.1,86.5,12.1,1.3,6928.5,568.5,26.2,0.00,0.00,0.00,0.00,0,0,0,0,0,0,0,0,0,0,0,0,0,0,0,0,0.0,0.2151961624622345,1.2021416425704956,0.7125905752182007,6.056581446861278,2.087416015598083,4.237832825182677,0.0,0.0,0.0,0.0,0.0,3.0745513000537548,-2.0453524819969098,4.432161626015509,-0.00018471479415893555,-3.528594970703125e-05,2.2846191227436066,3.7978230714797974,0
2025-12-05 17:53:26.370017,0.0,0.0,1014.5,84.1,12.1,1.3,6928.6,568.5,26.2,0.00,0.00,0.00,0.00,0,0,0,0,0,0,0,0,0,0,0,0,0,0,0,0,0.0,0.2151961624622345,1.2021416425704956,0.7125905752182007,6.056581446861278,2.087416015598083,4.237832825182677,0.0,0.0,0.0,0.0,0.0,3.0745513000537548,-2.0453524819969098,4.432161626015509,-0.00018471479415893555,-3.528594970703125e-05,2.2846191227436066,3.7978230714797974,0
2025-12-05 17:53:26.401288,0.0,0.0,1010.2,83.7,12.1,1.3,6928.6,568.5,26.2,0.00,0.00,0.00,0.00,0,0,0,0,0,0,0,0,0,0,0,0,0,0,0,0,0.0,0.21535544097423553,1.2021863460540771,0.7124571204185486,6.065798224619488,2.0911099439961673,4.231682097009736,0.0,0.0,0.0,0.0,0.0,3.0807276233573386,-2.0515032101698503,4.432041212712728,-2.543628215789795e-05,9.417533874511719e-06,2.2846191227436066,3.7978230714797974,0
2025-12-05 17:53:26.432690,0.0,0.0,1022.6,84.8,12.1,1.3,6928.7,568.5,26.2,0.00,0.00,0.00,0.00,0,0,0,0,0,0,0,0,0,0,0,0,0,0,0,0,0.0,0.21535544097423553,1.2021863460540771,0.7124571204185486,6.065798224619488,2.0911099439961673,4.231682097009736,0.0,0.0,0.0,0.0,0.0,3.0807276233573386,-2.0515032101698503,4.432041212712728,-2.543628215789795e-05,9.417533874511719e-06,2.2846191227436066,3.7978230714797974,0
2025-12-05 17:53:26.464069,0.0,0.0,1026.0,85.0,12.1,1.3,6928.8,568.5,26.2,0.00,0.00,0.00,0.00,0,0,0,0,0,0,0,0,0,0,0,0,0,0,0,0,0.0,0.21535544097423553,1.2021863460540771,0.7124571204185486,6.065798224619488,2.0911099439961673,4.231682097009736,0.0,0.0,0.0,0.0,0.0,3.0807276233573386,-2.0515032101698503,4.432041212712728,-2.543628215789795e-05,9.417533874511719e-06,2.2846191227436066,3.7978230714797974,0
2025-12-05 17:53:26.495402,0.0,0.0,1023.6,84.8,12.1,1.3,6928.8,568.5,26.2,0.00,0.00,0.00,0.00,0,0,0,0,0,0,0,0,0,0,0,0,0,0,0,0,0.0,0.21520555019378662,1.2021310329437256,0.712602972984314,6.061812160424905,2.090092344731957,4.23856243572885,0.0,0.0,0.0,0.0,0.0,3.0738247384772626,-2.0446228714507364,4.432165877851863,-0.00017532706260681152,-4.589557647705078e-05,2.2846191227436066,3.7978230714797974,0
2025-12-05 17:53:26.526822,0.0,0.0,1017.1,84.3,12.1,1.3,6928.9,568.5,26.2,0.00,0.00,0.00,0.00,0,0,0,0,0,0,0,0,0,0,0,0,0,0,0,0,0.0,0.21520555019378662,1.2021310329437256,0.712602972984314,6.061812160424905,2.090092344731957,4.23856243572885,0.0,0.0,0.0,0.0,0.0,3.0738247384772626,-2.0446228714507364,4.432165877851863,-0.00017532706260681152,-4.589557647705078e-05,2.2846191227436066,3.7978230714797974,0
2025-12-05 17:53:26.557807,0.0,0.0,1021.7,84.7,12.1,1.3,6929.0,568.5,26.2,0.00,0.00,0.00,0.00,0,0,0,0,0,0,0,0,0,0,0,0,0,0,0,0,0.0,0.21520555019378662,1.2021310329437256,0.712602972984314,6.061812160424905,2.090092344731957,4.23856243572885,0.0,0.0,0.0,0.0,0.0,3.0738247384772626,-2.0446228714507364,4.432165877851863,-0.00017532706260681152,-4.589557647705078e-05,2.2846191227436066,3.7978230714797974,0
2025-12-05 17:53:26.588436,0.0,0.0,1030.5,85.4,12.1,1.3,6929.0,568.5,26.2,0.00,0.00,0.00,0.00,0,0,0,0,0,0,0,0,0,0,0,0,0,0,0,0,0.0,0.21518546342849731,1.2021443843841553,0.7125840783119202,6.054739697760752,2.0921181481969073,4.236026743601341,0.0,0.0,0.0,0.0,0.0,3.0763549942520596,-2.047158563578245,4.432164792016793,-0.00019541382789611816,-3.254413604736328e-05,2.2846191227436066,3.7978230714797974,0
2025-12-05 17:53:26.619432,0.0,0.0,1023.7,84.9,12.1,1.3,6929.1,568.5,26.2,0.00,0.00,0.00,0.00,0,0,0,0,0,0,0,0,0,0,0,0,0,0,0,0,0.0,0.21518546342849731,1.2021443843841553,0.7125840783119202,6.054739697760752,2.0921181481969073,4.236026743601341,0.0,0.0,0.0,0.0,0.0,3.0763549942520596,-2.047158563578245,4.432164792016793,-0.00019541382789611816,-3.254413604736328e-05,2.2846191227436066,3.7978230714797974,0
2025-12-05 17:53:26.650888,0.0,0.0,1029.5,85.3,12.1,1.3,6929.1,568.5,26.2,0.00,0.00,0.00,0.00,0,0,0,0,0,0,0,0,0,0,0,0,0,0,0,0,0.0,0.21518546342849731,1.2021443843841553,0.7125840783119202,6.054739697760752,2.0921181481969073,4.236026743601341,0.0,0.0,0.0,0.0,0.0,3.0763549942520596,-2.047158563578245,4.432164792016793,-0.00019541382789611816,-3.254413604736328e-05,2.2846191227436066,3.7978230714797974,0
2025-12-05 17:53:26.682316,0.0,0.0,1015.7,84.2,12.1,1.3,6929.2,568.5,26.2,0.00,0.00,0.00,0.00,0,0,0,0,0,0,0,0,0,0,0,0,0,0,0,0,0.0,0.21518546342849731,1.2021443843841553,0.7125840783119202,6.054739697760752,2.0921181481969073,4.236026743601341,0.0,0.0,0.0,0.0,0.0,3.0763549942520596,-2.047158563578245,4.432164792016793,-0.00019541382789611816,-3.254413604736328e-05,2.2846191227436066,3.7978230714797974,0
2025-12-05 17:53:26.713770,0.0,0.0,1017.2,84.3,12.1,1.3,6929.3,568.5,26.2,0.00,0.00,0.00,0.00,0,0,0,0,0,0,0,0,0,0,0,0,0,0,0,0,0.0,0.21535572409629822,1.202166199684143,0.7124635577201843,6.059677499258433,2.094791779359225,4.225706953898877,0.0,0.0,0.0,0.0,0.0,3.086705164390257,-2.0574783532807097,4.432058330193899,-2.5153160095214844e-05,-1.0728836059570312e-05,2.2846191227436066,3.7978230714797974,0
2025-12-05 17:53:26.744652,0.0,0.0,1065.0,88.3,12.1,1.3,6929.3,568.5,26.2,0.00,0.00,0.00,0.00,0,0,0,0,0,0,0,0,0,0,0,0,0,0,0,0,0.0,0.21535572409629822,1.202166199684143,0.7124635577201843,6.059677499258433,2.094791779359225,4.225706953898877,0.0,0.0,0.0,0.0,0.0,3.086705164390257,-2.0574783532807097,4.432058330193899,-2.5153160095214844e-05,-1.0728836059570312e-05,2.2846191227436066,3.7978230714797974,0
2025-12-05 17:53:26.776088,0.0,0.0,1017.5,84.3,12.1,1.3,6929.4,568.5,26.2,0.00,0.00,0.00,0.00,0,0,0,0,0,0,0,0,0,0,0,0,0,0,0,0,0.0,0.21535572409629822,1.202166199684143,0.7124635577201843,6.059677499258433,2.094791779359225,4.225706953898877,0.0,0.0,0.0,0.0,0.0,3.086705164390257,-2.0574783532807097,4.432058330193899,-2.5153160095214844e-05,-1.0728836059570312e-05,2.2846191227436066,3.7978230714797974,0
2025-12-05 17:53:26.807682,0.0,0.0,1030.2,84.2,12.1,1.3,6929.4,568.5,26.2,0.00,0.00,0.00,0.00,0,0,0,0,0,0,0,0,0,0,0,0,0,0,0,0,0.0,0.2151566743850708,1.2021507024765015,0.7125570178031921,6.063562403502735,2.0871906053080274,4.247853462030447,0.0,0.0,0.0,0.0,0.0,3.0645219750948804,-2.03533184514914,4.4321742191961295,-0.00022420287132263184,-2.6226043701171875e-05,2.2846191227436066,3.7978230714797974,0
2025-12-05 17:53:26.838869,0.0,0.0,1026.9,85.1,12.1,1.3,6929.5,568.6,26.2,0.00,0.00,0.00,0.00,0,0,0,0,0,0,0,0,0,0,0,0,0,0,0,0,0.0,0.2151566743850708,1.2021507024765015,0.7125570178031921,6.063562403502735,2.0871906053080274,4.247853462030447,0.0,0.0,0.0,0.0,0.0,3.0645219750948804,-2.03533184514914,4.4321742191961295,-0.00022420287132263184,-2.6226043701171875e-05,2.2846191227436066,3.7978230714797974,0
2025-12-05 17:53:26.870173,0.0,0.0,1030.6,84.9,12.1,1.3,6929.6,568.6,26.2,0.00,0.00,0.00,0.00,0,0,0,0,0,0,0,0,0,0,0,0,0,0,0,0,0.0,0.2151566743850708,1.2021507024765015,0.7125570178031921,6.063562403502735,2.0871906053080274,4.247853462030447,0.0,0.0,0.0,0.0,0.0,3.0645219750948804,-2.03533184514914,4.4321742191961295,-0.00022420287132263184,-2.6226043701171875e-05,2.2846191227436066,3.7978230714797974,0
2025-12-05 17:53:26.901577,0.0,0.0,1022.5,84.7,12.1,1.3,6929.6,568.6,26.2,0.00,0.00,0.00,0.00,0,0,0,0,0,0,0,0,0,0,0,0,0,0,0,0,0.0,0.21536046266555786,1.202171802520752,0.7124632000923157,6.057907862764633,2.0951516525636373,4.227213260061374,0.0,0.0,0.0,0.0,0.0,3.085199122738328,-2.0559720471182126,4.432051086474546,-2.041459083557129e-05,-5.125999450683594e-06,2.2846191227436066,3.7978230714797974,0
2025-12-05 17:53:26.932732,0.0,0.0,1031.9,85.5,12.1,1.3,6929.7,568.6,26.2,0.00,0.00,0.00,0.00,0,0,0,0,0,0,0,0,0,0,0,0,0,0,0,0,0.0,0.21536046266555786,1.202171802520752,0.7124632000923157,6.057907862764633,2.0951516525636373,4.227213260061374,0.0,0.0,0.0,0.0,0.0,3.085199122738328,-2.0559720471182126,4.432051086474546,-2.041459083557129e-05,-5.125999450683594e-06,2.2846191227436066,3.7978230714797974,0
2025-12-05 17:53:26.964149,0.0,0.0,1024.4,84.9,12.1,1.3,6929.7,568.6,26.2,0.00,0.00,0.00,0.00,0,0,0,0,0,0,0,0,0,0,0,0,0,0,0,0,0.0,0.21536046266555786,1.202171802520752,0.7124632000923157,6.057907862764633,2.0951516525636373,4.227213260061374,0.0,0.0,0.0,0.0,0.0,3.085199122738328,-2.0559720471182126,4.432051086474546,-2.041459083557129e-05,-5.125999450683594e-06,2.2846191227436066,3.7978230714797974,0
2025-12-05 17:53:26.994741,0.0,0.0,1030.4,85.4,12.1,1.3,6929.8,568.6,26.2,0.00,0.00,0.00,0.00,0,0,0,0,0,0,0,0,0,0,0,0,0,0,0,0,0.0,0.21536046266555786,1.202171802520752,0.7124632000923157,6.057907862764633,2.0951516525636373,4.227213260061374,0.0,0.0,0.0,0.0,0.0,3.085199122738328,-2.0559720471182126,4.432051086474546,-2.041459083557129e-05,-5.125999450683594e-06,2.2846191227436066,3.7978230714797974,0
2025-12-05 17:53:27.026084,0.0,0.0,1024.4,84.9,12.1,1.3,6929.9,568.6,26.2,0.00,0.00,0.00,0.00,0,0,0,0,0,0,0,0,0,0,0,0,0,0,0,0,0.0,0.21536147594451904,1.202197790145874,0.7124593257904053,6.065750207738026,2.089238000025798,4.234801173175098,0.0,0.0,0.0,0.0,0.0,3.0776083829604097,-2.0483841340044884,4.432028295348676,-1.940131187438965e-05,2.086162567138672e-05,2.2846191227436066,3.7978230714797974,0
2025-12-05 17:53:27.057472,0.0,0.0,1021.3,84.6,12.1,1.3,6929.9,568.6,26.2,0.00,0.00,0.00,0.00,0,0,0,0,0,0,0,0,0,0,0,0,0,0,0,0,0.0,0.21536147594451904,1.202197790145874,0.7124593257904053,6.065750207738026,2.089238000025798,4.234801173175098,0.0,0.0,0.0,0.0,0.0,3.0776083829604097,-2.0483841340044884,4.432028295348676,-1.940131187438965e-05,2.086162567138672e-05,2.2846191227436066,3.7978230714797974,0
2025-12-05 17:53:27.088949,0.0,0.0,1030.3,85.4,12.1,1.3,6930.0,568.6,26.2,0.00,0.00,0.00,0.00,0,0,0,0,0,0,0,0,0,0,0,0,0,0,0,0,0.0,0.21536147594451904,1.202197790145874,0.7124593257904053,6.065750207738026,2.089238000025798,4.234801173175098,0.0,0.0,0.0,0.0,0.0,3.0776083829604097,-2.0483841340044884,4.432028295348676,-1.940131187438965e-05,2.086162567138672e-05,2.2846191227436066,3.7978230714797974,0
2025-12-05 17:53:27.120351,0.0,0.0,1021.6,84.7,12.1,1.3,6930.0,568.6,26.2,0.00,0.00,0.00,0.00,0,0,0,0,0,0,0,0,0,0,0,0,0,0,0,0,0.0,0.21520236134529114,1.2021397352218628,0.7125837802886963,6.053759529897171,2.0888419324591045,4.239834655357226,0.0,0.0,0.0,0.0,0.0,3.072550890176834,-2.0433506518223603,4.4321600648422885,-0.00017851591110229492,-3.719329833984375e-05,2.2846191227436066,3.7978230714797974,0
2025-12-05 17:53:27.151524,0.0,0.0,1023.7,84.8,12.1,1.3,6930.1,568.6,26.2,0.00,0.00,0.00,0.00,0,0,0,0,0,0,0,0,0,0,0,0,0,0,0,0,0.0,0.21520236134529114,1.2021397352218628,0.7125837802886963,6.053759529897171,2.0888419324591045,4.239834655357226,0.0,0.0,0.0,0.0,0.0,3.072550890176834,-2.0433506518223603,4.4321600648422885,-0.00017851591110229492,-3.719329833984375e-05,2.2846191227436066,3.7978230714797974,0
2025-12-05 17:53:27.182757,0.0,0.0,1027.6,85.2,12.1,1.3,6930.2,568.6,26.2,0.00,0.00,0.00,0.00,0,0,0,0,0,0,0,0,0,0,0,0,0,0,0,0,0.0,0.21520236134529114,1.2021397352218628,0.7125837802886963,6.053759529897171,2.0888419324591045,4.239834655357226,0.0,0.0,0.0,0.0,0.0,3.072550890176834,-2.0433506518223603,4.4321600648422885,-0.00017851591110229492,-3.719329833984375e-05,2.2846191227436066,3.7978230714797974,0
2025-12-05 17:53:27.213563,0.0,0.0,1027.8,85.2,12.1,1.3,6930.2,568.6,26.2,0.00,0.00,0.00,0.00,0,0,0,0,0,0,0,0,0,0,0,0,0,0,0,0,0.0,0.21520236134529114,1.2021397352218628,0.7125837802886963,6.053759529897171,2.0888419324591045,4.239834655357226,0.0,0.0,0.0,0.0,0.0,3.072550890176834,-2.0433506518223603,4.4321600648422885,-0.00017851591110229492,-3.719329833984375e-05,2.2846191227436066,3.7978230714797974,0
2025-12-05 17:53:27.244850,0.0,0.0,1021.3,84.6,12.1,1.3,6930.3,568.6,26.2,0.00,0.00,0.00,0.00,0,0,0,0,0,0,0,0,0,0,0,0,0,0,0,0,0.0,0.21518373489379883,1.2021825313568115,0.7125691771507263,6.072790470255791,2.0792564046994446,4.249155029062747,0.0,0.0,0.0,0.0,0.0,3.06322193767729,-2.0340302781168393,4.432132995570553,-0.0001971423625946045,5.602836608886719e-06,2.2846191227436066,3.7978230714797974,0
2025-12-05 17:53:27.276266,0.0,0.0,1021.4,84.7,12.1,1.3,6930.3,568.6,26.2,0.00,0.00,0.00,0.00,0,0,0,0,0,0,0,0,0,0,0,0,0,0,0,0,0.0,0.21518373489379883,1.2021825313568115,0.7125691771507263,6.072790470255791,2.0792564046994446,4.249155029062747,0.0,0.0,0.0,0.0,0.0,3.06322193767729,-2.0340302781168393,4.432132995570553,-0.0001971423625946045,5.602836608886719e-06,2.2846191227436066,3.7978230714797974,0
2025-12-05 17:53:27.307350,0.0,0.0,1021.4,84.7,12.1,1.3,6930.4,568.6,26.2,0.00,0.00,0.00,0.00,0,0,0,0,0,0,0,0,0,0,0,0,0,0,0,0,0.0,0.21518373489379883,1.2021825313568115,0.7125691771507263,6.072790470255791,2.0792564046994446,4.249155029062747,0.0,0.0,0.0,0.0,0.0,3.06322193767729,-2.0340302781168393,4.432132995570553,-0.0001971423625946045,5.602836608886719e-06,2.2846191227436066,3.7978230714797974,0
2025-12-05 17:53:27.338751,0.0,0.0,1031.9,84.8,12.1,1.3,6930.5,568.6,26.2,0.00,0.00,0.00,0.00,0,0,0,0,0,0,0,0,0,0,0,0,0,0,0,0,0.0,0.21536287665367126,1.2021832466125488,0.7124615907669067,6.065170079018479,2.0923190508930984,4.226282547840141,0.0,0.0,0.0,0.0,0.0,3.086128970647166,-2.056902759339446,4.432040035658815,-1.800060272216797e-05,6.318092346191406e-06,2.2846191227436066,3.7978230714797974,0
2025-12-05 17:53:27.370070,0.0,0.0,1020.8,84.6,12.1,1.3,6930.5,568.6,26.2,0.00,0.00,0.00,0.00,0,0,0,0,0,0,0,0,0,0,0,0,0,0,0,0,0.0,0.21536287665367126,1.2021832466125488,0.7124615907669067,6.065170079018479,2.0923190508930984,4.226282547840141,0.0,0.0,0.0,0.0,0.0,3.086128970647166,-2.056902759339446,4.432040035658815,-1.800060272216797e-05,6.318092346191406e-06,2.2846191227436066,3.7978230714797974,0
2025-12-05 17:53:27.400819,0.0,0.0,1037.2,84.8,12.1,1.3,6930.6,568.6,26.2,0.00,0.00,0.00,0.00,0,0,0,0,0,0,0,0,0,0,0,0,0,0,0,0,0.0,0.21536287665367126,1.2021832466125488,0.7124615907669067,6.065170079018479,2.0923190508930984,4.226282547840141,0.0,0.0,0.0,0.0,0.0,3.086128970647166,-2.056902759339446,4.432040035658815,-1.800060272216797e-05,6.318092346191406e-06,2.2846191227436066,3.7978230714797974,0
2025-12-05 17:53:27.432163,0.0,0.0,1023.5,84.8,12.1,1.3,6930.6,568.6,26.2,0.00,0.00,0.00,0.00,0,0,0,0,0,0,0,0,0,0,0,0,0,0,0,0,0.0,0.2151583433151245,1.2021597623825073,0.7125746607780457,6.058351238334726,2.086080306295459,4.244772338641139,0.0,0.0,0.0,0.0,0.0,3.067602367369047,-2.0384129685384473,4.432165595573904,-0.0002225339412689209,-1.71661376953125e-05,2.2846191227436066,3.7978230714797974,0
2025-12-05 17:53:27.463560,0.0,0.0,1032.8,85.0,12.1,1.3,6930.7,568.7,26.2,0.00,0.00,0.00,0.00,0,0,0,0,0,0,0,0,0,0,0,0,0,0,0,0,0.0,0.2151583433151245,1.2021597623825073,0.7125746607780457,6.058351238334726,2.086080306295459,4.244772338641139,0.0,0.0,0.0,0.0,0.0,3.067602367369047,-2.0384129685384473,4.432165595573904,-0.0002225339412689209,-1.71661376953125e-05,2.2846191227436066,3.7978230714797974,0
2025-12-05 17:53:27.495113,0.0,0.0,1022.9,84.8,12.1,1.3,6930.8,568.7,26.2,0.00,0.00,0.00,0.00,0,0,0,0,0,0,0,0,0,0,0,0,0,0,0,0,0.0,0.2151583433151245,1.2021597623825073,0.7125746607780457,6.058351238334726,2.086080306295459,4.244772338641139,0.0,0.0,0.0,0.0,0.0,3.067602367369047,-2.0384129685384473,4.432165595573904,-0.0002225339412689209,-1.71661376953125e-05,2.2846191227436066,3.7978230714797974,0
2025-12-05 17:53:27.526543,0.0,0.0,1027.7,85.2,12.1,1.3,6930.8,568.7,26.2,0.00,0.00,0.00,0.00,0,0,0,0,0,0,0,0,0,0,0,0,0,0,0,0,0.0,0.21536323428153992,1.2021803855895996,0.7124863862991333,6.071024364016585,2.092401199859579,4.229939780025417,0.0,0.0,0.0,0.0,0.0,3.082472140366325,-2.05324552715417,4.432042302920051,-1.7642974853515625e-05,3.4570693969726562e-06,2.2846191227436066,3.7978230714797974,0
2025-12-05 17:53:27.557812,0.0,0.0,1017.4,84.3,12.1,1.3,6930.9,568.7,26.2,0.00,0.00,0.00,0.00,0,0,0,0,0,0,0,0,0,0,0,0,0,0,0,0,0.0,0.21536323428153992,1.2021803855895996,0.7124863862991333,6.071024364016585,2.092401199859579,4.229939780025417,0.0,0.0,0.0,0.0,0.0,3.082472140366325,-2.05324552715417,4.432042302920051,-1.7642974853515625e-05,3.4570693969726562e-06,2.2846191227436066,3.7978230714797974,0
2025-12-05 17:53:27.589217,0.0,0.0,1022.8,84.8,12.1,1.3,6930.9,568.7,26.2,0.00,0.00,0.00,0.00,0,0,0,0,0,0,0,0,0,0,0,0,0,0,0,0,0.0,0.21536323428153992,1.2021803855895996,0.7124863862991333,6.071024364016585,2.092401199859579,4.229939780025417,0.0,0.0,0.0,0.0,0.0,3.082472140366325,-2.05324552715417,4.432042302920051,-1.7642974853515625e-05,3.4570693969726562e-06,2.2846191227436066,3.7978230714797974,0
2025-12-05 17:53:27.620724,0.0,0.0,1026.5,85.1,12.1,1.3,6931.0,568.7,26.2,0.00,0.00,0.00,0.00,0,0,0,0,0,0,0,0,0,0,0,0,0,0,0,0,0.0,0.21536323428153992,1.2021803855895996,0.7124863862991333,6.071024364016585,2.092401199859579,4.229939780025417,0.0,0.0,0.0,0.0,0.0,3.082472140366325,-2.05324552715417,4.432042302920051,-1.7642974853515625e-05,3.4570693969726562e-06,2.2846191227436066,3.7978230714797974,0
2025-12-05 17:53:27.652072,0.0,0.0,1027.5,85.8,12.1,1.3,6931.1,568.7,26.2,0.00,0.00,0.00,0.00,0,0,0,0,0,0,0,0,0,0,0,0,0,0,0,0,0.0,0.21537452936172485,1.202172875404358,0.712483823299408,6.069986054886043,2.092632193078753,4.225328997215298,0.0,0.0,0.0,0.0,0.0,3.0870859804852664,-2.0578563099642886,4.4320429160155435,-6.3478946685791016e-06,-4.0531158447265625e-06,2.2846191227436066,3.7978230714797974,0
2025-12-05 17:53:27.683449,0.0,0.0,1019.7,84.5,12.1,1.3,6931.1,568.7,26.2,0.00,0.00,0.00,0.00,0,0,0,0,0,0,0,0,0,0,0,0,0,0,0,0,0.0,0.21537452936172485,1.202172875404358,0.712483823299408,6.069986054886043,2.092632193078753,4.225328997215298,0.0,0.0,0.0,0.0,0.0,3.0870859804852664,-2.0578563099642886,4.4320429160155435,-6.3478946685791016e-06,-4.0531158447265625e-06,2.2846191227436066,3.7978230714797974,0
2025-12-05 17:53:27.714687,0.0,0.0,1034.1,85.7,12.1,1.3,6931.2,568.7,26.2,0.00,0.00,0.00,0.00,0,0,0,0,0,0,0,0,0,0,0,0,0,0,0,0,0.0,0.21537452936172485,1.202172875404358,0.712483823299408,6.069986054886043,2.092632193078753,4.225328997215298,0.0,0.0,0.0,0.0,0.0,3.0870859804852664,-2.0578563099642886,4.4320429160155435,-6.3478946685791016e-06,-4.0531158447265625e-06,2.2846191227436066,3.7978230714797974,0
2025-12-05 17:53:27.746281,0.0,0.0,1024.7,84.9,12.1,1.3,6931.3,568.7,26.2,0.00,0.00,0.00,0.00,0,0,0,0,0,0,0,0,0,0,0,0,0,0,0,0,0.0,0.21518796682357788,1.2021549940109253,0.7125967741012573,6.070877341558378,2.0863940348204286,4.241264718563967,0.0,0.0,0.0,0.0,0.0,3.0711162692656426,-2.04192058861562,4.43215441026866,-0.00019291043281555176,-2.193450927734375e-05,2.2846191227436066,3.7978230714797974,0
2025-12-05 17:53:27.777530,0.0,0.0,1029.4,85.3,12.1,1.3,6931.3,568.7,26.2,0.00,0.00,0.00,0.00,0,0,0,0,0,0,0,0,0,0,0,0,0,0,0,0,0.0,0.21518796682357788,1.2021549940109253,0.7125967741012573,6.070877341558378,2.0863940348204286,4.241264718563967,0.0,0.0,0.0,0.0,0.0,3.0711162692656426,-2.04192058861562,4.43215441026866,-0.00019291043281555176,-2.193450927734375e-05,2.2846191227436066,3.7978230714797974,0
2025-12-05 17:53:27.808273,0.0,0.0,1039.1,86.1,12.1,1.3,6931.4,568.7,26.2,0.00,0.00,0.00,0.00,0,0,0,0,0,0,0,0,0,0,0,0,0,0,0,0,0.0,0.21518796682357788,1.2021549940109253,0.7125967741012573,6.070877341558378,2.0863940348204286,4.241264718563967,0.0,0.0,0.0,0.0,0.0,3.0711162692656426,-2.04192058861562,4.43215441026866,-0.00019291043281555176,-2.193450927734375e-05,2.2846191227436066,3.7978230714797974,0
2025-12-05 17:53:27.839337,0.0,0.0,1017.4,84.3,12.1,1.3,6931.4,568.7,26.2,0.00,0.00,0.00,0.00,0,0,0,0,0,0,0,0,0,0,0,0,0,0,0,0,0.0,0.2153637707233429,1.202187180519104,0.7124679088592529,6.068104595357963,2.091563929269622,4.226991188636488,0.0,0.0,0.0,0.0,0.0,3.085420045166859,-2.056194118543099,4.43203620381613,-1.710653305053711e-05,1.0251998901367188e-05,2.2846191227436066,3.7978230714797974,0
2025-12-05 17:53:27.870938,0.0,0.0,1012.4,83.9,12.1,1.3,6931.5,568.7,26.2,0.00,0.00,0.00,0.00,0,0,0,0,0,0,0,0,0,0,0,0,0,0,0,0,0.0,0.2153637707233429,1.202187180519104,0.7124679088592529,6.068104595357963,2.091563929269622,4.226991188636488,0.0,0.0,0.0,0.0,0.0,3.085420045166859,-2.056194118543099,4.43203620381613,-1.710653305053711e-05,1.0251998901367188e-05,2.2846191227436066,3.7978230714797974,0
2025-12-05 17:53:27.901662,0.0,0.0,1022.3,84.7,12.1,1.3,6931.6,568.7,26.2,0.00,0.00,0.00,0.00,0,0,0,0,0,0,0,0,0,0,0,0,0,0,0,0,0.0,0.2153637707233429,1.202187180519104,0.7124679088592529,6.068104595357963,2.091563929269622,4.226991188636488,0.0,0.0,0.0,0.0,0.0,3.085420045166859,-2.056194118543099,4.43203620381613,-1.710653305053711e-05,1.0251998901367188e-05,2.2846191227436066,3.7978230714797974,0
2025-12-05 17:53:27.933014,0.0,0.0,1019.6,84.5,12.1,1.3,6931.6,568.7,26.2,0.00,0.00,0.00,0.00,0,0,0,0,0,0,0,0,0,0,0,0,0,0,0,0,0.0,0.2153637707233429,1.202187180519104,0.7124679088592529,6.068104595357963,2.091563929269622,4.226991188636488,0.0,0.0,0.0,0.0,0.0,3.085420045166859,-2.056194118543099,4.43203620381613,-1.710653305053711e-05,1.0251998901367188e-05,2.2846191227436066,3.7978230714797974,0
2025-12-05 17:53:27.964140,0.0,0.0,1023.1,84.8,12.1,1.3,6931.7,568.7,26.2,0.00,0.00,0.00,0.00,0,0,0,0,0,0,0,0,0,0,0,0,0,0,0,0,0.0,0.21537752449512482,1.202172040939331,0.7124746441841125,6.070517345082759,2.089221205690821,4.227409393113062,0.0,0.0,0.0,0.0,0.0,3.085006260728542,-2.055775914066525,4.432042087142782,-3.3527612686157227e-06,-4.887580871582031e-06,2.2846191227436066,3.7978230714797974,0
2025-12-05 17:53:27.995658,0.0,0.0,1021.7,84.7,12.1,1.3,6931.7,568.7,26.2,0.00,0.00,0.00,0.00,0,0,0,0,0,0,0,0,0,0,0,0,0,0,0,0,0.0,0.21537752449512482,1.202172040939331,0.7124746441841125,6.070517345082759,2.089221205690821,4.227409393113062,0.0,0.0,0.0,0.0,0.0,3.085006260728542,-2.055775914066525,4.432042087142782,-3.3527612686157227e-06,-4.887580871582031e-06,2.2846191227436066,3.7978230714797974,0
2025-12-05 17:53:28.027147,0.0,0.0,1019.5,84.5,12.1,1.3,6931.8,568.7,26.2,0.00,0.00,0.00,0.00,0,0,0,0,0,0,0,0,0,0,0,0,0,0,0,0,0.0,0.21537752449512482,1.202172040939331,0.7124746441841125,6.070517345082759,2.089221205690821,4.227409393113062,0.0,0.0,0.0,0.0,0.0,3.085006260728542,-2.055775914066525,4.432042087142782,-3.3527612686157227e-06,-4.887580871582031e-06,2.2846191227436066,3.7978230714797974,0
2025-12-05 17:53:28.058499,0.0,0.0,1023.1,84.8,12.1,1.3,6931.9,568.7,26.2,0.00,0.00,0.00,0.00,0,0,0,0,0,0,0,0,0,0,0,0,0,0,0,0,0.0,0.2151675671339035,1.202154517173767,0.7125698924064636,6.059720618797538,2.0863997913141334,4.245105878693975,0.0,0.0,0.0,0.0,0.0,3.0672712206599515,-2.0380794284856116,4.432165335104324,-0.0002133101224899292,-2.2411346435546875e-05,2.2846191227436066,3.7978230714797974,0
2025-12-05 17:53:28.090089,0.0,0.0,1026.7,85.1,12.1,1.3,6931.9,568.8,26.2,0.00,0.00,0.00,0.00,0,0,0,0,0,0,0,0,0,0,0,0,0,0,0,0,0.0,0.2151675671339035,1.202154517173767,0.7125698924064636,6.059720618797538,2.0863997913141334,4.245105878693975,0.0,0.0,0.0,0.0,0.0,3.0672712206599515,-2.0380794284856116,4.432165335104324,-0.0002133101224899292,-2.2411346435546875e-05,2.2846191227436066,3.7978230714797974,0
2025-12-05 17:53:28.121718,0.0,0.0,1028.2,85.2,12.1,1.3,6932.0,568.8,26.2,0.00,0.00,0.00,0.00,0,0,0,0,0,0,0,0,0,0,0,0,0,0,0,0,0.0,0.2151675671339035,1.202154517173767,0.7125698924064636,6.059720618797538,2.0863997913141334,4.245105878693975,0.0,0.0,0.0,0.0,0.0,3.0672712206599515,-2.0380794284856116,4.432165335104324,-0.0002133101224899292,-2.2411346435546875e-05,2.2846191227436066,3.7978230714797974,0
2025-12-05 17:53:28.153000,0.0,0.0,1019.8,84.5,12.1,1.3,6932.0,568.8,26.2,0.00,0.00,0.00,0.00,0,0,0,0,0,0,0,0,0,0,0,0,0,0,0,0,0.0,0.2152230441570282,1.2021543979644775,0.7125857472419739,6.065644140008948,2.0850818514995986,4.236141255439376,0.0,0.0,0.0,0.0,0.0,3.0762465833733947,-2.0470440517402104,4.432136838461966,-0.00015783309936523438,-2.2530555725097656e-05,2.2846191227436066,3.7978230714797974,0
2025-12-05 17:53:28.184634,0.0,0.0,1028.5,84.7,12.1,1.3,6932.1,568.8,26.2,0.00,0.00,0.00,0.00,0,0,0,0,0,0,0,0,0,0,0,0,0,0,0,0,0.0,0.2152230441570282,1.2021543979644775,0.7125857472419739,6.065644140008948,2.0850818514995986,4.236141255439376,0.0,0.0,0.0,0.0,0.0,3.0762465833733947,-2.0470440517402104,4.432136838461966,-0.00015783309936523438,-2.2530555725097656e-05,2.2846191227436066,3.7978230714797974,0
2025-12-05 17:53:28.215495,0.0,0.0,1028.1,85.2,12.1,1.3,6932.2,568.8,26.2,0.00,0.00,0.00,0.00,0,0,0,0,0,0,0,0,0,0,0,0,0,0,0,0,0.0,0.2152230441570282,1.2021543979644775,0.7125857472419739,6.065644140008948,2.0850818514995986,4.236141255439376,0.0,0.0,0.0,0.0,0.0,3.0762465833733947,-2.0470440517402104,4.432136838461966,-0.00015783309936523438,-2.2530555725097656e-05,2.2846191227436066,3.7978230714797974,0
2025-12-05 17:53:28.246273,0.0,0.0,1026.1,85.0,12.1,1.3,6932.2,568.8,26.2,0.00,0.00,0.00,0.00,0,0,0,0,0,0,0,0,0,0,0,0,0,0,0,0,0.0,0.2152230441570282,1.2021543979644775,0.7125857472419739,6.065644140008948,2.0850818514995986,4.236141255439376,0.0,0.0,0.0,0.0,0.0,3.0762465833733947,-2.0470440517402104,4.432136838461966,-0.00015783309936523438,-2.2530555725097656e-05,2.2846191227436066,3.7978230714797974,0
2025-12-05 17:53:28.277475,0.0,0.0,1023.3,84.8,12.1,1.3,6932.3,568.8,26.2,0.00,0.00,0.00,0.00,0,0,0,0,0,0,0,0,0,0,0,0,0,0,0,0,0.0,0.2152230441570282,1.2021543979644775,0.7125857472419739,6.065644140008948,2.0850818514995986,4.236141255439376,0.0,0.0,0.0,0.0,0.0,3.0762465833733947,-2.0470440517402104,4.432136838461966,-0.00015783309936523438,-2.2530555725097656e-05,2.2846191227436066,3.7978230714797974,0
2025-12-05 17:53:28.308407,0.0,0.0,1025.3,85.0,12.1,1.3,6932.3,568.8,26.2,0.00,0.00,0.00,0.00,0,0,0,0,0,0,0,0,0,0,0,0,0,0,0,0,0.0,0.2152230441570282,1.2021543979644775,0.7125857472419739,6.065644140008948,2.0850818514995986,4.236141255439376,0.0,0.0,0.0,0.0,0.0,3.0762465833733947,-2.0470440517402104,4.432136838461966,-0.00015783309936523438,-2.2530555725097656e-05,2.2846191227436066,3.7978230714797974,0
2025-12-05 17:53:28.339743,0.0,0.0,1026.8,85.1,12.1,1.3,6932.4,568.8,26.2,0.00,0.00,0.00,0.00,0,0,0,0,0,0,0,0,0,0,0,0,0,0,0,0,0.0,0.2152230441570282,1.2021543979644775,0.7125857472419739,6.065644140008948,2.0850818514995986,4.236141255439376,0.0,0.0,0.0,0.0,0.0,3.0762465833733947,-2.0470440517402104,4.432136838461966,-0.00015783309936523438,-2.2530555725097656e-05,2.2846191227436066,3.7978230714797974,0
2025-12-05 17:53:28.370729,0.0,0.0,1022.9,84.8,12.1,1.3,6932.5,568.8,26.2,0.00,0.00,0.00,0.00,0,0,0,0,0,0,0,0,0,0,0,0,0,0,0,0,0.0,0.2152077704668045,1.2021688222885132,0.7125775814056396,6.071875817763873,2.082082026186654,4.2442555060181615,0.0,0.0,0.0,0.0,0.0,3.0681277021528115,-2.038929801161425,4.432132352100137,-0.00017310678958892822,-8.106231689453125e-06,2.2846191227436066,3.7978230714797974,0
2025-12-05 17:53:28.401894,0.0,0.0,1031.9,85.5,12.1,1.3,6932.5,568.8,26.2,0.00,0.00,0.00,0.00,0,0,0,0,0,0,0,0,0,0,0,0,0,0,0,0,0.0,0.2152077704668045,1.2021688222885132,0.7125775814056396,6.071875817763873,2.082082026186654,4.2442555060181615,0.0,0.0,0.0,0.0,0.0,3.0681277021528115,-2.038929801161425,4.432132352100137,-0.00017310678958892822,-8.106231689453125e-06,2.2846191227436066,3.7978230714797974,0
2025-12-05 17:53:28.433246,0.0,0.0,1032.7,85.6,12.1,1.3,6932.6,568.8,26.2,0.00,0.00,0.00,0.00,0,0,0,0,0,0,0,0,0,0,0,0,0,0,0,0,0.0,0.2152077704668045,1.2021688222885132,0.7125775814056396,6.071875817763873,2.082082026186654,4.2442555060181615,0.0,0.0,0.0,0.0,0.0,3.0681277021528115,-2.038929801161425,4.432132352100137,-0.00017310678958892822,-8.106231689453125e-06,2.2846191227436066,3.7978230714797974,0
2025-12-05 17:53:28.464213,0.0,0.0,1021.4,84.7,12.1,1.3,6932.6,568.8,26.2,0.00,0.00,0.00,0.00,0,0,0,0,0,0,0,0,0,0,0,0,0,0,0,0,0.0,0.21520298719406128,1.2021235227584839,0.7125977277755737,6.055397166012027,2.09397938467312,4.23106734260446,0.0,0.0,0.0,0.0,0.0,3.081320209592071,-2.052117964575127,4.432173634472297,-0.00017789006233215332,-5.340576171875e-05,2.2846191227436066,3.7978230714797974,0
2025-12-05 17:53:28.495724,0.0,0.0,1024.8,84.9,12.1,1.3,6932.7,568.8,26.2,0.00,0.00,0.00,0.00,0,0,0,0,0,0,0,0,0,0,0,0,0,0,0,0,0.0,0.21520298719406128,1.2021235227584839,0.7125977277755737,6.055397166012027,2.09397938467312,4.23106734260446,0.0,0.0,0.0,0.0,0.0,3.081320209592071,-2.052117964575127,4.432173634472297,-0.00017789006233215332,-5.340576171875e-05,2.2846191227436066,3.7978230714797974,0
2025-12-05 17:53:28.527102,0.0,0.0,1027.0,85.4,12.1,1.3,6932.8,568.8,26.2,0.00,0.00,0.00,0.00,0,0,0,0,0,0,0,0,0,0,0,0,0,0,0,0,0.0,0.21520298719406128,1.2021235227584839,0.7125977277755737,6.055397166012027,2.09397938467312,4.23106734260446,0.0,0.0,0.0,0.0,0.0,3.081320209592071,-2.052117964575127,4.432173634472297,-0.00017789006233215332,-5.340576171875e-05,2.2846191227436066,3.7978230714797974,0
2025-12-05 17:53:28.558449,0.0,0.0,1022.9,84.8,12.1,1.3,6932.8,568.8,26.2,0.00,0.00,0.00,0.00,0,0,0,0,0,0,0,0,0,0,0,0,0,0,0,0,0.0,0.21520298719406128,1.2021235227584839,0.7125977277755737,6.055397166012027,2.09397938467312,4.23106734260446,0.0,0.0,0.0,0.0,0.0,3.081320209592071,-2.052117964575127,4.432173634472297,-0.00017789006233215332,-5.340576171875e-05,2.2846191227436066,3.7978230714797974,0
2025-12-05 17:53:28.589609,0.0,0.0,1032.5,86.1,12.1,1.3,6932.9,568.8,26.2,0.00,0.00,0.00,0.00,0,0,0,0,0,0,0,0,0,0,0,0,0,0,0,0,0.0,0.21517860889434814,1.2021827697753906,0.7125619053840637,6.061053739573227,2.0812067726644568,4.246047900374732,0.0,0.0,0.0,0.0,0.0,3.0663280476042223,-2.0371374068048547,4.432135433788648,-0.00020226836204528809,5.841255187988281e-06,2.2846191227436066,3.7978230714797974,0
