Timestamp,forward_vel_cmd,steering_vel_cmd,power_mW,current_mA,busVoltage_V,shuntVoltage_mV,energy,charge,dieTemp,Left_Stick_X,Left_Stick_Y,Right_Stick_X,Right_Stick_Y,Button_0,Button_1,Button_2,Button_3,Button_4,Button_5,Button_6,Button_7,Button_8,Button_9,Button_10,Button_11,Button_12,Button_13,Button_14,Button_15,mocap_velocity,mocap_x,mocap_y,mocap_z,mocap_roll,mocap_pitch,mocap_yaw_raw,forward_vel_cmd,steering_vel_cmd,left_wheel_vel,right_wheel_vel,ppo_control_active,heading_error_rad,current_heading_rad,distance_to_target,relative_x,relative_y,target_relative_x,target_relative_y,current_waypoint_idx
2025-12-05 17:52:58.852207,0.0,0.0,1019.2,84.5,12.1,1.3,6876.0,564.1,26.2,0.00,0.00,0.00,0.00,0,0,0,0,0,0,0,0,0,0,0,0,0,0,0,0,0.0,0.21537432074546814,1.2021815776824951,0.7124654054641724,6.071510028726433,2.0900144529508733,4.229805746948712,0.0,0.0,0.0,0.0,0.0,3.082608178276956,-2.053379560230875,4.432035566554431,-6.556510925292969e-06,4.649162292480469e-06,2.2846191227436066,3.7978230714797974,0
2025-12-05 17:52:58.883343,0.0,0.0,1031.3,85.4,12.1,1.3,6876.0,564.1,26.2,0.00,0.00,0.00,0.00,0,0,0,0,0,0,0,0,0,0,0,0,0,0,0,0,0.0,0.21540412306785583,1.202146053314209,0.7124911546707153,6.066130720801536,2.0961481896390466,4.21840360207946,0.0,0.0,0.0,0.0,0.0,3.094020216931919,-2.0647817051001263,4.432050645158761,2.3245811462402344e-05,-3.0875205993652344e-05,2.2846191227436066,3.7978230714797974,0
2025-12-05 17:52:58.914497,0.0,0.0,1025.8,85.0,12.1,1.3,6876.1,564.1,26.2,0.00,0.00,0.00,0.00,0,0,0,0,0,0,0,0,0,0,0,0,0,0,0,0,0.0,0.21540412306785583,1.202146053314209,0.7124911546707153,6.066130720801536,2.0961481896390466,4.21840360207946,0.0,0.0,0.0,0.0,0.0,3.094020216931919,-2.0647817051001263,4.432050645158761,2.3245811462402344e-05,-3.0875205993652344e-05,2.2846191227436066,3.7978230714797974,0
2025-12-05 17:52:58.944912,0.0,0.0,1021.6,84.6,12.1,1.3,6876.1,564.1,26.2,0.00,0.00,0.00,0.00,0,0,0,0,0,0,0,0,0,0,0,0,0,0,0,0,0.0,0.21540412306785583,1.202146053314209,0.7124911546707153,6.066130720801536,2.0961481896390466,4.21840360207946,0.0,0.0,0.0,0.0,0.0,3.094020216931919,-2.0647817051001263,4.432050645158761,2.3245811462402344e-05,-3.0875205993652344e-05,2.2846191227436066,3.7978230714797974,0
2025-12-05 17:52:58.976590,0.0,0.0,1025.1,85.0,12.1,1.3,6876.2,564.1,26.2,0.00,0.00,0.00,0.00,0,0,0,0,0,0,0,0,0,0,0,0,0,0,0,0,0.0,0.21517851948738098,1.2021430730819702,0.7125844359397888,6.060691593711879,2.088126422733475,4.24134329364861,0.0,0.0,0.0,0.0,0.0,3.0710372542293367,-2.0418420135309767,4.432169495309395,-0.00020235776901245117,-3.3855438232421875e-05,2.2846191227436066,3.7978230714797974,0
2025-12-05 17:52:59.008027,0.0,0.0,1021.1,84.5,12.1,1.3,6876.3,564.1,26.2,0.00,0.00,0.00,0.00,0,0,0,0,0,0,0,0,0,0,0,0,0,0,0,0,0.0,0.21517851948738098,1.2021430730819702,0.7125844359397888,6.060691593711879,2.088126422733475,4.24134329364861,0.0,0.0,0.0,0.0,0.0,3.0710372542293367,-2.0418420135309767,4.432169495309395,-0.00020235776901245117,-3.3855438232421875e-05,2.2846191227436066,3.7978230714797974,0
2025-12-05 17:52:59.038999,0.0,0.0,1015.1,84.1,12.1,1.3,6876.3,564.1,26.2,0.00,0.00,0.00,0.00,0,0,0,0,0,0,0,0,0,0,0,0,0,0,0,0,0.0,0.21517851948738098,1.2021430730819702,0.7125844359397888,6.060691593711879,2.088126422733475,4.24134329364861,0.0,0.0,0.0,0.0,0.0,3.0710372542293367,-2.0418420135309767,4.432169495309395,-0.00020235776901245117,-3.3855438232421875e-05,2.2846191227436066,3.7978230714797974,0
2025-12-05 17:52:59.070212,0.0,0.0,1021.6,84.7,12.1,1.3,6876.4,564.1,26.2,0.00,0.00,0.00,0.00,0,0,0,0,0,0,0,0,0,0,0,0,0,0,0,0,0.0,0.21517851948738098,1.2021430730819702,0.7125844359397888,6.060691593711879,2.088126422733475,4.24134329364861,0.0,0.0,0.0,0.0,0.0,3.0710372542293367,-2.0418420135309767,4.432169495309395,-0.00020235776901245117,-3.3855438232421875e-05,2.2846191227436066,3.7978230714797974,0
2025-12-05 17:52:59.100940,0.0,0.0,1010.4,83.7,12.1,1.3,6876.4,564.1,26.2,0.00,0.00,0.00,0.00,0,0,0,0,0,0,0,0,0,0,0,0,0,0,0,0,0.0,0.2152116894721985,1.2021558284759521,0.7125920653343201,6.071186466108378,2.0844854877287866,4.239034573121527,0.0,0.0,0.0,0.0,0.0,3.073350904050228,-2.0441507340580594,4.432141466052688,-0.0001691877841949463,-2.110004425048828e-05,2.2846191227436066,3.7978230714797974,0
2025-12-05 17:52:59.131561,0.0,0.0,1019.9,84.5,12.1,1.3,6876.5,564.2,26.2,0.00,0.00,0.00,0.00,0,0,0,0,0,0,0,0,0,0,0,0,0,0,0,0,0.0,0.2152116894721985,1.2021558284759521,0.7125920653343201,6.071186466108378,2.0844854877287866,4.239034573121527,0.0,0.0,0.0,0.0,0.0,3.073350904050228,-2.0441507340580594,4.432141466052688,-0.0001691877841949463,-2.110004425048828e-05,2.2846191227436066,3.7978230714797974,0
2025-12-05 17:52:59.162758,0.0,0.0,1019.0,84.5,12.1,1.3,6876.5,564.2,26.2,0.00,0.00,0.00,0.00,0,0,0,0,0,0,0,0,0,0,0,0,0,0,0,0,0.0,0.2152116894721985,1.2021558284759521,0.7125920653343201,6.071186466108378,2.0844854877287866,4.239034573121527,0.0,0.0,0.0,0.0,0.0,3.073350904050228,-2.0441507340580594,4.432141466052688,-0.0001691877841949463,-2.110004425048828e-05,2.2846191227436066,3.7978230714797974,0
2025-12-05 17:52:59.194131,0.0,0.0,1022.5,84.7,12.1,1.3,6876.6,564.2,26.2,0.00,0.00,0.00,0.00,0,0,0,0,0,0,0,0,0,0,0,0,0,0,0,0,0.0,0.21521076560020447,1.2021507024765015,0.7125835418701172,6.059044145103318,2.0896325744407505,4.236474662702205,0.0,0.0,0.0,0.0,0.0,3.075911232059842,-2.0467106444773813,4.432146334715149,-0.00017011165618896484,-2.6226043701171875e-05,2.2846191227436066,3.7978230714797974,0
2025-12-05 17:52:59.225612,0.0,0.0,1025.3,84.5,12.1,1.3,6876.7,564.2,26.2,0.00,0.00,0.00,0.00,0,0,0,0,0,0,0,0,0,0,0,0,0,0,0,0,0.0,0.21521076560020447,1.2021507024765015,0.7125835418701172,6.059044145103318,2.0896325744407505,4.236474662702205,0.0,0.0,0.0,0.0,0.0,3.075911232059842,-2.0467106444773813,4.432146334715149,-0.00017011165618896484,-2.6226043701171875e-05,2.2846191227436066,3.7978230714797974,0
2025-12-05 17:52:59.256714,0.0,0.0,1028.3,85.2,12.1,1.3,6876.7,564.2,26.2,0.00,0.00,0.00,0.00,0,0,0,0,0,0,0,0,0,0,0,0,0,0,0,0,0.0,0.21521076560020447,1.2021507024765015,0.7125835418701172,6.059044145103318,2.0896325744407505,4.236474662702205,0.0,0.0,0.0,0.0,0.0,3.075911232059842,-2.0467106444773813,4.432146334715149,-0.00017011165618896484,-2.6226043701171875e-05,2.2846191227436066,3.7978230714797974,0
2025-12-05 17:52:59.287733,0.0,0.0,1023.8,84.8,12.1,1.3,6876.8,564.2,26.2,0.00,0.00,0.00,0.00,0,0,0,0,0,0,0,0,0,0,0,0,0,0,0,0,0.0,0.21539172530174255,1.202157735824585,0.7124994397163391,6.06572255956886,2.0972261605097304,4.219565788988431,0.0,0.0,0.0,0.0,0.0,3.0928542742572107,-2.0636195181911554,4.43204702506379,1.0848045349121094e-05,-1.919269561767578e-05,2.2846191227436066,3.7978230714797974,0
2025-12-05 17:52:59.318832,0.0,0.0,1023.7,84.8,12.1,1.3,6876.9,564.2,26.2,0.00,0.00,0.00,0.00,0,0,0,0,0,0,0,0,0,0,0,0,0,0,0,0,0.0,0.21539172530174255,1.202157735824585,0.7124994397163391,6.06572255956886,2.0972261605097304,4.219565788988431,0.0,0.0,0.0,0.0,0.0,3.0928542742572107,-2.0636195181911554,4.43204702506379,1.0848045349121094e-05,-1.919269561767578e-05,2.2846191227436066,3.7978230714797974,0
2025-12-05 17:52:59.350458,0.0,0.0,1025.5,84.8,12.1,1.3,6876.9,564.2,26.2,0.00,0.00,0.00,0.00,0,0,0,0,0,0,0,0,0,0,0,0,0,0,0,0,0.0,0.21539172530174255,1.202157735824585,0.7124994397163391,6.06572255956886,2.0972261605097304,4.219565788988431,0.0,0.0,0.0,0.0,0.0,3.0928542742572107,-2.0636195181911554,4.43204702506379,1.0848045349121094e-05,-1.919269561767578e-05,2.2846191227436066,3.7978230714797974,0
2025-12-05 17:52:59.381630,0.0,0.0,1026.0,85.0,12.1,1.3,6877.0,564.2,26.2,0.00,0.00,0.00,0.00,0,0,0,0,0,0,0,0,0,0,0,0,0,0,0,0,0.0,0.21539172530174255,1.202157735824585,0.7124994397163391,6.06572255956886,2.0972261605097304,4.219565788988431,0.0,0.0,0.0,0.0,0.0,3.0928542742572107,-2.0636195181911554,4.43204702506379,1.0848045349121094e-05,-1.919269561767578e-05,2.2846191227436066,3.7978230714797974,0
2025-12-05 17:52:59.412996,0.0,0.0,1018.5,84.4,12.1,1.3,6877.0,564.2,26.2,0.00,0.00,0.00,0.00,0,0,0,0,0,0,0,0,0,0,0,0,0,0,0,0,0.0,0.2152065932750702,1.2021396160125732,0.7125838994979858,6.053792395996545,2.0912636346970075,4.234949055460133,0.0,0.0,0.0,0.0,0.0,3.077437322115216,-2.0482362517194534,4.432157985414649,-0.0001742839813232422,-3.731250762939453e-05,2.2846191227436066,3.7978230714797974,0
2025-12-05 17:52:59.444375,0.0,0.0,1025.0,85.0,12.1,1.3,6877.1,564.2,26.2,0.00,0.00,0.00,0.00,0,0,0,0,0,0,0,0,0,0,0,0,0,0,0,0,0.0,0.2152065932750702,1.2021396160125732,0.7125838994979858,6.053792395996545,2.0912636346970075,4.234949055460133,0.0,0.0,0.0,0.0,0.0,3.077437322115216,-2.0482362517194534,4.432157985414649,-0.0001742839813232422,-3.731250762939453e-05,2.2846191227436066,3.7978230714797974,0
2025-12-05 17:52:59.475484,0.0,0.0,1024.3,84.9,12.1,1.3,6877.1,564.2,26.2,0.00,0.00,0.00,0.00,0,0,0,0,0,0,0,0,0,0,0,0,0,0,0,0,0.0,0.2152065932750702,1.2021396160125732,0.7125838994979858,6.053792395996545,2.0912636346970075,4.234949055460133,0.0,0.0,0.0,0.0,0.0,3.077437322115216,-2.0482362517194534,4.432157985414649,-0.0001742839813232422,-3.731250762939453e-05,2.2846191227436066,3.7978230714797974,0
2025-12-05 17:52:59.505908,0.0,0.0,1016.0,84.2,12.1,1.3,6877.2,564.2,26.2,0.00,0.00,0.00,0.00,0,0,0,0,0,0,0,0,0,0,0,0,0,0,0,0,0.0,0.215189591050148,1.2021604776382446,0.7125713229179382,6.06488202311417,2.084416964625482,4.244774385944295,0.0,0.0,0.0,0.0,0.0,3.0676062780965134,-2.038410921235292,4.4321488741307595,-0.00019128620624542236,-1.6450881958007812e-05,2.2846191227436066,3.7978230714797974,0
2025-12-05 17:52:59.537725,0.0,0.0,1022.7,84.7,12.1,1.3,6877.3,564.2,26.2,0.00,0.00,0.00,0.00,0,0,0,0,0,0,0,0,0,0,0,0,0,0,0,0,0.0,0.215189591050148,1.2021604776382446,0.7125713229179382,6.06488202311417,2.084416964625482,4.244774385944295,0.0,0.0,0.0,0.0,0.0,3.0676062780965134,-2.038410921235292,4.4321488741307595,-0.00019128620624542236,-1.6450881958007812e-05,2.2846191227436066,3.7978230714797974,0
2025-12-05 17:52:59.569131,0.0,0.0,1022.4,84.6,12.1,1.3,6877.3,564.2,26.2,0.00,0.00,0.00,0.00,0,0,0,0,0,0,0,0,0,0,0,0,0,0,0,0,0.0,0.215189591050148,1.2021604776382446,0.7125713229179382,6.06488202311417,2.084416964625482,4.244774385944295,0.0,0.0,0.0,0.0,0.0,3.0676062780965134,-2.038410921235292,4.4321488741307595,-0.00019128620624542236,-1.6450881958007812e-05,2.2846191227436066,3.7978230714797974,0
2025-12-05 17:52:59.600475,0.0,0.0,1026.2,85.0,12.1,1.3,6877.4,564.2,26.2,0.00,0.00,0.00,0.00,0,0,0,0,0,0,0,0,0,0,0,0,0,0,0,0,0.0,0.21518906950950623,1.202185034751892,0.7125623822212219,6.067977150645428,2.0775370222183125,4.24752501259732,0.0,0.0,0.0,0.0,0.0,3.0648526943311145,-2.0356602945822666,4.43212810039955,-0.00019180774688720703,8.106231689453125e-06,2.2846191227436066,3.7978230714797974,0
2025-12-05 17:52:59.631841,0.0,0.0,1022.2,84.7,12.1,1.3,6877.4,564.2,26.2,0.00,0.00,0.00,0.00,0,0,0,0,0,0,0,0,0,0,0,0,0,0,0,0,0.0,0.21518906950950623,1.202185034751892,0.7125623822212219,6.067977150645428,2.0775370222183125,4.24752501259732,0.0,0.0,0.0,0.0,0.0,3.0648526943311145,-2.0356602945822666,4.43212810039955,-0.00019180774688720703,8.106231689453125e-06,2.2846191227436066,3.7978230714797974,0
2025-12-05 17:52:59.663160,0.0,0.0,1024.3,84.9,12.1,1.3,6877.5,564.2,26.2,0.00,0.00,0.00,0.00,0,0,0,0,0,0,0,0,0,0,0,0,0,0,0,0,0.0,0.21518906950950623,1.202185034751892,0.7125623822212219,6.067977150645428,2.0775370222183125,4.24752501259732,0.0,0.0,0.0,0.0,0.0,3.0648526943311145,-2.0356602945822666,4.43212810039955,-0.00019180774688720703,8.106231689453125e-06,2.2846191227436066,3.7978230714797974,0
2025-12-05 17:52:59.693732,0.0,0.0,1024.5,84.9,12.1,1.3,6877.6,564.2,26.2,0.00,0.00,0.00,0.00,0,0,0,0,0,0,0,0,0,0,0,0,0,0,0,0,0.0,0.21518906950950623,1.202185034751892,0.7125623822212219,6.067977150645428,2.0775370222183125,4.24752501259732,0.0,0.0,0.0,0.0,0.0,3.0648526943311145,-2.0356602945822666,4.43212810039955,-0.00019180774688720703,8.106231689453125e-06,2.2846191227436066,3.7978230714797974,0
2025-12-05 17:52:59.725115,0.0,0.0,1021.3,84.6,12.1,1.3,6877.6,564.2,26.2,0.00,0.00,0.00,0.00,0,0,0,0,0,0,0,0,0,0,0,0,0,0,0,0,0.0,0.2152206152677536,1.2021554708480835,0.7125921249389648,6.073125107714191,2.082353976662986,4.234191643752494,0.0,0.0,0.0,0.0,0.0,3.078195600683255,-2.0489936634270927,4.4321371712196145,-0.00016026198863983154,-2.1457672119140625e-05,2.2846191227436066,3.7978230714797974,0
2025-12-05 17:52:59.755753,0.0,0.0,1020.4,84.6,12.1,1.3,6877.7,564.3,26.2,0.00,0.00,0.00,0.00,0,0,0,0,0,0,0,0,0,0,0,0,0,0,0,0,0.0,0.2152206152677536,1.2021554708480835,0.7125921249389648,6.073125107714191,2.082353976662986,4.234191643752494,0.0,0.0,0.0,0.0,0.0,3.078195600683255,-2.0489936634270927,4.4321371712196145,-0.00016026198863983154,-2.1457672119140625e-05,2.2846191227436066,3.7978230714797974,0
2025-12-05 17:52:59.786879,0.0,0.0,1033.0,85.6,12.1,1.3,6877.7,564.3,26.2,0.00,0.00,0.00,0.00,0,0,0,0,0,0,0,0,0,0,0,0,0,0,0,0,0.0,0.2152206152677536,1.2021554708480835,0.7125921249389648,6.073125107714191,2.082353976662986,4.234191643752494,0.0,0.0,0.0,0.0,0.0,3.078195600683255,-2.0489936634270927,4.4321371712196145,-0.00016026198863983154,-2.1457672119140625e-05,2.2846191227436066,3.7978230714797974,0
2025-12-05 17:52:59.817931,0.0,0.0,1027.1,85.1,12.1,1.3,6877.8,564.3,26.2,0.00,0.00,0.00,0.00,0,0,0,0,0,0,0,0,0,0,0,0,0,0,0,0,0.0,0.2152206152677536,1.2021554708480835,0.7125921249389648,6.073125107714191,2.082353976662986,4.234191643752494,0.0,0.0,0.0,0.0,0.0,3.078195600683255,-2.0489936634270927,4.4321371712196145,-0.00016026198863983154,-2.1457672119140625e-05,2.2846191227436066,3.7978230714797974,0
2025-12-05 17:52:59.848987,0.0,0.0,1024.8,84.7,12.1,1.3,6877.9,564.3,26.2,0.00,0.00,0.00,0.00,0,0,0,0,0,0,0,0,0,0,0,0,0,0,0,0,0.0,0.2152206152677536,1.2021554708480835,0.7125921249389648,6.073125107714191,2.082353976662986,4.234191643752494,0.0,0.0,0.0,0.0,0.0,3.078195600683255,-2.0489936634270927,4.4321371712196145,-0.00016026198863983154,-2.1457672119140625e-05,2.2846191227436066,3.7978230714797974,0
2025-12-05 17:52:59.880189,0.0,0.0,1021.0,84.6,12.1,1.3,6877.9,564.3,26.2,0.00,0.00,0.00,0.00,0,0,0,0,0,0,0,0,0,0,0,0,0,0,0,0,0.0,0.2152206152677536,1.2021554708480835,0.7125921249389648,6.073125107714191,2.082353976662986,4.234191643752494,0.0,0.0,0.0,0.0,0.0,3.078195600683255,-2.0489936634270927,4.4321371712196145,-0.00016026198863983154,-2.1457672119140625e-05,2.2846191227436066,3.7978230714797974,0
2025-12-05 17:52:59.910766,0.0,0.0,1020.6,84.6,12.1,1.3,6878.0,564.3,26.2,0.00,0.00,0.00,0.00,0,0,0,0,0,0,0,0,0,0,0,0,0,0,0,0,0.0,0.21538227796554565,1.2021561861038208,0.7124975323677063,6.067090126009487,2.096392717075437,4.219839326233098,0.0,0.0,0.0,0.0,0.0,3.092579090681772,-2.063345980946489,4.432053222896062,1.4007091522216797e-06,-2.0742416381835938e-05,2.2846191227436066,3.7978230714797974,0
2025-12-05 17:52:59.941915,0.0,0.0,1021.1,84.6,12.1,1.3,6878.0,564.3,26.2,0.00,0.00,0.00,0.00,0,0,0,0,0,0,0,0,0,0,0,0,0,0,0,0,0.0,0.21538227796554565,1.2021561861038208,0.7124975323677063,6.067090126009487,2.096392717075437,4.219839326233098,0.0,0.0,0.0,0.0,0.0,3.092579090681772,-2.063345980946489,4.432053222896062,1.4007091522216797e-06,-2.0742416381835938e-05,2.2846191227436066,3.7978230714797974,0
2025-12-05 17:52:59.973064,0.0,0.0,1029.5,85.3,12.1,1.3,6878.1,564.3,26.2,0.00,0.00,0.00,0.00,0,0,0,0,0,0,0,0,0,0,0,0,0,0,0,0,0.0,0.21538227796554565,1.2021561861038208,0.7124975323677063,6.067090126009487,2.096392717075437,4.219839326233098,0.0,0.0,0.0,0.0,0.0,3.092579090681772,-2.063345980946489,4.432053222896062,1.4007091522216797e-06,-2.0742416381835938e-05,2.2846191227436066,3.7978230714797974,0
2025-12-05 17:53:00.004977,0.0,0.0,1028.0,85.2,12.1,1.3,6878.2,564.3,26.2,0.00,0.00,0.00,0.00,0,0,0,0,0,0,0,0,0,0,0,0,0,0,0,0,0.0,0.21538227796554565,1.2021561861038208,0.7124975323677063,6.067090126009487,2.096392717075437,4.219839326233098,0.0,0.0,0.0,0.0,0.0,3.092579090681772,-2.063345980946489,4.432053222896062,1.4007091522216797e-06,-2.0742416381835938e-05,2.2846191227436066,3.7978230714797974,0
2025-12-05 17:53:00.036717,0.0,0.0,1020.8,84.6,12.1,1.3,6878.2,564.3,26.2,0.00,0.00,0.00,0.00,0,0,0,0,0,0,0,0,0,0,0,0,0,0,0,0,0.0,0.2151937335729599,1.202147126197815,0.7126004695892334,6.05949513534494,2.088252373572038,4.238707684087116,0.0,0.0,0.0,0.0,0.0,3.07367533376058,-2.044477623092471,4.432158179279231,-0.00018714368343353271,-2.9802322387695312e-05,2.2846191227436066,3.7978230714797974,0
2025-12-05 17:53:00.067502,0.0,0.0,1035.0,84.9,12.1,1.3,6878.3,564.3,26.2,0.00,0.00,0.00,0.00,0,0,0,0,0,0,0,0,0,0,0,0,0,0,0,0,0.0,0.2151937335729599,1.202147126197815,0.7126004695892334,6.05949513534494,2.088252373572038,4.238707684087116,0.0,0.0,0.0,0.0,0.0,3.07367533376058,-2.044477623092471,4.432158179279231,-0.00018714368343353271,-2.9802322387695312e-05,2.2846191227436066,3.7978230714797974,0
2025-12-05 17:53:00.099268,0.0,0.0,1019.5,84.5,12.1,1.3,6878.3,564.3,26.2,0.00,0.00,0.00,0.00,0,0,0,0,0,0,0,0,0,0,0,0,0,0,0,0,0.0,0.2151937335729599,1.202147126197815,0.7126004695892334,6.05949513534494,2.088252373572038,4.238707684087116,0.0,0.0,0.0,0.0,0.0,3.07367533376058,-2.044477623092471,4.432158179279231,-0.00018714368343353271,-2.9802322387695312e-05,2.2846191227436066,3.7978230714797974,0
2025-12-05 17:53:00.131007,0.0,0.0,1021.1,84.6,12.1,1.3,6878.4,564.3,26.2,0.00,0.00,0.00,0.00,0,0,0,0,0,0,0,0,0,0,0,0,0,0,0,0,0.0,0.21536822617053986,1.202162265777588,0.7124879956245422,6.068772032671104,2.093056354689698,4.224653710715769,0.0,0.0,0.0,0.0,0.0,3.08776128228756,-2.058531596463818,4.432055256590871,-1.265108585357666e-05,-1.4662742614746094e-05,2.2846191227436066,3.7978230714797974,0
2025-12-05 17:53:00.161492,0.0,0.0,1020.6,84.6,12.1,1.3,6878.5,564.3,26.2,0.00,0.00,0.00,0.00,0,0,0,0,0,0,0,0,0,0,0,0,0,0,0,0,0.0,0.21536822617053986,1.202162265777588,0.7124879956245422,6.068772032671104,2.093056354689698,4.224653710715769,0.0,0.0,0.0,0.0,0.0,3.08776128228756,-2.058531596463818,4.432055256590871,-1.265108585357666e-05,-1.4662742614746094e-05,2.2846191227436066,3.7978230714797974,0
2025-12-05 17:53:00.192326,0.0,0.0,1028.3,85.2,12.1,1.3,6878.5,564.3,26.2,0.00,0.00,0.00,0.00,0,0,0,0,0,0,0,0,0,0,0,0,0,0,0,0,0.0,0.21536822617053986,1.202162265777588,0.7124879956245422,6.068772032671104,2.093056354689698,4.224653710715769,0.0,0.0,0.0,0.0,0.0,3.08776128228756,-2.058531596463818,4.432055256590871,-1.265108585357666e-05,-1.4662742614746094e-05,2.2846191227436066,3.7978230714797974,0
2025-12-05 17:53:00.223777,0.0,0.0,1027.8,85.2,12.1,1.3,6878.6,564.3,26.2,0.00,0.00,0.00,0.00,0,0,0,0,0,0,0,0,0,0,0,0,0,0,0,0,0.0,0.21535979211330414,1.2021665573120117,0.7124748826026917,6.062086299116986,2.092132787573868,4.224185196737194,0.0,0.0,0.0,0.0,0.0,3.0882276664739425,-2.0590001104423927,4.432055926755873,-2.1085143089294434e-05,-1.0371208190917969e-05,2.2846191227436066,3.7978230714797974,0
2025-12-05 17:53:00.255106,0.0,0.0,1021.8,84.7,12.1,1.3,6878.6,564.3,26.2,0.00,0.00,0.00,0.00,0,0,0,0,0,0,0,0,0,0,0,0,0,0,0,0,0.0,0.21535979211330414,1.2021665573120117,0.7124748826026917,6.062086299116986,2.092132787573868,4.224185196737194,0.0,0.0,0.0,0.0,0.0,3.0882276664739425,-2.0590001104423927,4.432055926755873,-2.1085143089294434e-05,-1.0371208190917969e-05,2.2846191227436066,3.7978230714797974,0
2025-12-05 17:53:00.286479,0.0,0.0,1024.8,84.9,12.1,1.3,6878.7,564.3,26.2,0.00,0.00,0.00,0.00,0,0,0,0,0,0,0,0,0,0,0,0,0,0,0,0,0.0,0.21535979211330414,1.2021665573120117,0.7124748826026917,6.062086299116986,2.092132787573868,4.224185196737194,0.0,0.0,0.0,0.0,0.0,3.0882276664739425,-2.0590001104423927,4.432055926755873,-2.1085143089294434e-05,-1.0371208190917969e-05,2.2846191227436066,3.7978230714797974,0
2025-12-05 17:53:00.317394,0.0,0.0,1023.6,84.8,12.1,1.3,6878.7,564.3,26.2,0.00,0.00,0.00,0.00,0,0,0,0,0,0,0,0,0,0,0,0,0,0,0,0,0.0,0.21535979211330414,1.2021665573120117,0.7124748826026917,6.062086299116986,2.092132787573868,4.224185196737194,0.0,0.0,0.0,0.0,0.0,3.0882276664739425,-2.0590001104423927,4.432055926755873,-2.1085143089294434e-05,-1.0371208190917969e-05,2.2846191227436066,3.7978230714797974,0
2025-12-05 17:53:00.348453,0.0,0.0,1026.8,85.3,12.1,1.3,6878.8,564.3,26.2,0.00,0.00,0.00,0.00,0,0,0,0,0,0,0,0,0,0,0,0,0,0,0,0,0.0,0.21536508202552795,1.2021794319152832,0.7124807834625244,6.067233273917926,2.089717613090527,4.2265868324466975,0.0,0.0,0.0,0.0,0.0,3.085825556111745,-2.0565984747328887,4.4320421676463715,-1.5795230865478516e-05,2.5033950805664062e-06,2.2846191227436066,3.7978230714797974,0
2025-12-05 17:53:00.379705,0.0,0.0,1027.5,85.2,12.1,1.3,6878.9,564.4,26.2,0.00,0.00,0.00,0.00,0,0,0,0,0,0,0,0,0,0,0,0,0,0,0,0,0.0,0.21536508202552795,1.2021794319152832,0.7124807834625244,6.067233273917926,2.089717613090527,4.2265868324466975,0.0,0.0,0.0,0.0,0.0,3.085825556111745,-2.0565984747328887,4.4320421676463715,-1.5795230865478516e-05,2.5033950805664062e-06,2.2846191227436066,3.7978230714797974,0
2025-12-05 17:53:00.411255,0.0,0.0,1026.0,85.0,12.1,1.3,6878.9,564.4,26.2,0.00,0.00,0.00,0.00,0,0,0,0,0,0,0,0,0,0,0,0,0,0,0,0,0.0,0.21536508202552795,1.2021794319152832,0.7124807834625244,6.067233273917926,2.089717613090527,4.2265868324466975,0.0,0.0,0.0,0.0,0.0,3.085825556111745,-2.0565984747328887,4.4320421676463715,-1.5795230865478516e-05,2.5033950805664062e-06,2.2846191227436066,3.7978230714797974,0
2025-12-05 17:53:00.442581,0.0,0.0,1027.7,85.2,12.1,1.3,6879.0,564.4,26.2,0.00,0.00,0.00,0.00,0,0,0,0,0,0,0,0,0,0,0,0,0,0,0,0,0.0,0.21522104740142822,1.2021260261535645,0.712608814239502,6.061840159929346,2.0947319047410486,4.229568088884461,0.0,0.0,0.0,0.0,0.0,3.0828226637970797,-2.053617218295125,4.432162179281975,-0.00015982985496520996,-5.0902366638183594e-05,2.2846191227436066,3.7978230714797974,0
2025-12-05 17:53:00.473945,0.0,0.0,1022.9,84.8,12.1,1.3,6879.1,564.4,26.2,0.00,0.00,0.00,0.00,0,0,0,0,0,0,0,0,0,0,0,0,0,0,0,0,0.0,0.21522104740142822,1.2021260261535645,0.712608814239502,6.061840159929346,2.0947319047410486,4.229568088884461,0.0,0.0,0.0,0.0,0.0,3.0828226637970797,-2.053617218295125,4.432162179281975,-0.00015982985496520996,-5.0902366638183594e-05,2.2846191227436066,3.7978230714797974,0
2025-12-05 17:53:00.505382,0.0,0.0,1021.7,84.7,12.1,1.3,6879.1,564.4,26.2,0.00,0.00,0.00,0.00,0,0,0,0,0,0,0,0,0,0,0,0,0,0,0,0,0.0,0.21522104740142822,1.2021260261535645,0.712608814239502,6.061840159929346,2.0947319047410486,4.229568088884461,0.0,0.0,0.0,0.0,0.0,3.0828226637970797,-2.053617218295125,4.432162179281975,-0.00015982985496520996,-5.0902366638183594e-05,2.2846191227436066,3.7978230714797974,0
2025-12-05 17:53:00.537071,0.0,0.0,1023.1,84.8,12.1,1.3,6879.2,564.4,26.2,0.00,0.00,0.00,0.00,0,0,0,0,0,0,0,0,0,0,0,0,0,0,0,0,0.0,0.21535775065422058,1.2021803855895996,0.7124772071838379,6.06977601106526,2.0918510579723826,4.226879312459742,0.0,0.0,0.0,0.0,0.0,3.085531547716391,-2.0563059947198448,4.432045129632155,-2.3126602172851562e-05,3.4570693969726562e-06,2.2846191227436066,3.7978230714797974,0
2025-12-05 17:53:00.567802,0.0,0.0,1030.0,84.6,12.1,1.3,6879.2,564.4,26.2,0.00,0.00,0.00,0.00,0,0,0,0,0,0,0,0,0,0,0,0,0,0,0,0,0.0,0.21535775065422058,1.2021803855895996,0.7124772071838379,6.06977601106526,2.0918510579723826,4.226879312459742,0.0,0.0,0.0,0.0,0.0,3.085531547716391,-2.0563059947198448,4.432045129632155,-2.3126602172851562e-05,3.4570693969726562e-06,2.2846191227436066,3.7978230714797974,0
2025-12-05 17:53:00.598936,0.0,0.0,1021.7,84.7,12.1,1.3,6879.3,564.4,26.2,0.00,0.00,0.00,0.00,0,0,0,0,0,0,0,0,0,0,0,0,0,0,0,0,0.0,0.21535775065422058,1.2021803855895996,0.7124772071838379,6.06977601106526,2.0918510579723826,4.226879312459742,0.0,0.0,0.0,0.0,0.0,3.085531547716391,-2.0563059947198448,4.432045129632155,-2.3126602172851562e-05,3.4570693969726562e-06,2.2846191227436066,3.7978230714797974,0
2025-12-05 17:53:00.630397,0.0,0.0,1018.0,84.4,12.1,1.3,6879.3,564.4,26.2,0.00,0.00,0.00,0.00,0,0,0,0,0,0,0,0,0,0,0,0,0,0,0,0,0.0,0.2153688669204712,1.20217764377594,0.7124581933021545,6.061308729127785,2.093708306160832,4.227510566844527,0.0,0.0,0.0,0.0,0.0,3.0849027614686007,-2.0556747403350593,4.432041748863781,-1.2010335922241211e-05,7.152557373046875e-07,2.2846191227436066,3.7978230714797974,0
2025-12-05 17:53:00.661706,0.0,0.0,1021.6,84.7,12.1,1.3,6879.4,564.4,26.2,0.00,0.00,0.00,0.00,0,0,0,0,0,0,0,0,0,0,0,0,0,0,0,0,0.0,0.2153688669204712,1.20217764377594,0.7124581933021545,6.061308729127785,2.093708306160832,4.227510566844527,0.0,0.0,0.0,0.0,0.0,3.0849027614686007,-2.0556747403350593,4.432041748863781,-1.2010335922241211e-05,7.152557373046875e-07,2.2846191227436066,3.7978230714797974,0
2025-12-05 17:53:00.693109,0.0,0.0,1024.0,84.9,12.1,1.3,6879.5,564.4,26.2,0.00,0.00,0.00,0.00,0,0,0,0,0,0,0,0,0,0,0,0,0,0,0,0,0.0,0.2153688669204712,1.20217764377594,0.7124581933021545,6.061308729127785,2.093708306160832,4.227510566844527,0.0,0.0,0.0,0.0,0.0,3.0849027614686007,-2.0556747403350593,4.432041748863781,-1.2010335922241211e-05,7.152557373046875e-07,2.2846191227436066,3.7978230714797974,0
2025-12-05 17:53:00.724159,0.0,0.0,1023.8,84.8,12.1,1.3,6879.5,564.4,26.2,0.00,0.00,0.00,0.00,0,0,0,0,0,0,0,0,0,0,0,0,0,0,0,0,0.0,0.2153688669204712,1.20217764377594,0.7124581933021545,6.061308729127785,2.093708306160832,4.227510566844527,0.0,0.0,0.0,0.0,0.0,3.0849027614686007,-2.0556747403350593,4.432041748863781,-1.2010335922241211e-05,7.152557373046875e-07,2.2846191227436066,3.7978230714797974,0
2025-12-05 17:53:00.755542,0.0,0.0,1021.9,84.7,12.1,1.3,6879.6,564.4,26.2,0.00,0.00,0.00,0.00,0,0,0,0,0,0,0,0,0,0,0,0,0,0,0,0,0.0,0.21537940204143524,1.2021807432174683,0.7124696969985962,6.068220972899992,2.0905958687864428,4.227009803420996,0.0,0.0,0.0,0.0,0.0,3.0854052012912234,-2.0561755037585905,4.432033662305011,-1.475214958190918e-06,3.814697265625e-06,2.2846191227436066,3.7978230714797974,0
2025-12-05 17:53:00.787004,0.0,0.0,1026.7,85.0,12.1,1.3,6879.6,564.4,26.2,0.00,0.00,0.00,0.00,0,0,0,0,0,0,0,0,0,0,0,0,0,0,0,0,0.0,0.21537940204143524,1.2021807432174683,0.7124696969985962,6.068220972899992,2.0905958687864428,4.227009803420996,0.0,0.0,0.0,0.0,0.0,3.0854052012912234,-2.0561755037585905,4.432033662305011,-1.475214958190918e-06,3.814697265625e-06,2.2846191227436066,3.7978230714797974,0
2025-12-05 17:53:00.818328,0.0,0.0,1018.9,84.4,12.1,1.3,6879.7,564.4,26.2,0.00,0.00,0.00,0.00,0,0,0,0,0,0,0,0,0,0,0,0,0,0,0,0,0.0,0.21537940204143524,1.2021807432174683,0.7124696969985962,6.068220972899992,2.0905958687864428,4.227009803420996,0.0,0.0,0.0,0.0,0.0,3.0854052012912234,-2.0561755037585905,4.432033662305011,-1.475214958190918e-06,3.814697265625e-06,2.2846191227436066,3.7978230714797974,0
2025-12-05 17:53:00.849677,0.0,0.0,1028.7,85.3,12.1,1.3,6879.8,564.4,26.2,0.00,0.00,0.00,0.00,0,0,0,0,0,0,0,0,0,0,0,0,0,0,0,0,0.0,0.215151846408844,1.2021645307540894,0.7125722169876099,6.055110927035835,2.0844987379665456,4.25025222171689,0.0,0.0,0.0,0.0,0.0,3.0621206736118833,-2.032933085462697,4.432164858895844,-0.00022903084754943848,-1.239776611328125e-05,2.2846191227436066,3.7978230714797974,0
2025-12-05 17:53:00.880990,0.0,0.0,1036.4,85.9,12.1,1.3,6879.8,564.4,26.2,0.00,0.00,0.00,0.00,0,0,0,0,0,0,0,0,0,0,0,0,0,0,0,0,0.0,0.215151846408844,1.2021645307540894,0.7125722169876099,6.055110927035835,2.0844987379665456,4.25025222171689,0.0,0.0,0.0,0.0,0.0,3.0621206736118833,-2.032933085462697,4.432164858895844,-0.00022903084754943848,-1.239776611328125e-05,2.2846191227436066,3.7978230714797974,0
2025-12-05 17:53:00.912203,0.0,0.0,1034.0,85.7,12.1,1.3,6879.9,564.4,26.2,0.00,0.00,0.00,0.00,0,0,0,0,0,0,0,0,0,0,0,0,0,0,0,0,0.0,0.215151846408844,1.2021645307540894,0.7125722169876099,6.055110927035835,2.0844987379665456,4.25025222171689,0.0,0.0,0.0,0.0,0.0,3.0621206736118833,-2.032933085462697,4.432164858895844,-0.00022903084754943848,-1.239776611328125e-05,2.2846191227436066,3.7978230714797974,0
2025-12-05 17:53:00.943565,0.0,0.0,1017.0,84.3,12.1,1.3,6879.9,564.4,26.2,0.00,0.00,0.00,0.00,0,0,0,0,0,0,0,0,0,0,0,0,0,0,0,0,0.0,0.21536371111869812,1.202192783355713,0.712463915348053,6.073660688775702,2.0881620132536742,4.231078749497042,0.0,0.0,0.0,0.0,0.0,3.0813318211254597,-2.0521065576825444,4.432031433470295,-1.71661376953125e-05,1.5854835510253906e-05,2.2846191227436066,3.7978230714797974,0
2025-12-05 17:53:00.974135,0.0,0.0,1014.6,84.1,12.1,1.3,6880.0,564.4,26.2,0.00,0.00,0.00,0.00,0,0,0,0,0,0,0,0,0,0,0,0,0,0,0,0,0.0,0.21536371111869812,1.202192783355713,0.712463915348053,6.073660688775702,2.0881620132536742,4.231078749497042,0.0,0.0,0.0,0.0,0.0,3.0813318211254597,-2.0521065576825444,4.432031433470295,-1.71661376953125e-05,1.5854835510253906e-05,2.2846191227436066,3.7978230714797974,0
2025-12-05 17:53:01.005640,0.0,0.0,1021.8,84.2,12.1,1.3,6880.1,564.4,26.2,0.00,0.00,0.00,0.00,0,0,0,0,0,0,0,0,0,0,0,0,0,0,0,0,0.0,0.21536371111869812,1.202192783355713,0.712463915348053,6.073660688775702,2.0881620132536742,4.231078749497042,0.0,0.0,0.0,0.0,0.0,3.0813318211254597,-2.0521065576825444,4.432031433470295,-1.71661376953125e-05,1.5854835510253906e-05,2.2846191227436066,3.7978230714797974,0
2025-12-05 17:53:01.037412,0.0,0.0,1023.9,84.9,12.1,1.3,6880.1,564.5,26.2,0.00,0.00,0.00,0.00,0,0,0,0,0,0,0,0,0,0,0,0,0,0,0,0,0.0,0.21536371111869812,1.202192783355713,0.712463915348053,6.073660688775702,2.0881620132536742,4.231078749497042,0.0,0.0,0.0,0.0,0.0,3.0813318211254597,-2.0521065576825444,4.432031433470295,-1.71661376953125e-05,1.5854835510253906e-05,2.2846191227436066,3.7978230714797974,0
2025-12-05 17:53:01.068101,0.0,0.0,1028.2,85.2,12.1,1.3,6880.2,564.5,26.2,0.00,0.00,0.00,0.00,0,0,0,0,0,0,0,0,0,0,0,0,0,0,0,0,0.0,0.21538709104061127,1.2022004127502441,0.7124670743942261,6.082847947106645,2.081934513144584,4.233310572929623,0.0,0.0,0.0,0.0,0.0,3.079103630676518,-2.0498747342499635,4.432012843922984,6.213784217834473e-06,2.3484230041503906e-05,2.2846191227436066,3.7978230714797974,0
2025-12-05 17:53:01.098810,0.0,0.0,1021.2,84.6,12.1,1.3,6880.2,564.5,26.2,0.00,0.00,0.00,0.00,0,0,0,0,0,0,0,0,0,0,0,0,0,0,0,0,0.0,0.21538709104061127,1.2022004127502441,0.7124670743942261,6.082847947106645,2.081934513144584,4.233310572929623,0.0,0.0,0.0,0.0,0.0,3.079103630676518,-2.0498747342499635,4.432012843922984,6.213784217834473e-06,2.3484230041503906e-05,2.2846191227436066,3.7978230714797974,0
2025-12-05 17:53:01.129793,0.0,0.0,1026.3,85.0,12.1,1.3,6880.3,564.5,26.2,0.00,0.00,0.00,0.00,0,0,0,0,0,0,0,0,0,0,0,0,0,0,0,0,0.0,0.21538709104061127,1.2022004127502441,0.7124670743942261,6.082847947106645,2.081934513144584,4.233310572929623,0.0,0.0,0.0,0.0,0.0,3.079103630676518,-2.0498747342499635,4.432012843922984,6.213784217834473e-06,2.3484230041503906e-05,2.2846191227436066,3.7978230714797974,0
2025-12-05 17:53:01.160929,0.0,0.0,1022.8,84.8,12.1,1.3,6880.4,564.5,26.2,0.00,0.00,0.00,0.00,0,0,0,0,0,0,0,0,0,0,0,0,0,0,0,0,0.0,0.21538347005844116,1.2021478414535522,0.712478756904602,6.061985355057713,2.0977024045644725,4.2208404035084595,0.0,0.0,0.0,0.0,0.0,3.091579214422991,-2.062344903671127,4.4320597589673945,2.592802047729492e-06,-2.9087066650390625e-05,2.2846191227436066,3.7978230714797974,0
2025-12-05 17:53:01.192253,0.0,0.0,1022.6,84.7,12.1,1.3,6880.4,564.5,26.2,0.00,0.00,0.00,0.00,0,0,0,0,0,0,0,0,0,0,0,0,0,0,0,0,0.0,0.21538347005844116,1.2021478414535522,0.712478756904602,6.061985355057713,2.0977024045644725,4.2208404035084595,0.0,0.0,0.0,0.0,0.0,3.091579214422991,-2.062344903671127,4.4320597589673945,2.592802047729492e-06,-2.9087066650390625e-05,2.2846191227436066,3.7978230714797974,0
2025-12-05 17:53:01.223661,0.0,0.0,1027.8,84.7,12.1,1.3,6880.5,564.5,26.2,0.00,0.00,0.00,0.00,0,0,0,0,0,0,0,0,0,0,0,0,0,0,0,0,0.0,0.21538347005844116,1.2021478414535522,0.712478756904602,6.061985355057713,2.0977024045644725,4.2208404035084595,0.0,0.0,0.0,0.0,0.0,3.091579214422991,-2.062344903671127,4.4320597589673945,2.592802047729492e-06,-2.9087066650390625e-05,2.2846191227436066,3.7978230714797974,0
2025-12-05 17:53:01.254993,0.0,0.0,1020.4,84.6,12.1,1.3,6880.5,564.5,26.2,0.00,0.00,0.00,0.00,0,0,0,0,0,0,0,0,0,0,0,0,0,0,0,0,0.0,0.21538347005844116,1.2021478414535522,0.712478756904602,6.061985355057713,2.0977024045644725,4.2208404035084595,0.0,0.0,0.0,0.0,0.0,3.091579214422991,-2.062344903671127,4.4320597589673945,2.592802047729492e-06,-2.9087066650390625e-05,2.2846191227436066,3.7978230714797974,0
2025-12-05 17:53:01.286157,0.0,0.0,1025.1,85.0,12.1,1.3,6880.6,564.5,26.2,0.00,0.00,0.00,0.00,0,0,0,0,0,0,0,0,0,0,0,0,0,0,0,0,0.0,0.2153700441122055,1.2021769285202026,0.7124695777893066,6.063661485711612,2.091780408287889,4.225962029342751,0.0,0.0,0.0,0.0,0.0,3.086451609761114,-2.0572232778368353,4.432041754948176,-1.0833144187927246e-05,0.0,2.2846191227436066,3.7978230714797974,0
2025-12-05 17:53:01.317518,0.0,0.0,1025.6,85.0,12.1,1.3,6880.7,564.5,26.2,0.00,0.00,0.00,0.00,0,0,0,0,0,0,0,0,0,0,0,0,0,0,0,0,0.0,0.2153700441122055,1.2021769285202026,0.7124695777893066,6.063661485711612,2.091780408287889,4.225962029342751,0.0,0.0,0.0,0.0,0.0,3.086451609761114,-2.0572232778368353,4.432041754948176,-1.0833144187927246e-05,0.0,2.2846191227436066,3.7978230714797974,0
2025-12-05 17:53:01.348828,0.0,0.0,1019.8,84.5,12.1,1.3,6880.7,564.5,26.2,0.00,0.00,0.00,0.00,0,0,0,0,0,0,0,0,0,0,0,0,0,0,0,0,0.0,0.2153700441122055,1.2021769285202026,0.7124695777893066,6.063661485711612,2.091780408287889,4.225962029342751,0.0,0.0,0.0,0.0,0.0,3.086451609761114,-2.0572232778368353,4.432041754948176,-1.0833144187927246e-05,0.0,2.2846191227436066,3.7978230714797974,0
2025-12-05 17:53:01.380332,0.0,0.0,1023.7,84.8,12.1,1.3,6880.8,564.5,26.2,0.00,0.00,0.00,0.00,0,0,0,0,0,0,0,0,0,0,0,0,0,0,0,0,0.0,0.21519269049167633,1.2021615505218506,0.7125719785690308,6.0572180990758975,2.0854748582235083,4.24083579133625,0.0,0.0,0.0,0.0,0.0,3.071545347143467,-2.0423495158433362,4.432146357005515,-0.00018818676471710205,-1.537799835205078e-05,2.2846191227436066,3.7978230714797974,0
2025-12-05 17:53:01.411139,0.0,0.0,1035.6,85.8,12.1,1.3,6880.8,564.5,26.2,0.00,0.00,0.00,0.00,0,0,0,0,0,0,0,0,0,0,0,0,0,0,0,0,0.0,0.21519269049167633,1.2021615505218506,0.7125719785690308,6.0572180990758975,2.0854748582235083,4.24083579133625,0.0,0.0,0.0,0.0,0.0,3.071545347143467,-2.0423495158433362,4.432146357005515,-0.00018818676471710205,-1.537799835205078e-05,2.2846191227436066,3.7978230714797974,0
2025-12-05 17:53:01.442320,0.0,0.0,1015.2,84.1,12.1,1.3,6880.9,564.5,26.2,0.00,0.00,0.00,0.00,0,0,0,0,0,0,0,0,0,0,0,0,0,0,0,0,0.0,0.21519269049167633,1.2021615505218506,0.7125719785690308,6.0572180990758975,2.0854748582235083,4.24083579133625,0.0,0.0,0.0,0.0,0.0,3.071545347143467,-2.0423495158433362,4.432146357005515,-0.00018818676471710205,-1.537799835205078e-05,2.2846191227436066,3.7978230714797974,0
2025-12-05 17:53:01.473187,0.0,0.0,1026.8,85.1,12.1,1.3,6881.0,564.5,26.2,0.00,0.00,0.00,0.00,0,0,0,0,0,0,0,0,0,0,0,0,0,0,0,0,0.0,0.2151835560798645,1.2021794319152832,0.7125632166862488,6.062342185739302,2.0810262812486098,4.246387462634926,0.0,0.0,0.0,0.0,0.0,3.0659898300373043,-2.0367978445446604,4.43213574360885,-0.00019732117652893066,2.5033950805664062e-06,2.2846191227436066,3.7978230714797974,0
2025-12-05 17:53:01.504353,0.0,0.0,1025.4,85.0,12.1,1.3,6881.0,564.5,26.2,0.00,0.00,0.00,0.00,0,0,0,0,0,0,0,0,0,0,0,0,0,0,0,0,0.0,0.2151835560798645,1.2021794319152832,0.7125632166862488,6.062342185739302,2.0810262812486098,4.246387462634926,0.0,0.0,0.0,0.0,0.0,3.0659898300373043,-2.0367978445446604,4.43213574360885,-0.00019732117652893066,2.5033950805664062e-06,2.2846191227436066,3.7978230714797974,0
2025-12-05 17:53:01.534947,0.0,0.0,1028.0,85.2,12.1,1.3,6881.1,564.5,26.2,0.00,0.00,0.00,0.00,0,0,0,0,0,0,0,0,0,0,0,0,0,0,0,0,0.0,0.2151835560798645,1.2021794319152832,0.7125632166862488,6.062342185739302,2.0810262812486098,4.246387462634926,0.0,0.0,0.0,0.0,0.0,3.0659898300373043,-2.0367978445446604,4.43213574360885,-0.00019732117652893066,2.5033950805664062e-06,2.2846191227436066,3.7978230714797974,0
2025-12-05 17:53:01.566143,0.0,0.0,1031.6,85.5,12.1,1.3,6881.1,564.5,26.2,0.00,0.00,0.00,0.00,0,0,0,0,0,0,0,0,0,0,0,0,0,0,0,0,0.0,0.2151835560798645,1.2021794319152832,0.7125632166862488,6.062342185739302,2.0810262812486098,4.246387462634926,0.0,0.0,0.0,0.0,0.0,3.0659898300373043,-2.0367978445446604,4.43213574360885,-0.00019732117652893066,2.5033950805664062e-06,2.2846191227436066,3.7978230714797974,0
2025-12-05 17:53:01.597504,0.0,0.0,1015.6,84.2,12.1,1.3,6881.2,564.5,26.2,0.00,0.00,0.00,0.00,0,0,0,0,0,0,0,0,0,0,0,0,0,0,0,0,0.0,0.21537329256534576,1.2021634578704834,0.7124819159507751,6.0641785933985775,2.0967348258740595,4.223513066587243,0.0,0.0,0.0,0.0,0.0,3.0889027673146203,-2.0596722405923438,4.432051623464916,-7.584691047668457e-06,-1.3470649719238281e-05,2.2846191227436066,3.7978230714797974,0
2025-12-05 17:53:01.628445,0.0,0.0,1013.8,84.0,12.1,1.3,6881.2,564.5,26.2,0.00,0.00,0.00,0.00,0,0,0,0,0,0,0,0,0,0,0,0,0,0,0,0,0.0,0.21537329256534576,1.2021634578704834,0.7124819159507751,6.0641785933985775,2.0967348258740595,4.223513066587243,0.0,0.0,0.0,0.0,0.0,3.0889027673146203,-2.0596722405923438,4.432051623464916,-7.584691047668457e-06,-1.3470649719238281e-05,2.2846191227436066,3.7978230714797974,0
2025-12-05 17:53:01.659587,0.0,0.0,1022.7,84.7,12.1,1.3,6881.3,564.6,26.2,0.00,0.00,0.00,0.00,0,0,0,0,0,0,0,0,0,0,0,0,0,0,0,0,0.0,0.21537329256534576,1.2021634578704834,0.7124819159507751,6.0641785933985775,2.0967348258740595,4.223513066587243,0.0,0.0,0.0,0.0,0.0,3.0889027673146203,-2.0596722405923438,4.432051623464916,-7.584691047668457e-06,-1.3470649719238281e-05,2.2846191227436066,3.7978230714797974,0
2025-12-05 17:53:01.690233,0.0,0.0,1022.2,84.7,12.1,1.3,6881.4,564.6,26.2,0.00,0.00,0.00,0.00,0,0,0,0,0,0,0,0,0,0,0,0,0,0,0,0,0.0,0.21539416909217834,1.2021530866622925,0.7124903202056885,6.064052258115787,2.0946645464774707,4.2211687111605,0.0,0.0,0.0,0.0,0.0,3.09125236530062,-2.0620165960190864,4.432049749243206,1.329183578491211e-05,-2.384185791015625e-05,2.2846191227436066,3.7978230714797974,0
2025-12-05 17:53:01.721785,0.0,0.0,1024.7,85.1,12.1,1.3,6881.4,564.6,26.2,0.00,0.00,0.00,0.00,0,0,0,0,0,0,0,0,0,0,0,0,0,0,0,0,0.0,0.21539416909217834,1.2021530866622925,0.7124903202056885,6.064052258115787,2.0946645464774707,4.2211687111605,0.0,0.0,0.0,0.0,0.0,3.09125236530062,-2.0620165960190864,4.432049749243206,1.329183578491211e-05,-2.384185791015625e-05,2.2846191227436066,3.7978230714797974,0
2025-12-05 17:53:01.752795,0.0,0.0,1022.1,84.7,12.1,1.3,6881.5,564.6,26.2,0.00,0.00,0.00,0.00,0,0,0,0,0,0,0,0,0,0,0,0,0,0,0,0,0.0,0.21539416909217834,1.2021530866622925,0.7124903202056885,6.064052258115787,2.0946645464774707,4.2211687111605,0.0,0.0,0.0,0.0,0.0,3.09125236530062,-2.0620165960190864,4.432049749243206,1.329183578491211e-05,-2.384185791015625e-05,2.2846191227436066,3.7978230714797974,0
2025-12-05 17:53:01.783830,0.0,0.0,1023.1,84.8,12.1,1.3,6881.5,564.6,26.2,0.00,0.00,0.00,0.00,0,0,0,0,0,0,0,0,0,0,0,0,0,0,0,0,0.0,0.21538494527339935,1.20217764377594,0.7124757170677185,6.070270622020711,2.0898866763601647,4.227063463709113,0.0,0.0,0.0,0.0,0.0,3.085352973236141,-2.0561218434704736,4.4320334608076575,4.06801700592041e-06,7.152557373046875e-07,2.2846191227436066,3.7978230714797974,0
2025-12-05 17:53:01.815073,0.0,0.0,1022.7,84.7,12.1,1.3,6881.6,564.6,26.2,0.00,0.00,0.00,0.00,0,0,0,0,0,0,0,0,0,0,0,0,0,0,0,0,0.0,0.21538494527339935,1.20217764377594,0.7124757170677185,6.070270622020711,2.0898866763601647,4.227063463709113,0.0,0.0,0.0,0.0,0.0,3.085352973236141,-2.0561218434704736,4.4320334608076575,4.06801700592041e-06,7.152557373046875e-07,2.2846191227436066,3.7978230714797974,0
2025-12-05 17:53:01.845954,0.0,0.0,1024.0,84.9,12.1,1.3,6881.7,564.6,26.2,0.00,0.00,0.00,0.00,0,0,0,0,0,0,0,0,0,0,0,0,0,0,0,0,0.0,0.21538494527339935,1.20217764377594,0.7124757170677185,6.070270622020711,2.0898866763601647,4.227063463709113,0.0,0.0,0.0,0.0,0.0,3.085352973236141,-2.0561218434704736,4.4320334608076575,4.06801700592041e-06,7.152557373046875e-07,2.2846191227436066,3.7978230714797974,0
2025-12-05 17:53:01.876643,0.0,0.0,1022.1,84.7,12.1,1.3,6881.7,564.6,26.2,0.00,0.00,0.00,0.00,0,0,0,0,0,0,0,0,0,0,0,0,0,0,0,0,0.0,0.21538494527339935,1.20217764377594,0.7124757170677185,6.070270622020711,2.0898866763601647,4.227063463709113,0.0,0.0,0.0,0.0,0.0,3.085352973236141,-2.0561218434704736,4.4320334608076575,4.06801700592041e-06,7.152557373046875e-07,2.2846191227436066,3.7978230714797974,0
2025-12-05 17:53:01.907870,0.0,0.0,1022.8,84.8,12.1,1.3,6881.8,564.6,26.2,0.00,0.00,0.00,0.00,0,0,0,0,0,0,0,0,0,0,0,0,0,0,0,0,0.0,0.21537788212299347,1.2021626234054565,0.7124789953231812,6.059744272421953,2.095622904573653,4.221651331825909,0.0,0.0,0.0,0.0,0.0,3.0907654864855516,-2.061533975353678,4.4320499727046565,-2.995133399963379e-06,-1.430511474609375e-05,2.2846191227436066,3.7978230714797974,0
2025-12-05 17:53:01.939212,0.0,0.0,1034.7,84.7,12.1,1.3,6881.8,564.6,26.2,0.00,0.00,0.00,0.00,0,0,0,0,0,0,0,0,0,0,0,0,0,0,0,0,0.0,0.21537788212299347,1.2021626234054565,0.7124789953231812,6.059744272421953,2.095622904573653,4.221651331825909,0.0,0.0,0.0,0.0,0.0,3.0907654864855516,-2.061533975353678,4.4320499727046565,-2.995133399963379e-06,-1.430511474609375e-05,2.2846191227436066,3.7978230714797974,0
2025-12-05 17:53:01.971001,0.0,0.0,1022.0,84.7,12.1,1.3,6881.9,564.6,26.2,0.00,0.00,0.00,0.00,0,0,0,0,0,0,0,0,0,0,0,0,0,0,0,0,0.0,0.21537788212299347,1.2021626234054565,0.7124789953231812,6.059744272421953,2.095622904573653,4.221651331825909,0.0,0.0,0.0,0.0,0.0,3.0907654864855516,-2.061533975353678,4.4320499727046565,-2.995133399963379e-06,-1.430511474609375e-05,2.2846191227436066,3.7978230714797974,0
2025-12-05 17:53:02.001985,0.0,0.0,1023.7,84.8,12.1,1.3,6882.0,564.6,26.2,0.00,0.00,0.00,0.00,0,0,0,0,0,0,0,0,0,0,0,0,0,0,0,0,0.0,0.2153746485710144,1.2021681070327759,0.7124761939048767,6.068097388403466,2.0919482893069397,4.224128891236274,0.0,0.0,0.0,0.0,0.0,3.08828666410857,-2.0590564159433122,4.43204694059427,-6.22868537902832e-06,-8.821487426757812e-06,2.2846191227436066,3.7978230714797974,0
2025-12-05 17:53:02.033354,0.0,0.0,1022.2,84.7,12.1,1.3,6882.0,564.6,26.2,0.00,0.00,0.00,0.00,0,0,0,0,0,0,0,0,0,0,0,0,0,0,0,0,0.0,0.2153746485710144,1.2021681070327759,0.7124761939048767,6.068097388403466,2.0919482893069397,4.224128891236274,0.0,0.0,0.0,0.0,0.0,3.08828666410857,-2.0590564159433122,4.43204694059427,-6.22868537902832e-06,-8.821487426757812e-06,2.2846191227436066,3.7978230714797974,0
2025-12-05 17:53:02.064550,0.0,0.0,1023.8,84.8,12.1,1.3,6882.1,564.6,26.2,0.00,0.00,0.00,0.00,0,0,0,0,0,0,0,0,0,0,0,0,0,0,0,0,0.0,0.2153746485710144,1.2021681070327759,0.7124761939048767,6.068097388403466,2.0919482893069397,4.224128891236274,0.0,0.0,0.0,0.0,0.0,3.08828666410857,-2.0590564159433122,4.43204694059427,-6.22868537902832e-06,-8.821487426757812e-06,2.2846191227436066,3.7978230714797974,0
2025-12-05 17:53:02.095369,0.0,0.0,1032.0,85.5,12.1,1.3,6882.1,564.6,26.2,0.00,0.00,0.00,0.00,0,0,0,0,0,0,0,0,0,0,0,0,0,0,0,0,0.0,0.21519607305526733,1.2021642923355103,0.7125705480575562,6.059406822925795,2.0832013022692486,4.240831843464489,0.0,0.0,0.0,0.0,0.0,3.0715496300766514,-2.0423534637150973,4.432142263848658,-0.00018480420112609863,-1.2636184692382812e-05,2.2846191227436066,3.7978230714797974,0
2025-12-05 17:53:02.126911,0.0,0.0,1026.7,85.1,12.1,1.3,6882.2,564.6,26.2,0.00,0.00,0.00,0.00,0,0,0,0,0,0,0,0,0,0,0,0,0,0,0,0,0.0,0.21519607305526733,1.2021642923355103,0.7125705480575562,6.059406822925795,2.0832013022692486,4.240831843464489,0.0,0.0,0.0,0.0,0.0,3.0715496300766514,-2.0423534637150973,4.432142263848658,-0.00018480420112609863,-1.2636184692382812e-05,2.2846191227436066,3.7978230714797974,0
2025-12-05 17:53:02.157796,0.0,0.0,1028.1,85.0,12.1,1.3,6882.3,564.6,26.2,0.00,0.00,0.00,0.00,0,0,0,0,0,0,0,0,0,0,0,0,0,0,0,0,0.0,0.21519607305526733,1.2021642923355103,0.7125705480575562,6.059406822925795,2.0832013022692486,4.240831843464489,0.0,0.0,0.0,0.0,0.0,3.0715496300766514,-2.0423534637150973,4.432142263848658,-0.00018480420112609863,-1.2636184692382812e-05,2.2846191227436066,3.7978230714797974,0
2025-12-05 17:53:02.189082,0.0,0.0,1026.1,85.0,12.1,1.3,6882.3,564.6,26.2,0.00,0.00,0.00,0.00,0,0,0,0,0,0,0,0,0,0,0,0,0,0,0,0,0.0,0.21538743376731873,1.2021660804748535,0.7125013470649719,6.068043636633478,2.094422649627285,4.222847636746037,0.0,0.0,0.0,0.0,0.0,3.089570626225016,-2.0603376704335497,4.43204208667788,6.556510925292969e-06,-1.0848045349121094e-05,2.2846191227436066,3.7978230714797974,0
2025-12-05 17:53:02.220371,0.0,0.0,1023.8,84.8,12.1,1.3,6882.4,564.6,26.2,0.00,0.00,0.00,0.00,0,0,0,0,0,0,0,0,0,0,0,0,0,0,0,0,0.0,0.21538743376731873,1.2021660804748535,0.7125013470649719,6.068043636633478,2.094422649627285,4.222847636746037,0.0,0.0,0.0,0.0,0.0,3.089570626225016,-2.0603376704335497,4.43204208667788,6.556510925292969e-06,-1.0848045349121094e-05,2.2846191227436066,3.7978230714797974,0
2025-12-05 17:53:02.251374,0.0,0.0,1027.2,85.1,12.1,1.3,6882.4,564.6,26.2,0.00,0.00,0.00,0.00,0,0,0,0,0,0,0,0,0,0,0,0,0,0,0,0,0.0,0.21538743376731873,1.2021660804748535,0.7125013470649719,6.068043636633478,2.094422649627285,4.222847636746037,0.0,0.0,0.0,0.0,0.0,3.089570626225016,-2.0603376704335497,4.43204208667788,6.556510925292969e-06,-1.0848045349121094e-05,2.2846191227436066,3.7978230714797974,0
2025-12-05 17:53:02.282159,0.0,0.0,1025.3,85.0,12.1,1.3,6882.5,564.7,26.2,0.00,0.00,0.00,0.00,0,0,0,0,0,0,0,0,0,0,0,0,0,0,0,0,0.0,0.21538743376731873,1.2021660804748535,0.7125013470649719,6.068043636633478,2.094422649627285,4.222847636746037,0.0,0.0,0.0,0.0,0.0,3.089570626225016,-2.0603376704335497,4.43204208667788,6.556510925292969e-06,-1.0848045349121094e-05,2.2846191227436066,3.7978230714797974,0
2025-12-05 17:53:02.313515,0.0,0.0,1021.4,84.6,12.1,1.3,6882.6,564.7,26.2,0.00,0.00,0.00,0.00,0,0,0,0,0,0,0,0,0,0,0,0,0,0,0,0,0.0,0.215185284614563,1.2021509408950806,0.7125862240791321,6.057598900518238,2.0879096335514036,4.238702288749279,0.0,0.0,0.0,0.0,0.0,3.0736786519409707,-2.044483018430308,4.432159266022145,-0.00019559264183044434,-2.5987625122070312e-05,2.2846191227436066,3.7978230714797974,0
2025-12-05 17:53:02.345062,0.0,0.0,1028.1,85.2,12.1,1.3,6882.6,564.7,26.2,0.00,0.00,0.00,0.00,0,0,0,0,0,0,0,0,0,0,0,0,0,0,0,0,0.0,0.215185284614563,1.2021509408950806,0.7125862240791321,6.057598900518238,2.0879096335514036,4.238702288749279,0.0,0.0,0.0,0.0,0.0,3.0736786519409707,-2.044483018430308,4.432159266022145,-0.00019559264183044434,-2.5987625122070312e-05,2.2846191227436066,3.7978230714797974,0
2025-12-05 17:53:02.376396,0.0,0.0,1034.8,85.8,12.1,1.3,6882.7,564.7,26.2,0.00,0.00,0.00,0.00,0,0,0,0,0,0,0,0,0,0,0,0,0,0,0,0,0.0,0.215185284614563,1.2021509408950806,0.7125862240791321,6.057598900518238,2.0879096335514036,4.238702288749279,0.0,0.0,0.0,0.0,0.0,3.0736786519409707,-2.044483018430308,4.432159266022145,-0.00019559264183044434,-2.5987625122070312e-05,2.2846191227436066,3.7978230714797974,0
2025-12-05 17:53:02.407677,0.0,0.0,1030.8,85.4,12.1,1.3,6882.7,564.7,26.2,0.00,0.00,0.00,0.00,0,0,0,0,0,0,0,0,0,0,0,0,0,0,0,0,0.0,0.215185284614563,1.2021509408950806,0.7125862240791321,6.057598900518238,2.0879096335514036,4.238702288749279,0.0,0.0,0.0,0.0,0.0,3.0736786519409707,-2.044483018430308,4.432159266022145,-0.00019559264183044434,-2.5987625122070312e-05,2.2846191227436066,3.7978230714797974,0
2025-12-05 17:53:02.439140,0.0,0.0,1014.2,84.0,12.1,1.3,6882.8,564.7,26.2,0.00,0.00,0.00,0.00,0,0,0,0,0,0,0,0,0,0,0,0,0,0,0,0,0.0,0.215185284614563,1.2021509408950806,0.7125862240791321,6.057598900518238,2.0879096335514036,4.238702288749279,0.0,0.0,0.0,0.0,0.0,3.0736786519409707,-2.044483018430308,4.432159266022145,-0.00019559264183044434,-2.5987625122070312e-05,2.2846191227436066,3.7978230714797974,0
2025-12-05 17:53:02.470545,0.0,0.0,1017.1,84.3,12.1,1.3,6882.8,564.7,26.2,0.00,0.00,0.00,0.00,0,0,0,0,0,0,0,0,0,0,0,0,0,0,0,0,0.0,0.215185284614563,1.2021509408950806,0.7125862240791321,6.057598900518238,2.0879096335514036,4.238702288749279,0.0,0.0,0.0,0.0,0.0,3.0736786519409707,-2.044483018430308,4.432159266022145,-0.00019559264183044434,-2.5987625122070312e-05,2.2846191227436066,3.7978230714797974,0
2025-12-05 17:53:02.501438,0.0,0.0,1017.9,84.3,12.1,1.3,6882.9,564.7,26.2,0.00,0.00,0.00,0.00,0,0,0,0,0,0,0,0,0,0,0,0,0,0,0,0,0.0,0.21536646783351898,1.2021608352661133,0.7124919891357422,6.06352525899465,2.095884405418528,4.221233927724596,0.0,0.0,0.0,0.0,0.0,3.0911808916970336,-2.061951379454991,4.432057388785267,-1.4409422874450684e-05,-1.609325408935547e-05,2.2846191227436066,3.7978230714797974,0
2025-12-05 17:53:02.532720,0.0,0.0,1022.8,84.8,12.1,1.3,6883.0,564.7,26.2,0.00,0.00,0.00,0.00,0,0,0,0,0,0,0,0,0,0,0,0,0,0,0,0,0.0,0.21536646783351898,1.2021608352661133,0.7124919891357422,6.06352525899465,2.095884405418528,4.221233927724596,0.0,0.0,0.0,0.0,0.0,3.0911808916970336,-2.061951379454991,4.432057388785267,-1.4409422874450684e-05,-1.609325408935547e-05,2.2846191227436066,3.7978230714797974,0
2025-12-05 17:53:02.564058,0.0,0.0,1025.1,85.0,12.1,1.3,6883.0,564.7,26.2,0.00,0.00,0.00,0.00,0,0,0,0,0,0,0,0,0,0,0,0,0,0,0,0,0.0,0.21536646783351898,1.2021608352661133,0.7124919891357422,6.06352525899465,2.095884405418528,4.221233927724596,0.0,0.0,0.0,0.0,0.0,3.0911808916970336,-2.061951379454991,4.432057388785267,-1.4409422874450684e-05,-1.609325408935547e-05,2.2846191227436066,3.7978230714797974,0
2025-12-05 17:53:02.595714,0.0,0.0,1020.2,84.5,12.1,1.3,6883.1,564.7,26.2,0.00,0.00,0.00,0.00,0,0,0,0,0,0,0,0,0,0,0,0,0,0,0,0,0.0,0.21536646783351898,1.2021608352661133,0.7124919891357422,6.06352525899465,2.095884405418528,4.221233927724596,0.0,0.0,0.0,0.0,0.0,3.0911808916970336,-2.061951379454991,4.432057388785267,-1.4409422874450684e-05,-1.609325408935547e-05,2.2846191227436066,3.7978230714797974,0
2025-12-05 17:53:02.627455,0.0,0.0,1025.5,85.0,12.1,1.3,6883.1,564.7,26.2,0.00,0.00,0.00,0.00,0,0,0,0,0,0,0,0,0,0,0,0,0,0,0,0,0.0,0.2153521627187729,1.2021831274032593,0.7124552130699158,6.0633229687509225,2.091357082444252,4.230892396524537,0.0,0.0,0.0,0.0,0.0,3.0815170643746397,-2.05229291065505,4.432045660659903,-2.8714537620544434e-05,6.198883056640625e-06,2.2846191227436066,3.7978230714797974,0
2025-12-05 17:53:02.659154,0.0,0.0,1028.4,85.1,12.1,1.3,6883.2,564.7,26.2,0.00,0.00,0.00,0.00,0,0,0,0,0,0,0,0,0,0,0,0,0,0,0,0,0.0,0.2153521627187729,1.2021831274032593,0.7124552130699158,6.0633229687509225,2.091357082444252,4.230892396524537,0.0,0.0,0.0,0.0,0.0,3.0815170643746397,-2.05229291065505,4.432045660659903,-2.8714537620544434e-05,6.198883056640625e-06,2.2846191227436066,3.7978230714797974,0
2025-12-05 17:53:02.689821,0.0,0.0,1022.0,84.7,12.1,1.3,6883.3,564.7,26.2,0.00,0.00,0.00,0.00,0,0,0,0,0,0,0,0,0,0,0,0,0,0,0,0,0.0,0.2153521627187729,1.2021831274032593,0.7124552130699158,6.0633229687509225,2.091357082444252,4.230892396524537,0.0,0.0,0.0,0.0,0.0,3.0815170643746397,-2.05229291065505,4.432045660659903,-2.8714537620544434e-05,6.198883056640625e-06,2.2846191227436066,3.7978230714797974,0
2025-12-05 17:53:02.720710,0.0,0.0,1022.5,84.7,12.1,1.3,6883.3,564.7,26.2,0.00,0.00,0.00,0.00,0,0,0,0,0,0,0,0,0,0,0,0,0,0,0,0,0.0,0.21516793966293335,1.202178955078125,0.7125502824783325,6.054580196624385,2.0803477163864774,4.251366063501946,0.0,0.0,0.0,0.0,0.0,3.061008265452869,-2.0318192436776408,4.43214420266259,-0.000212937593460083,2.0265579223632812e-06,2.2846191227436066,3.7978230714797974,0
2025-12-05 17:53:02.752419,0.0,0.0,1020.9,84.6,12.1,1.3,6883.4,564.7,26.2,0.00,0.00,0.00,0.00,0,0,0,0,0,0,0,0,0,0,0,0,0,0,0,0,0.0,0.21516793966293335,1.202178955078125,0.7125502824783325,6.054580196624385,2.0803477163864774,4.251366063501946,0.0,0.0,0.0,0.0,0.0,3.061008265452869,-2.0318192436776408,4.43214420266259,-0.000212937593460083,2.0265579223632812e-06,2.2846191227436066,3.7978230714797974,0
2025-12-05 17:53:02.783000,0.0,0.0,1020.8,84.6,12.1,1.3,6883.4,564.7,26.2,0.00,0.00,0.00,0.00,0,0,0,0,0,0,0,0,0,0,0,0,0,0,0,0,0.0,0.21516793966293335,1.202178955078125,0.7125502824783325,6.054580196624385,2.0803477163864774,4.251366063501946,0.0,0.0,0.0,0.0,0.0,3.061008265452869,-2.0318192436776408,4.43214420266259,-0.000212937593460083,2.0265579223632812e-06,2.2846191227436066,3.7978230714797974,0
2025-12-05 17:53:02.813856,0.0,0.0,1025.6,85.0,12.1,1.3,6883.5,564.7,26.2,0.00,0.00,0.00,0.00,0,0,0,0,0,0,0,0,0,0,0,0,0,0,0,0,0.0,0.21519950032234192,1.2021563053131104,0.7125524878501892,6.065610494262364,2.0848561960789027,4.2416005195901345,0.0,0.0,0.0,0.0,0.0,3.0707825455374738,-2.041584787589452,4.432147341030106,-0.00018137693405151367,-2.0623207092285156e-05,2.2846191227436066,3.7978230714797974,0
2025-12-05 17:53:02.845364,0.0,0.0,1023.3,84.8,12.1,1.3,6883.6,564.7,26.2,0.00,0.00,0.00,0.00,0,0,0,0,0,0,0,0,0,0,0,0,0,0,0,0,0.0,0.21519950032234192,1.2021563053131104,0.7125524878501892,6.065610494262364,2.0848561960789027,4.2416005195901345,0.0,0.0,0.0,0.0,0.0,3.0707825455374738,-2.041584787589452,4.432147341030106,-0.00018137693405151367,-2.0623207092285156e-05,2.2846191227436066,3.7978230714797974,0
2025-12-05 17:53:02.876962,0.0,0.0,1020.4,84.6,12.1,1.3,6883.6,564.7,26.2,0.00,0.00,0.00,0.00,0,0,0,0,0,0,0,0,0,0,0,0,0,0,0,0,0.0,0.21519950032234192,1.2021563053131104,0.7125524878501892,6.065610494262364,2.0848561960789027,4.2416005195901345,0.0,0.0,0.0,0.0,0.0,3.0707825455374738,-2.041584787589452,4.432147341030106,-0.00018137693405151367,-2.0623207092285156e-05,2.2846191227436066,3.7978230714797974,0
2025-12-05 17:53:02.908271,0.0,0.0,1026.4,85.0,12.1,1.3,6883.7,564.7,26.2,0.00,0.00,0.00,0.00,0,0,0,0,0,0,0,0,0,0,0,0,0,0,0,0,0.0,0.21519950032234192,1.2021563053131104,0.7125524878501892,6.065610494262364,2.0848561960789027,4.2416005195901345,0.0,0.0,0.0,0.0,0.0,3.0707825455374738,-2.041584787589452,4.432147341030106,-0.00018137693405151367,-2.0623207092285156e-05,2.2846191227436066,3.7978230714797974,0
2025-12-05 17:53:02.939704,0.0,0.0,1018.5,84.4,12.1,1.3,6883.7,564.8,26.2,0.00,0.00,0.00,0.00,0,0,0,0,0,0,0,0,0,0,0,0,0,0,0,0,0.0,0.2153613418340683,1.202190637588501,0.7124638557434082,6.0672430884428294,2.090696470545337,4.228981779772509,0.0,0.0,0.0,0.0,0.0,3.083428582337744,-2.054203527407078,4.432034493503708,-1.9535422325134277e-05,1.3709068298339844e-05,2.2846191227436066,3.7978230714797974,0
2025-12-05 17:53:02.971162,0.0,0.0,1016.4,84.2,12.1,1.3,6883.8,564.8,26.2,0.00,0.00,0.00,0.00,0,0,0,0,0,0,0,0,0,0,0,0,0,0,0,0,0.0,0.2153613418340683,1.202190637588501,0.7124638557434082,6.0672430884428294,2.090696470545337,4.228981779772509,0.0,0.0,0.0,0.0,0.0,3.083428582337744,-2.054203527407078,4.432034493503708,-1.9535422325134277e-05,1.3709068298339844e-05,2.2846191227436066,3.7978230714797974,0
2025-12-05 17:53:03.002218,0.0,0.0,1023.6,84.8,12.1,1.3,6883.9,564.8,26.2,0.00,0.00,0.00,0.00,0,0,0,0,0,0,0,0,0,0,0,0,0,0,0,0,0.0,0.2153613418340683,1.202190637588501,0.7124638557434082,6.0672430884428294,2.090696470545337,4.228981779772509,0.0,0.0,0.0,0.0,0.0,3.083428582337744,-2.054203527407078,4.432034493503708,-1.9535422325134277e-05,1.3709068298339844e-05,2.2846191227436066,3.7978230714797974,0
2025-12-05 17:53:03.033438,0.0,0.0,1022.6,84.2,12.1,1.3,6883.9,564.8,26.2,0.00,0.00,0.00,0.00,0,0,0,0,0,0,0,0,0,0,0,0,0,0,0,0,0.0,0.215376615524292,1.2021602392196655,0.7124726176261902,6.062064379534561,2.0969522408989087,4.221290462880004,0.0,0.0,0.0,0.0,0.0,3.0911263878412276,-2.0618948442995824,4.432052668624016,-4.26173210144043e-06,-1.6689300537109375e-05,2.2846191227436066,3.7978230714797974,0
2025-12-05 17:53:03.064445,0.0,0.0,1022.4,84.7,12.1,1.3,6884.0,564.8,26.2,0.00,0.00,0.00,0.00,0,0,0,0,0,0,0,0,0,0,0,0,0,0,0,0,0.0,0.215376615524292,1.2021602392196655,0.7124726176261902,6.062064379534561,2.0969522408989087,4.221290462880004,0.0,0.0,0.0,0.0,0.0,3.0911263878412276,-2.0618948442995824,4.432052668624016,-4.26173210144043e-06,-1.6689300537109375e-05,2.2846191227436066,3.7978230714797974,0
2025-12-05 17:53:03.095828,0.0,0.0,1019.3,84.5,12.1,1.3,6884.0,564.8,26.2,0.00,0.00,0.00,0.00,0,0,0,0,0,0,0,0,0,0,0,0,0,0,0,0,0.0,0.215376615524292,1.2021602392196655,0.7124726176261902,6.062064379534561,2.0969522408989087,4.221290462880004,0.0,0.0,0.0,0.0,0.0,3.0911263878412276,-2.0618948442995824,4.432052668624016,-4.26173210144043e-06,-1.6689300537109375e-05,2.2846191227436066,3.7978230714797974,0
2025-12-05 17:53:03.127145,0.0,0.0,1019.4,84.5,12.1,1.3,6884.1,564.8,26.2,0.00,0.00,0.00,0.00,0,0,0,0,0,0,0,0,0,0,0,0,0,0,0,0,0.0,0.2153758406639099,1.2021832466125488,0.7124586701393127,6.065767906406525,2.090792471660312,4.225666775423788,0.0,0.0,0.0,0.0,0.0,3.0867472495575603,-2.057518531755799,4.432033352958046,-5.036592483520508e-06,6.318092346191406e-06,2.2846191227436066,3.7978230714797974,0
2025-12-05 17:53:03.158557,0.0,0.0,1027.0,85.1,12.1,1.3,6884.2,564.8,26.2,0.00,0.00,0.00,0.00,0,0,0,0,0,0,0,0,0,0,0,0,0,0,0,0,0.0,0.2153758406639099,1.2021832466125488,0.7124586701393127,6.065767906406525,2.090792471660312,4.225666775423788,0.0,0.0,0.0,0.0,0.0,3.0867472495575603,-2.057518531755799,4.432033352958046,-5.036592483520508e-06,6.318092346191406e-06,2.2846191227436066,3.7978230714797974,0
2025-12-05 17:53:03.189394,0.0,0.0,1011.2,83.8,12.1,1.3,6884.2,564.8,26.2,0.00,0.00,0.00,0.00,0,0,0,0,0,0,0,0,0,0,0,0,0,0,0,0,0.0,0.2153758406639099,1.2021832466125488,0.7124586701393127,6.065767906406525,2.090792471660312,4.225666775423788,0.0,0.0,0.0,0.0,0.0,3.0867472495575603,-2.057518531755799,4.432033352958046,-5.036592483520508e-06,6.318092346191406e-06,2.2846191227436066,3.7978230714797974,0
2025-12-05 17:53:03.220584,0.0,0.0,1022.0,84.7,12.1,1.3,6884.3,564.8,26.2,0.00,0.00,0.00,0.00,0,0,0,0,0,0,0,0,0,0,0,0,0,0,0,0,0.0,0.2153758406639099,1.2021832466125488,0.7124586701393127,6.065767906406525,2.090792471660312,4.225666775423788,0.0,0.0,0.0,0.0,0.0,3.0867472495575603,-2.057518531755799,4.432033352958046,-5.036592483520508e-06,6.318092346191406e-06,2.2846191227436066,3.7978230714797974,0
2025-12-05 17:53:03.252081,0.0,0.0,1026.1,84.6,12.1,1.3,6884.3,564.8,26.2,0.00,0.00,0.00,0.00,0,0,0,0,0,0,0,0,0,0,0,0,0,0,0,0,0.0,0.21537324786186218,1.2021719217300415,0.7124632596969604,6.056785154018427,2.095863782466857,4.2255480611267,0.0,0.0,0.0,0.0,0.0,3.08686677972487,-2.0576372460528867,4.432044393807551,-7.62939453125e-06,-5.0067901611328125e-06,2.2846191227436066,3.7978230714797974,0
2025-12-05 17:53:03.283417,0.0,0.0,1023.4,84.8,12.1,1.3,6884.4,564.8,26.2,0.00,0.00,0.00,0.00,0,0,0,0,0,0,0,0,0,0,0,0,0,0,0,0,0.0,0.21537324786186218,1.2021719217300415,0.7124632596969604,6.056785154018427,2.095863782466857,4.2255480611267,0.0,0.0,0.0,0.0,0.0,3.08686677972487,-2.0576372460528867,4.432044393807551,-7.62939453125e-06,-5.0067901611328125e-06,2.2846191227436066,3.7978230714797974,0
2025-12-05 17:53:03.314513,0.0,0.0,1022.7,84.7,12.1,1.3,6884.4,564.8,26.2,0.00,0.00,0.00,0.00,0,0,0,0,0,0,0,0,0,0,0,0,0,0,0,0,0.0,0.21537324786186218,1.2021719217300415,0.7124632596969604,6.056785154018427,2.095863782466857,4.2255480611267,0.0,0.0,0.0,0.0,0.0,3.08686677972487,-2.0576372460528867,4.432044393807551,-7.62939453125e-06,-5.0067901611328125e-06,2.2846191227436066,3.7978230714797974,0
2025-12-05 17:53:03.345684,0.0,0.0,1024.5,84.9,12.1,1.3,6884.5,564.8,26.2,0.00,0.00,0.00,0.00,0,0,0,0,0,0,0,0,0,0,0,0,0,0,0,0,0.0,0.21537549793720245,1.2021654844284058,0.7124760746955872,6.057610490582895,2.0956155061848145,4.222168963317911,0.0,0.0,0.0,0.0,0.0,3.090247061272765,-2.061016343861676,4.432048750080781,-5.379319190979004e-06,-1.1444091796875e-05,2.2846191227436066,3.7978230714797974,0
2025-12-05 17:53:03.376943,0.0,0.0,1017.9,84.4,12.1,1.3,6884.6,564.8,26.2,0.00,0.00,0.00,0.00,0,0,0,0,0,0,0,0,0,0,0,0,0,0,0,0,0.0,0.21537549793720245,1.2021654844284058,0.7124760746955872,6.057610490582895,2.0956155061848145,4.222168963317911,0.0,0.0,0.0,0.0,0.0,3.090247061272765,-2.061016343861676,4.432048750080781,-5.379319190979004e-06,-1.1444091796875e-05,2.2846191227436066,3.7978230714797974,0
2025-12-05 17:53:03.408329,0.0,0.0,1025.0,85.0,12.1,1.3,6884.6,564.8,26.2,0.00,0.00,0.00,0.00,0,0,0,0,0,0,0,0,0,0,0,0,0,0,0,0,0.0,0.21537549793720245,1.2021654844284058,0.7124760746955872,6.057610490582895,2.0956155061848145,4.222168963317911,0.0,0.0,0.0,0.0,0.0,3.090247061272765,-2.061016343861676,4.432048750080781,-5.379319190979004e-06,-1.1444091796875e-05,2.2846191227436066,3.7978230714797974,0
