Timestamp                  ,forward_vel_cmd ,steering_vel_cmd ,power_mW ,current_mA ,busVoltage_V ,shuntVoltage_mV ,energy ,charge ,dieTemp ,Left_Stick_X ,Left_Stick_Y ,Right_Stick_X ,Right_Stick_Y ,Button_0 ,Button_1 ,Button_2 ,Button_3 ,Button_4 ,Button_5 ,Button_6 ,Button_7 ,Button_8 ,Button_9 ,Button_10 ,Button_11 ,Button_12 ,Button_13 ,Button_14 ,Button_15 ,mocap_velocity ,mocap_x             ,mocap_y            ,mocap_z            ,mocap_roll         ,mocap_pitch        ,mocap_yaw_raw      ,forward_vel_cmd ,steering_vel_cmd ,left_wheel_vel ,right_wheel_vel ,ppo_control_active ,heading_error_rad  ,current_heading_rad ,distance_to_target ,relative_x              ,relative_y              ,target_relative_x  ,target_relative_y  ,current_waypoint_idx
2025-12-05 17:53:03.885403 ,            0.0 ,             0.0 ,  1023.3 ,      84.4 ,        12.1 ,            1.3 ,6885.5 , 564.9 ,   26.2 ,        0.00 ,        0.00 ,         0.00 ,         0.00 ,       0 ,       0 ,       0 ,       0 ,       0 ,       0 ,       0 ,       0 ,       0 ,       0 ,        0 ,        0 ,        0 ,        0 ,        0 ,        0 ,           0.0 ,0.21536722779273987 ,1.2021729946136475 ,0.712476909160614  ,6.06449244233625   ,2.091461592219906  ,4.2247683923862365 ,            0.0 ,             0.0 ,           0.0 ,            0.0 ,               0.0 ,3.0876451597471593 ,-2.05841691479335   ,4.432046577675521  ,-1.3649463653564453e-05 ,-3.933906555175781e-06  ,2.2846191227436066 ,3.7978230714797974 ,                   0
2025-12-05 17:53:03.916669 ,            0.0 ,             0.0 ,  1022.2 ,      84.7 ,        12.1 ,            1.3 ,6885.6 , 564.9 ,   26.2 ,        0.00 ,        0.00 ,         0.00 ,         0.00 ,       0 ,       0 ,       0 ,       0 ,       0 ,       0 ,       0 ,       0 ,       0 ,       0 ,        0 ,        0 ,        0 ,        0 ,        0 ,        0 ,           0.0 ,0.21536722779273987 ,1.2021729946136475 ,0.712476909160614  ,6.06449244233625   ,2.091461592219906  ,4.2247683923862365 ,            0.0 ,             0.0 ,           0.0 ,            0.0 ,               0.0 ,3.0876451597471593 ,-2.05841691479335   ,4.432046577675521  ,-1.3649463653564453e-05 ,-3.933906555175781e-06  ,2.2846191227436066 ,3.7978230714797974 ,                   0
2025-12-05 17:53:03.947795 ,            0.0 ,             0.0 ,  1029.1 ,      85.3 ,        12.1 ,            1.3 ,6885.6 , 564.9 ,   26.2 ,        0.00 ,        0.00 ,         0.00 ,         0.00 ,       0 ,       0 ,       0 ,       0 ,       0 ,       0 ,       0 ,       0 ,       0 ,       0 ,        0 ,        0 ,        0 ,        0 ,        0 ,        0 ,           0.0 ,0.21536722779273987 ,1.2021729946136475 ,0.712476909160614  ,6.06449244233625   ,2.091461592219906  ,4.2247683923862365 ,            0.0 ,             0.0 ,           0.0 ,            0.0 ,               0.0 ,3.0876451597471593 ,-2.05841691479335   ,4.432046577675521  ,-1.3649463653564453e-05 ,-3.933906555175781e-06  ,2.2846191227436066 ,3.7978230714797974 ,                   0
2025-12-05 17:53:03.979318 ,            0.0 ,             0.0 ,  1020.8 ,      84.6 ,        12.1 ,            1.3 ,6885.7 , 564.9 ,   26.2 ,        0.00 ,        0.00 ,         0.00 ,         0.00 ,       0 ,       0 ,       0 ,       0 ,       0 ,       0 ,       0 ,       0 ,       0 ,       0 ,        0 ,        0 ,        0 ,        0 ,        0 ,        0 ,           0.0 ,0.21520040929317474 ,1.2021501064300537 ,0.7125812768936157 ,6.058447098440505  ,2.086667258351952  ,4.238745291833409  ,            0.0 ,             0.0 ,           0.0 ,            0.0 ,               0.0 ,3.073638670025198  ,-2.044440015346178  ,4.432152184185842  ,-0.00018046796321868896 ,-2.682209014892578e-05  ,2.2846191227436066 ,3.7978230714797974 ,                   0
2025-12-05 17:53:04.010948 ,            0.0 ,             0.0 ,  1022.1 ,      84.7 ,        12.1 ,            1.3 ,6885.8 , 564.9 ,   26.2 ,        0.00 ,        0.00 ,         0.00 ,         0.00 ,       0 ,       0 ,       0 ,       0 ,       0 ,       0 ,       0 ,       0 ,       0 ,       0 ,        0 ,        0 ,        0 ,        0 ,        0 ,        0 ,           0.0 ,0.21520040929317474 ,1.2021501064300537 ,0.7125812768936157 ,6.058447098440505  ,2.086667258351952  ,4.238745291833409  ,            0.0 ,             0.0 ,           0.0 ,            0.0 ,               0.0 ,3.073638670025198  ,-2.044440015346178  ,4.432152184185842  ,-0.00018046796321868896 ,-2.682209014892578e-05  ,2.2846191227436066 ,3.7978230714797974 ,                   0
2025-12-05 17:53:04.041874 ,            0.0 ,             0.0 ,  1026.2 ,      85.0 ,        12.1 ,            1.3 ,6885.8 , 564.9 ,   26.2 ,        0.00 ,        0.00 ,         0.00 ,         0.00 ,       0 ,       0 ,       0 ,       0 ,       0 ,       0 ,       0 ,       0 ,       0 ,       0 ,        0 ,        0 ,        0 ,        0 ,        0 ,        0 ,           0.0 ,0.21520040929317474 ,1.2021501064300537 ,0.7125812768936157 ,6.058447098440505  ,2.086667258351952  ,4.238745291833409  ,            0.0 ,             0.0 ,           0.0 ,            0.0 ,               0.0 ,3.073638670025198  ,-2.044440015346178  ,4.432152184185842  ,-0.00018046796321868896 ,-2.682209014892578e-05  ,2.2846191227436066 ,3.7978230714797974 ,                   0
2025-12-05 17:53:04.072998 ,            0.0 ,             0.0 ,  1020.6 ,      84.6 ,        12.1 ,            1.3 ,6885.9 , 564.9 ,   26.2 ,        0.00 ,        0.00 ,         0.00 ,         0.00 ,       0 ,       0 ,       0 ,       0 ,       0 ,       0 ,       0 ,       0 ,       0 ,       0 ,        0 ,        0 ,        0 ,        0 ,        0 ,        0 ,           0.0 ,0.21537353098392487 ,1.202152132987976  ,0.7124868631362915 ,6.065949726572921  ,2.0980248487116597 ,4.2215176333674105 ,            0.0 ,             0.0 ,           0.0 ,            0.0 ,               0.0 ,3.0908995637903045 ,-2.061667673812176  ,4.432061204890636  ,-7.3462724685668945e-06 ,-2.47955322265625e-05   ,2.2846191227436066 ,3.7978230714797974 ,                   0
2025-12-05 17:53:04.104287 ,            0.0 ,             0.0 ,  1031.3 ,      84.7 ,        12.1 ,            1.3 ,6885.9 , 564.9 ,   26.2 ,        0.00 ,        0.00 ,         0.00 ,         0.00 ,       0 ,       0 ,       0 ,       0 ,       0 ,       0 ,       0 ,       0 ,       0 ,       0 ,        0 ,        0 ,        0 ,        0 ,        0 ,        0 ,           0.0 ,0.21537353098392487 ,1.202152132987976  ,0.7124868631362915 ,6.065949726572921  ,2.0980248487116597 ,4.2215176333674105 ,            0.0 ,             0.0 ,           0.0 ,            0.0 ,               0.0 ,3.0908995637903045 ,-2.061667673812176  ,4.432061204890636  ,-7.3462724685668945e-06 ,-2.47955322265625e-05   ,2.2846191227436066 ,3.7978230714797974 ,                   0
2025-12-05 17:53:04.135931 ,            0.0 ,             0.0 ,  1025.9 ,      85.0 ,        12.1 ,            1.3 ,6886.0 , 564.9 ,   26.2 ,        0.00 ,        0.00 ,         0.00 ,         0.00 ,       0 ,       0 ,       0 ,       0 ,       0 ,       0 ,       0 ,       0 ,       0 ,       0 ,        0 ,        0 ,        0 ,        0 ,        0 ,        0 ,           0.0 ,0.21537353098392487 ,1.202152132987976  ,0.7124868631362915 ,6.065949726572921  ,2.0980248487116597 ,4.2215176333674105 ,            0.0 ,             0.0 ,           0.0 ,            0.0 ,               0.0 ,3.0908995637903045 ,-2.061667673812176  ,4.432061204890636  ,-7.3462724685668945e-06 ,-2.47955322265625e-05   ,2.2846191227436066 ,3.7978230714797974 ,                   0
2025-12-05 17:53:04.167206 ,            0.0 ,             0.0 ,  1021.4 ,      84.6 ,        12.1 ,            1.3 ,6886.1 , 564.9 ,   26.2 ,        0.00 ,        0.00 ,         0.00 ,         0.00 ,       0 ,       0 ,       0 ,       0 ,       0 ,       0 ,       0 ,       0 ,       0 ,       0 ,        0 ,        0 ,        0 ,        0 ,        0 ,        0 ,           0.0 ,0.21535316109657288 ,1.202185869216919  ,0.7124567627906799 ,6.057692124946696  ,2.0941061797508107 ,4.227255248808843  ,            0.0 ,             0.0 ,           0.0 ,            0.0 ,               0.0 ,3.0851540862225644 ,-2.0559300583707434 ,4.432042796554098  ,-2.771615982055664e-05  ,8.940696716308594e-06   ,2.2846191227436066 ,3.7978230714797974 ,                   0
2025-12-05 17:53:04.198350 ,            0.0 ,             0.0 ,  1021.5 ,      84.6 ,        12.1 ,            1.3 ,6886.1 , 565.0 ,   26.2 ,        0.00 ,        0.00 ,         0.00 ,         0.00 ,       0 ,       0 ,       0 ,       0 ,       0 ,       0 ,       0 ,       0 ,       0 ,       0 ,        0 ,        0 ,        0 ,        0 ,        0 ,        0 ,           0.0 ,0.21535316109657288 ,1.202185869216919  ,0.7124567627906799 ,6.057692124946696  ,2.0941061797508107 ,4.227255248808843  ,            0.0 ,             0.0 ,           0.0 ,            0.0 ,               0.0 ,3.0851540862225644 ,-2.0559300583707434 ,4.432042796554098  ,-2.771615982055664e-05  ,8.940696716308594e-06   ,2.2846191227436066 ,3.7978230714797974 ,                   0
2025-12-05 17:53:04.229932 ,            0.0 ,             0.0 ,  1024.9 ,      84.9 ,        12.1 ,            1.3 ,6886.2 , 565.0 ,   26.2 ,        0.00 ,        0.00 ,         0.00 ,         0.00 ,       0 ,       0 ,       0 ,       0 ,       0 ,       0 ,       0 ,       0 ,       0 ,       0 ,        0 ,        0 ,        0 ,        0 ,        0 ,        0 ,           0.0 ,0.21535316109657288 ,1.202185869216919  ,0.7124567627906799 ,6.057692124946696  ,2.0941061797508107 ,4.227255248808843  ,            0.0 ,             0.0 ,           0.0 ,            0.0 ,               0.0 ,3.0851540862225644 ,-2.0559300583707434 ,4.432042796554098  ,-2.771615982055664e-05  ,8.940696716308594e-06   ,2.2846191227436066 ,3.7978230714797974 ,                   0
2025-12-05 17:53:04.261101 ,            0.0 ,             0.0 ,  1019.8 ,      84.5 ,        12.1 ,            1.3 ,6886.2 , 565.0 ,   26.2 ,        0.00 ,        0.00 ,         0.00 ,         0.00 ,       0 ,       0 ,       0 ,       0 ,       0 ,       0 ,       0 ,       0 ,       0 ,       0 ,        0 ,        0 ,        0 ,        0 ,        0 ,        0 ,           0.0 ,0.21535316109657288 ,1.202185869216919  ,0.7124567627906799 ,6.057692124946696  ,2.0941061797508107 ,4.227255248808843  ,            0.0 ,             0.0 ,           0.0 ,            0.0 ,               0.0 ,3.0851540862225644 ,-2.0559300583707434 ,4.432042796554098  ,-2.771615982055664e-05  ,8.940696716308594e-06   ,2.2846191227436066 ,3.7978230714797974 ,                   0
2025-12-05 17:53:04.291911 ,            0.0 ,             0.0 ,  1022.0 ,      84.7 ,        12.1 ,            1.3 ,6886.3 , 565.0 ,   26.2 ,        0.00 ,        0.00 ,         0.00 ,         0.00 ,       0 ,       0 ,       0 ,       0 ,       0 ,       0 ,       0 ,       0 ,       0 ,       0 ,        0 ,        0 ,        0 ,        0 ,        0 ,        0 ,           0.0 ,0.215386301279068   ,1.2021894454956055 ,0.7124708890914917 ,6.070736535415831  ,2.0886701739502094 ,4.229072681014186  ,            0.0 ,             0.0 ,           0.0 ,            0.0 ,               0.0 ,3.0833426454764963 ,-2.054112626165401  ,4.432022648891622  ,5.424022674560547e-06   ,1.2516975402832031e-05  ,2.2846191227436066 ,3.7978230714797974 ,                   0
2025-12-05 17:53:04.323155 ,            0.0 ,             0.0 ,  1023.6 ,      84.7 ,        12.1 ,            1.3 ,6886.4 , 565.0 ,   26.2 ,        0.00 ,        0.00 ,         0.00 ,         0.00 ,       0 ,       0 ,       0 ,       0 ,       0 ,       0 ,       0 ,       0 ,       0 ,       0 ,        0 ,        0 ,        0 ,        0 ,        0 ,        0 ,           0.0 ,0.215386301279068   ,1.2021894454956055 ,0.7124708890914917 ,6.070736535415831  ,2.0886701739502094 ,4.229072681014186  ,            0.0 ,             0.0 ,           0.0 ,            0.0 ,               0.0 ,3.0833426454764963 ,-2.054112626165401  ,4.432022648891622  ,5.424022674560547e-06   ,1.2516975402832031e-05  ,2.2846191227436066 ,3.7978230714797974 ,                   0
2025-12-05 17:53:04.354601 ,            0.0 ,             0.0 ,  1024.6 ,      84.9 ,        12.1 ,            1.3 ,6886.4 , 565.0 ,   26.2 ,        0.00 ,        0.00 ,         0.00 ,         0.00 ,       0 ,       0 ,       0 ,       0 ,       0 ,       0 ,       0 ,       0 ,       0 ,       0 ,        0 ,        0 ,        0 ,        0 ,        0 ,        0 ,           0.0 ,0.215386301279068   ,1.2021894454956055 ,0.7124708890914917 ,6.070736535415831  ,2.0886701739502094 ,4.229072681014186  ,            0.0 ,             0.0 ,           0.0 ,            0.0 ,               0.0 ,3.0833426454764963 ,-2.054112626165401  ,4.432022648891622  ,5.424022674560547e-06   ,1.2516975402832031e-05  ,2.2846191227436066 ,3.7978230714797974 ,                   0
2025-12-05 17:53:04.386067 ,            0.0 ,             0.0 ,  1036.3 ,      84.6 ,        12.1 ,            1.3 ,6886.5 , 565.0 ,   26.2 ,        0.00 ,        0.00 ,         0.00 ,         0.00 ,       0 ,       0 ,       0 ,       0 ,       0 ,       0 ,       0 ,       0 ,       0 ,       0 ,        0 ,        0 ,        0 ,        0 ,        0 ,        0 ,           0.0 ,0.21519523859024048 ,1.2021476030349731 ,0.7125917077064514 ,6.062189908154545  ,2.087085901030898  ,4.241819994532561  ,            0.0 ,             0.0 ,           0.0 ,            0.0 ,               0.0 ,3.0705632588246425 ,-2.041365312647026  ,4.432156994838259  ,-0.0001856386661529541  ,-2.9325485229492188e-05 ,2.2846191227436066 ,3.7978230714797974 ,                   0
2025-12-05 17:53:04.417477 ,            0.0 ,             0.0 ,  1021.2 ,      84.6 ,        12.1 ,            1.3 ,6886.5 , 565.0 ,   26.2 ,        0.00 ,        0.00 ,         0.00 ,         0.00 ,       0 ,       0 ,       0 ,       0 ,       0 ,       0 ,       0 ,       0 ,       0 ,       0 ,        0 ,        0 ,        0 ,        0 ,        0 ,        0 ,           0.0 ,0.21519523859024048 ,1.2021476030349731 ,0.7125917077064514 ,6.062189908154545  ,2.087085901030898  ,4.241819994532561  ,            0.0 ,             0.0 ,           0.0 ,            0.0 ,               0.0 ,3.0705632588246425 ,-2.041365312647026  ,4.432156994838259  ,-0.0001856386661529541  ,-2.9325485229492188e-05 ,2.2846191227436066 ,3.7978230714797974 ,                   0
2025-12-05 17:53:04.448114 ,            0.0 ,             0.0 ,  1016.5 ,      84.2 ,        12.1 ,            1.3 ,6886.6 , 565.0 ,   26.2 ,        0.00 ,        0.00 ,         0.00 ,         0.00 ,       0 ,       0 ,       0 ,       0 ,       0 ,       0 ,       0 ,       0 ,       0 ,       0 ,        0 ,        0 ,        0 ,        0 ,        0 ,        0 ,           0.0 ,0.21519523859024048 ,1.2021476030349731 ,0.7125917077064514 ,6.062189908154545  ,2.087085901030898  ,4.241819994532561  ,            0.0 ,             0.0 ,           0.0 ,            0.0 ,               0.0 ,3.0705632588246425 ,-2.041365312647026  ,4.432156994838259  ,-0.0001856386661529541  ,-2.9325485229492188e-05 ,2.2846191227436066 ,3.7978230714797974 ,                   0
2025-12-05 17:53:04.479077 ,            0.0 ,             0.0 ,  1019.7 ,      84.5 ,        12.1 ,            1.3 ,6886.7 , 565.0 ,   26.2 ,        0.00 ,        0.00 ,         0.00 ,         0.00 ,       0 ,       0 ,       0 ,       0 ,       0 ,       0 ,       0 ,       0 ,       0 ,       0 ,        0 ,        0 ,        0 ,        0 ,        0 ,        0 ,           0.0 ,0.2152172029018402  ,1.20211923122406   ,0.7125992774963379 ,6.053030026957004  ,2.0961058223672855 ,4.230208381111266  ,            0.0 ,             0.0 ,           0.0 ,            0.0 ,               0.0 ,3.0821824186066458 ,-2.0529769260683204 ,4.432169983625833  ,-0.00016367435455322266 ,-5.7697296142578125e-05 ,2.2846191227436066 ,3.7978230714797974 ,                   0
2025-12-05 17:53:04.510159 ,            0.0 ,             0.0 ,  1025.1 ,      85.0 ,        12.1 ,            1.3 ,6886.7 , 565.0 ,   26.2 ,        0.00 ,        0.00 ,         0.00 ,         0.00 ,       0 ,       0 ,       0 ,       0 ,       0 ,       0 ,       0 ,       0 ,       0 ,       0 ,        0 ,        0 ,        0 ,        0 ,        0 ,        0 ,           0.0 ,0.2152172029018402  ,1.20211923122406   ,0.7125992774963379 ,6.053030026957004  ,2.0961058223672855 ,4.230208381111266  ,            0.0 ,             0.0 ,           0.0 ,            0.0 ,               0.0 ,3.0821824186066458 ,-2.0529769260683204 ,4.432169983625833  ,-0.00016367435455322266 ,-5.7697296142578125e-05 ,2.2846191227436066 ,3.7978230714797974 ,                   0
2025-12-05 17:53:04.541904 ,            0.0 ,             0.0 ,  1025.7 ,      85.0 ,        12.1 ,            1.3 ,6886.8 , 565.0 ,   26.2 ,        0.00 ,        0.00 ,         0.00 ,         0.00 ,       0 ,       0 ,       0 ,       0 ,       0 ,       0 ,       0 ,       0 ,       0 ,       0 ,        0 ,        0 ,        0 ,        0 ,        0 ,        0 ,           0.0 ,0.2152172029018402  ,1.20211923122406   ,0.7125992774963379 ,6.053030026957004  ,2.0961058223672855 ,4.230208381111266  ,            0.0 ,             0.0 ,           0.0 ,            0.0 ,               0.0 ,3.0821824186066458 ,-2.0529769260683204 ,4.432169983625833  ,-0.00016367435455322266 ,-5.7697296142578125e-05 ,2.2846191227436066 ,3.7978230714797974 ,                   0
2025-12-05 17:53:04.573400 ,            0.0 ,             0.0 ,  1024.2 ,      84.9 ,        12.1 ,            1.3 ,6886.8 , 565.0 ,   26.2 ,        0.00 ,        0.00 ,         0.00 ,         0.00 ,       0 ,       0 ,       0 ,       0 ,       0 ,       0 ,       0 ,       0 ,       0 ,       0 ,        0 ,        0 ,        0 ,        0 ,        0 ,        0 ,           0.0 ,0.2152172029018402  ,1.20211923122406   ,0.7125992774963379 ,6.053030026957004  ,2.0961058223672855 ,4.230208381111266  ,            0.0 ,             0.0 ,           0.0 ,            0.0 ,               0.0 ,3.0821824186066458 ,-2.0529769260683204 ,4.432169983625833  ,-0.00016367435455322266 ,-5.7697296142578125e-05 ,2.2846191227436066 ,3.7978230714797974 ,                   0
2025-12-05 17:53:04.604670 ,            0.0 ,             0.0 ,  1025.2 ,      84.8 ,        12.1 ,            1.3 ,6886.9 , 565.0 ,   26.2 ,        0.00 ,        0.00 ,         0.00 ,         0.00 ,       0 ,       0 ,       0 ,       0 ,       0 ,       0 ,       0 ,       0 ,       0 ,       0 ,        0 ,        0 ,        0 ,        0 ,        0 ,        0 ,           0.0 ,0.2153649777173996  ,1.202182650566101  ,0.7124801874160767 ,6.064531693540703  ,2.09240483230625   ,4.226923018582353  ,            0.0 ,             0.0 ,           0.0 ,            0.0 ,               0.0 ,3.085488975454316  ,-2.056262288597234  ,4.432039463351082  ,-1.589953899383545e-05  ,5.7220458984375e-06     ,2.2846191227436066 ,3.7978230714797974 ,                   0
2025-12-05 17:53:04.636039 ,            0.0 ,             0.0 ,  1024.9 ,      84.9 ,        12.1 ,            1.3 ,6886.9 , 565.0 ,   26.2 ,        0.00 ,        0.00 ,         0.00 ,         0.00 ,       0 ,       0 ,       0 ,       0 ,       0 ,       0 ,       0 ,       0 ,       0 ,       0 ,        0 ,        0 ,        0 ,        0 ,        0 ,        0 ,           0.0 ,0.2153649777173996  ,1.202182650566101  ,0.7124801874160767 ,6.064531693540703  ,2.09240483230625   ,4.226923018582353  ,            0.0 ,             0.0 ,           0.0 ,            0.0 ,               0.0 ,3.085488975454316  ,-2.056262288597234  ,4.432039463351082  ,-1.589953899383545e-05  ,5.7220458984375e-06     ,2.2846191227436066 ,3.7978230714797974 ,                   0
2025-12-05 17:53:04.667415 ,            0.0 ,             0.0 ,  1025.9 ,      85.0 ,        12.1 ,            1.3 ,6887.0 , 565.0 ,   26.2 ,        0.00 ,        0.00 ,         0.00 ,         0.00 ,       0 ,       0 ,       0 ,       0 ,       0 ,       0 ,       0 ,       0 ,       0 ,       0 ,        0 ,        0 ,        0 ,        0 ,        0 ,        0 ,           0.0 ,0.2153649777173996  ,1.202182650566101  ,0.7124801874160767 ,6.064531693540703  ,2.09240483230625   ,4.226923018582353  ,            0.0 ,             0.0 ,           0.0 ,            0.0 ,               0.0 ,3.085488975454316  ,-2.056262288597234  ,4.432039463351082  ,-1.589953899383545e-05  ,5.7220458984375e-06     ,2.2846191227436066 ,3.7978230714797974 ,                   0
2025-12-05 17:53:04.698062 ,            0.0 ,             0.0 ,  1026.4 ,      85.0 ,        12.1 ,            1.3 ,6887.1 , 565.0 ,   26.2 ,        0.00 ,        0.00 ,         0.00 ,         0.00 ,       0 ,       0 ,       0 ,       0 ,       0 ,       0 ,       0 ,       0 ,       0 ,       0 ,        0 ,        0 ,        0 ,        0 ,        0 ,        0 ,           0.0 ,0.2152062952518463  ,1.2021424770355225 ,0.71258944272995   ,6.058970349382633  ,2.0900125624373636 ,4.237650224923838  ,            0.0 ,             0.0 ,           0.0 ,            0.0 ,               0.0 ,3.074735762268116  ,-2.0455350822557485 ,4.432155687472482  ,-0.00017458200454711914 ,-3.445148468017578e-05  ,2.2846191227436066 ,3.7978230714797974 ,                   0
2025-12-05 17:53:04.729019 ,            0.0 ,             0.0 ,  1023.2 ,      84.8 ,        12.1 ,            1.3 ,6887.1 , 565.0 ,   26.2 ,        0.00 ,        0.00 ,         0.00 ,         0.00 ,       0 ,       0 ,       0 ,       0 ,       0 ,       0 ,       0 ,       0 ,       0 ,       0 ,        0 ,        0 ,        0 ,        0 ,        0 ,        0 ,           0.0 ,0.2152062952518463  ,1.2021424770355225 ,0.71258944272995   ,6.058970349382633  ,2.0900125624373636 ,4.237650224923838  ,            0.0 ,             0.0 ,           0.0 ,            0.0 ,               0.0 ,3.074735762268116  ,-2.0455350822557485 ,4.432155687472482  ,-0.00017458200454711914 ,-3.445148468017578e-05  ,2.2846191227436066 ,3.7978230714797974 ,                   0
2025-12-05 17:53:04.760114 ,            0.0 ,             0.0 ,  1025.9 ,      85.0 ,        12.1 ,            1.3 ,6887.2 , 565.0 ,   26.2 ,        0.00 ,        0.00 ,         0.00 ,         0.00 ,       0 ,       0 ,       0 ,       0 ,       0 ,       0 ,       0 ,       0 ,       0 ,       0 ,        0 ,        0 ,        0 ,        0 ,        0 ,        0 ,           0.0 ,0.2152062952518463  ,1.2021424770355225 ,0.71258944272995   ,6.058970349382633  ,2.0900125624373636 ,4.237650224923838  ,            0.0 ,             0.0 ,           0.0 ,            0.0 ,               0.0 ,3.074735762268116  ,-2.0455350822557485 ,4.432155687472482  ,-0.00017458200454711914 ,-3.445148468017578e-05  ,2.2846191227436066 ,3.7978230714797974 ,                   0
2025-12-05 17:53:04.791193 ,            0.0 ,             0.0 ,  1024.8 ,      84.9 ,        12.1 ,            1.3 ,6887.2 , 565.0 ,   26.2 ,        0.00 ,        0.00 ,         0.00 ,         0.00 ,       0 ,       0 ,       0 ,       0 ,       0 ,       0 ,       0 ,       0 ,       0 ,       0 ,        0 ,        0 ,        0 ,        0 ,        0 ,        0 ,           0.0 ,0.21519774198532104 ,1.202174425125122  ,0.7125640511512756 ,6.069043025885447  ,2.080585191917771  ,4.243174478176554  ,            0.0 ,             0.0 ,           0.0 ,            0.0 ,               0.0 ,3.0692061394671155 ,-2.0400108290030325 ,4.432132720869567  ,-0.0001831352710723877  ,-2.5033950805664062e-06 ,2.2846191227436066 ,3.7978230714797974 ,                   0
2025-12-05 17:53:04.822254 ,            0.0 ,             0.0 ,  1022.8 ,      84.8 ,        12.1 ,            1.3 ,6887.3 , 565.1 ,   26.2 ,        0.00 ,        0.00 ,         0.00 ,         0.00 ,       0 ,       0 ,       0 ,       0 ,       0 ,       0 ,       0 ,       0 ,       0 ,       0 ,        0 ,        0 ,        0 ,        0 ,        0 ,        0 ,           0.0 ,0.21519774198532104 ,1.202174425125122  ,0.7125640511512756 ,6.069043025885447  ,2.080585191917771  ,4.243174478176554  ,            0.0 ,             0.0 ,           0.0 ,            0.0 ,               0.0 ,3.0692061394671155 ,-2.0400108290030325 ,4.432132720869567  ,-0.0001831352710723877  ,-2.5033950805664062e-06 ,2.2846191227436066 ,3.7978230714797974 ,                   0
2025-12-05 17:53:04.852738 ,            0.0 ,             0.0 ,  1021.0 ,      84.6 ,        12.1 ,            1.3 ,6887.4 , 565.1 ,   26.2 ,        0.00 ,        0.00 ,         0.00 ,         0.00 ,       0 ,       0 ,       0 ,       0 ,       0 ,       0 ,       0 ,       0 ,       0 ,       0 ,        0 ,        0 ,        0 ,        0 ,        0 ,        0 ,           0.0 ,0.21519774198532104 ,1.202174425125122  ,0.7125640511512756 ,6.069043025885447  ,2.080585191917771  ,4.243174478176554  ,            0.0 ,             0.0 ,           0.0 ,            0.0 ,               0.0 ,3.0692061394671155 ,-2.0400108290030325 ,4.432132720869567  ,-0.0001831352710723877  ,-2.5033950805664062e-06 ,2.2846191227436066 ,3.7978230714797974 ,                   0
2025-12-05 17:53:04.883962 ,            0.0 ,             0.0 ,  1025.1 ,      84.9 ,        12.1 ,            1.3 ,6887.4 , 565.1 ,   26.2 ,        0.00 ,        0.00 ,         0.00 ,         0.00 ,       0 ,       0 ,       0 ,       0 ,       0 ,       0 ,       0 ,       0 ,       0 ,       0 ,        0 ,        0 ,        0 ,        0 ,        0 ,        0 ,           0.0 ,0.21519774198532104 ,1.202174425125122  ,0.7125640511512756 ,6.069043025885447  ,2.080585191917771  ,4.243174478176554  ,            0.0 ,             0.0 ,           0.0 ,            0.0 ,               0.0 ,3.0692061394671155 ,-2.0400108290030325 ,4.432132720869567  ,-0.0001831352710723877  ,-2.5033950805664062e-06 ,2.2846191227436066 ,3.7978230714797974 ,                   0
2025-12-05 17:53:04.915085 ,            0.0 ,             0.0 ,  1023.7 ,      84.8 ,        12.1 ,            1.3 ,6887.5 , 565.1 ,   26.2 ,        0.00 ,        0.00 ,         0.00 ,         0.00 ,       0 ,       0 ,       0 ,       0 ,       0 ,       0 ,       0 ,       0 ,       0 ,       0 ,        0 ,        0 ,        0 ,        0 ,        0 ,        0 ,           0.0 ,0.21535760164260864 ,1.2022076845169067 ,0.7124599814414978 ,6.078271702307183  ,2.0864848678747845 ,4.234344495984301  ,            0.0 ,             0.0 ,           0.0 ,            0.0 ,               0.0 ,3.0780631602791915 ,-2.048840811195286  ,4.432021814016109  ,-2.327561378479004e-05  ,3.075599670410156e-05   ,2.2846191227436066 ,3.7978230714797974 ,                   0
2025-12-05 17:53:04.946225 ,            0.0 ,             0.0 ,  1028.6 ,      85.2 ,        12.1 ,            1.3 ,6887.5 , 565.1 ,   26.2 ,        0.00 ,        0.00 ,         0.00 ,         0.00 ,       0 ,       0 ,       0 ,       0 ,       0 ,       0 ,       0 ,       0 ,       0 ,       0 ,        0 ,        0 ,        0 ,        0 ,        0 ,        0 ,           0.0 ,0.21535760164260864 ,1.2022076845169067 ,0.7124599814414978 ,6.078271702307183  ,2.0864848678747845 ,4.234344495984301  ,            0.0 ,             0.0 ,           0.0 ,            0.0 ,               0.0 ,3.0780631602791915 ,-2.048840811195286  ,4.432021814016109  ,-2.327561378479004e-05  ,3.075599670410156e-05   ,2.2846191227436066 ,3.7978230714797974 ,                   0
2025-12-05 17:53:04.977164 ,            0.0 ,             0.0 ,  1030.5 ,      85.4 ,        12.1 ,            1.3 ,6887.6 , 565.1 ,   26.2 ,        0.00 ,        0.00 ,         0.00 ,         0.00 ,       0 ,       0 ,       0 ,       0 ,       0 ,       0 ,       0 ,       0 ,       0 ,       0 ,        0 ,        0 ,        0 ,        0 ,        0 ,        0 ,           0.0 ,0.21535760164260864 ,1.2022076845169067 ,0.7124599814414978 ,6.078271702307183  ,2.0864848678747845 ,4.234344495984301  ,            0.0 ,             0.0 ,           0.0 ,            0.0 ,               0.0 ,3.0780631602791915 ,-2.048840811195286  ,4.432021814016109  ,-2.327561378479004e-05  ,3.075599670410156e-05   ,2.2846191227436066 ,3.7978230714797974 ,                   0
2025-12-05 17:53:05.008787 ,            0.0 ,             0.0 ,  1030.2 ,      85.4 ,        12.1 ,            1.3 ,6887.7 , 565.1 ,   26.2 ,        0.00 ,        0.00 ,         0.00 ,         0.00 ,       0 ,       0 ,       0 ,       0 ,       0 ,       0 ,       0 ,       0 ,       0 ,       0 ,        0 ,        0 ,        0 ,        0 ,        0 ,        0 ,           0.0 ,0.21535760164260864 ,1.2022076845169067 ,0.7124599814414978 ,6.078271702307183  ,2.0864848678747845 ,4.234344495984301  ,            0.0 ,             0.0 ,           0.0 ,            0.0 ,               0.0 ,3.0780631602791915 ,-2.048840811195286  ,4.432021814016109  ,-2.327561378479004e-05  ,3.075599670410156e-05   ,2.2846191227436066 ,3.7978230714797974 ,                   0
2025-12-05 17:53:05.039797 ,            0.0 ,             0.0 ,  1029.2 ,      85.3 ,        12.1 ,            1.3 ,6887.7 , 565.1 ,   26.2 ,        0.00 ,        0.00 ,         0.00 ,         0.00 ,       0 ,       0 ,       0 ,       0 ,       0 ,       0 ,       0 ,       0 ,       0 ,       0 ,        0 ,        0 ,        0 ,        0 ,        0 ,        0 ,           0.0 ,0.21535760164260864 ,1.2022076845169067 ,0.7124599814414978 ,6.078271702307183  ,2.0864848678747845 ,4.234344495984301  ,            0.0 ,             0.0 ,           0.0 ,            0.0 ,               0.0 ,3.0780631602791915 ,-2.048840811195286  ,4.432021814016109  ,-2.327561378479004e-05  ,3.075599670410156e-05   ,2.2846191227436066 ,3.7978230714797974 ,                   0
2025-12-05 17:53:05.071035 ,            0.0 ,             0.0 ,  1029.0 ,      85.3 ,        12.1 ,            1.3 ,6887.8 , 565.1 ,   26.2 ,        0.00 ,        0.00 ,         0.00 ,         0.00 ,       0 ,       0 ,       0 ,       0 ,       0 ,       0 ,       0 ,       0 ,       0 ,       0 ,        0 ,        0 ,        0 ,        0 ,        0 ,        0 ,           0.0 ,0.21535760164260864 ,1.2022076845169067 ,0.7124599814414978 ,6.078271702307183  ,2.0864848678747845 ,4.234344495984301  ,            0.0 ,             0.0 ,           0.0 ,            0.0 ,               0.0 ,3.0780631602791915 ,-2.048840811195286  ,4.432021814016109  ,-2.327561378479004e-05  ,3.075599670410156e-05   ,2.2846191227436066 ,3.7978230714797974 ,                   0
2025-12-05 17:53:05.101877 ,            0.0 ,             0.0 ,  1016.5 ,      84.2 ,        12.1 ,            1.3 ,6887.8 , 565.1 ,   26.2 ,        0.00 ,        0.00 ,         0.00 ,         0.00 ,       0 ,       0 ,       0 ,       0 ,       0 ,       0 ,       0 ,       0 ,       0 ,       0 ,        0 ,        0 ,        0 ,        0 ,        0 ,        0 ,           0.0 ,0.21535760164260864 ,1.2022076845169067 ,0.7124599814414978 ,6.078271702307183  ,2.0864848678747845 ,4.234344495984301  ,            0.0 ,             0.0 ,           0.0 ,            0.0 ,               0.0 ,3.0780631602791915 ,-2.048840811195286  ,4.432021814016109  ,-2.327561378479004e-05  ,3.075599670410156e-05   ,2.2846191227436066 ,3.7978230714797974 ,                   0
2025-12-05 17:53:05.133388 ,            0.0 ,             0.0 ,  1015.9 ,      84.2 ,        12.1 ,            1.3 ,6887.9 , 565.1 ,   26.2 ,        0.00 ,        0.00 ,         0.00 ,         0.00 ,       0 ,       0 ,       0 ,       0 ,       0 ,       0 ,       0 ,       0 ,       0 ,       0 ,        0 ,        0 ,        0 ,        0 ,        0 ,        0 ,           0.0 ,0.215370774269104   ,1.202157974243164  ,0.7124806046485901 ,6.058881987915758  ,2.098019907216036  ,4.222442908702019  ,            0.0 ,             0.0 ,           0.0 ,            0.0 ,               0.0 ,3.089973076090625  ,-2.0607423984775672 ,4.432057620526671  ,-1.0102987289428711e-05 ,-1.895427703857422e-05  ,2.2846191227436066 ,3.7978230714797974 ,                   0
2025-12-05 17:53:05.164508 ,            0.0 ,             0.0 ,  1017.9 ,      84.4 ,        12.1 ,            1.3 ,6888.0 , 565.1 ,   26.2 ,        0.00 ,        0.00 ,         0.00 ,         0.00 ,       0 ,       0 ,       0 ,       0 ,       0 ,       0 ,       0 ,       0 ,       0 ,       0 ,        0 ,        0 ,        0 ,        0 ,        0 ,        0 ,           0.0 ,0.215370774269104   ,1.202157974243164  ,0.7124806046485901 ,6.058881987915758  ,2.098019907216036  ,4.222442908702019  ,            0.0 ,             0.0 ,           0.0 ,            0.0 ,               0.0 ,3.089973076090625  ,-2.0607423984775672 ,4.432057620526671  ,-1.0102987289428711e-05 ,-1.895427703857422e-05  ,2.2846191227436066 ,3.7978230714797974 ,                   0
2025-12-05 17:53:05.195890 ,            0.0 ,             0.0 ,  1019.0 ,      84.4 ,        12.1 ,            1.3 ,6888.0 , 565.1 ,   26.2 ,        0.00 ,        0.00 ,         0.00 ,         0.00 ,       0 ,       0 ,       0 ,       0 ,       0 ,       0 ,       0 ,       0 ,       0 ,       0 ,        0 ,        0 ,        0 ,        0 ,        0 ,        0 ,           0.0 ,0.215370774269104   ,1.202157974243164  ,0.7124806046485901 ,6.058881987915758  ,2.098019907216036  ,4.222442908702019  ,            0.0 ,             0.0 ,           0.0 ,            0.0 ,               0.0 ,3.089973076090625  ,-2.0607423984775672 ,4.432057620526671  ,-1.0102987289428711e-05 ,-1.895427703857422e-05  ,2.2846191227436066 ,3.7978230714797974 ,                   0
2025-12-05 17:53:05.227423 ,            0.0 ,             0.0 ,  1012.9 ,      83.9 ,        12.1 ,            1.3 ,6888.1 , 565.1 ,   26.2 ,        0.00 ,        0.00 ,         0.00 ,         0.00 ,       0 ,       0 ,       0 ,       0 ,       0 ,       0 ,       0 ,       0 ,       0 ,       0 ,        0 ,        0 ,        0 ,        0 ,        0 ,        0 ,           0.0 ,0.21521128714084625 ,1.2021253108978271 ,0.7126027345657349 ,6.0664037297457565 ,2.089884694446351  ,4.237747027687531  ,            0.0 ,             0.0 ,           0.0 ,            0.0 ,               0.0 ,3.07464192119223   ,-2.0454382794920556 ,4.432167823597332  ,-0.00016959011554718018 ,-5.161762237548828e-05  ,2.2846191227436066 ,3.7978230714797974 ,                   0
2025-12-05 17:53:05.258636 ,            0.0 ,             0.0 ,  1024.2 ,      84.2 ,        12.1 ,            1.3 ,6888.1 , 565.1 ,   26.2 ,        0.00 ,        0.00 ,         0.00 ,         0.00 ,       0 ,       0 ,       0 ,       0 ,       0 ,       0 ,       0 ,       0 ,       0 ,       0 ,        0 ,        0 ,        0 ,        0 ,        0 ,        0 ,           0.0 ,0.21521128714084625 ,1.2021253108978271 ,0.7126027345657349 ,6.0664037297457565 ,2.089884694446351  ,4.237747027687531  ,            0.0 ,             0.0 ,           0.0 ,            0.0 ,               0.0 ,3.07464192119223   ,-2.0454382794920556 ,4.432167823597332  ,-0.00016959011554718018 ,-5.161762237548828e-05  ,2.2846191227436066 ,3.7978230714797974 ,                   0
2025-12-05 17:53:05.289696 ,            0.0 ,             0.0 ,  1022.3 ,      84.7 ,        12.1 ,            1.3 ,6888.2 , 565.1 ,   26.2 ,        0.00 ,        0.00 ,         0.00 ,         0.00 ,       0 ,       0 ,       0 ,       0 ,       0 ,       0 ,       0 ,       0 ,       0 ,       0 ,        0 ,        0 ,        0 ,        0 ,        0 ,        0 ,           0.0 ,0.21521128714084625 ,1.2021253108978271 ,0.7126027345657349 ,6.0664037297457565 ,2.089884694446351  ,4.237747027687531  ,            0.0 ,             0.0 ,           0.0 ,            0.0 ,               0.0 ,3.07464192119223   ,-2.0454382794920556 ,4.432167823597332  ,-0.00016959011554718018 ,-5.161762237548828e-05  ,2.2846191227436066 ,3.7978230714797974 ,                   0
2025-12-05 17:53:05.321001 ,            0.0 ,             0.0 ,  1018.7 ,      84.4 ,        12.1 ,            1.3 ,6888.3 , 565.1 ,   26.2 ,        0.00 ,        0.00 ,         0.00 ,         0.00 ,       0 ,       0 ,       0 ,       0 ,       0 ,       0 ,       0 ,       0 ,       0 ,       0 ,        0 ,        0 ,        0 ,        0 ,        0 ,        0 ,           0.0 ,0.21537750959396362 ,1.202134609222412  ,0.7125049829483032 ,6.056480228304725  ,2.101660564242406  ,4.214322930503796  ,            0.0 ,             0.0 ,           0.0 ,            0.0 ,               0.0 ,3.0980970740043996 ,-2.0688623766757908 ,4.432074170197886  ,-3.3676624298095703e-06 ,-4.2319297790527344e-05 ,2.2846191227436066 ,3.7978230714797974 ,                   0
2025-12-05 17:53:05.352455 ,            0.0 ,             0.0 ,  1025.0 ,      84.9 ,        12.1 ,            1.3 ,6888.3 , 565.1 ,   26.2 ,        0.00 ,        0.00 ,         0.00 ,         0.00 ,       0 ,       0 ,       0 ,       0 ,       0 ,       0 ,       0 ,       0 ,       0 ,       0 ,        0 ,        0 ,        0 ,        0 ,        0 ,        0 ,           0.0 ,0.21537750959396362 ,1.202134609222412  ,0.7125049829483032 ,6.056480228304725  ,2.101660564242406  ,4.214322930503796  ,            0.0 ,             0.0 ,           0.0 ,            0.0 ,               0.0 ,3.0980970740043996 ,-2.0688623766757908 ,4.432074170197886  ,-3.3676624298095703e-06 ,-4.2319297790527344e-05 ,2.2846191227436066 ,3.7978230714797974 ,                   0
2025-12-05 17:53:05.383812 ,            0.0 ,             0.0 ,  1023.1 ,      84.8 ,        12.1 ,            1.3 ,6888.4 , 565.1 ,   26.2 ,        0.00 ,        0.00 ,         0.00 ,         0.00 ,       0 ,       0 ,       0 ,       0 ,       0 ,       0 ,       0 ,       0 ,       0 ,       0 ,        0 ,        0 ,        0 ,        0 ,        0 ,        0 ,           0.0 ,0.21537750959396362 ,1.202134609222412  ,0.7125049829483032 ,6.056480228304725  ,2.101660564242406  ,4.214322930503796  ,            0.0 ,             0.0 ,           0.0 ,            0.0 ,               0.0 ,3.0980970740043996 ,-2.0688623766757908 ,4.432074170197886  ,-3.3676624298095703e-06 ,-4.2319297790527344e-05 ,2.2846191227436066 ,3.7978230714797974 ,                   0
2025-12-05 17:53:05.415090 ,            0.0 ,             0.0 ,  1022.8 ,      84.8 ,        12.1 ,            1.3 ,6888.4 , 565.1 ,   26.2 ,        0.00 ,        0.00 ,         0.00 ,         0.00 ,       0 ,       0 ,       0 ,       0 ,       0 ,       0 ,       0 ,       0 ,       0 ,       0 ,        0 ,        0 ,        0 ,        0 ,        0 ,        0 ,           0.0 ,0.21538089215755463 ,1.2021572589874268 ,0.7124816179275513 ,6.068691982052058  ,2.0928803586078786 ,4.221052638394026  ,            0.0 ,             0.0 ,           0.0 ,            0.0 ,               0.0 ,3.091365385802117  ,-2.062132668785561  ,4.432053017889193  ,1.4901161193847656e-08  ,-1.9669532775878906e-05 ,2.2846191227436066 ,3.7978230714797974 ,                   0
2025-12-05 17:53:05.446496 ,            0.0 ,             0.0 ,  1019.3 ,      84.5 ,        12.1 ,            1.3 ,6888.5 , 565.1 ,   26.2 ,        0.00 ,        0.00 ,         0.00 ,         0.00 ,       0 ,       0 ,       0 ,       0 ,       0 ,       0 ,       0 ,       0 ,       0 ,       0 ,        0 ,        0 ,        0 ,        0 ,        0 ,        0 ,           0.0 ,0.21538089215755463 ,1.2021572589874268 ,0.7124816179275513 ,6.068691982052058  ,2.0928803586078786 ,4.221052638394026  ,            0.0 ,             0.0 ,           0.0 ,            0.0 ,               0.0 ,3.091365385802117  ,-2.062132668785561  ,4.432053017889193  ,1.4901161193847656e-08  ,-1.9669532775878906e-05 ,2.2846191227436066 ,3.7978230714797974 ,                   0
2025-12-05 17:53:05.477914 ,            0.0 ,             0.0 ,  1019.3 ,      84.5 ,        12.1 ,            1.3 ,6888.6 , 565.2 ,   26.2 ,        0.00 ,        0.00 ,         0.00 ,         0.00 ,       0 ,       0 ,       0 ,       0 ,       0 ,       0 ,       0 ,       0 ,       0 ,       0 ,        0 ,        0 ,        0 ,        0 ,        0 ,        0 ,           0.0 ,0.21538089215755463 ,1.2021572589874268 ,0.7124816179275513 ,6.068691982052058  ,2.0928803586078786 ,4.221052638394026  ,            0.0 ,             0.0 ,           0.0 ,            0.0 ,               0.0 ,3.091365385802117  ,-2.062132668785561  ,4.432053017889193  ,1.4901161193847656e-08  ,-1.9669532775878906e-05 ,2.2846191227436066 ,3.7978230714797974 ,                   0
2025-12-05 17:53:05.508873 ,            0.0 ,             0.0 ,  1023.6 ,      84.8 ,        12.1 ,            1.3 ,6888.6 , 565.2 ,   26.2 ,        0.00 ,        0.00 ,         0.00 ,         0.00 ,       0 ,       0 ,       0 ,       0 ,       0 ,       0 ,       0 ,       0 ,       0 ,       0 ,        0 ,        0 ,        0 ,        0 ,        0 ,        0 ,           0.0 ,0.21538089215755463 ,1.2021572589874268 ,0.7124816179275513 ,6.068691982052058  ,2.0928803586078786 ,4.221052638394026  ,            0.0 ,             0.0 ,           0.0 ,            0.0 ,               0.0 ,3.091365385802117  ,-2.062132668785561  ,4.432053017889193  ,1.4901161193847656e-08  ,-1.9669532775878906e-05 ,2.2846191227436066 ,3.7978230714797974 ,                   0
2025-12-05 17:53:05.540079 ,            0.0 ,             0.0 ,  1018.4 ,      84.4 ,        12.1 ,            1.3 ,6888.7 , 565.2 ,   26.2 ,        0.00 ,        0.00 ,         0.00 ,         0.00 ,       0 ,       0 ,       0 ,       0 ,       0 ,       0 ,       0 ,       0 ,       0 ,       0 ,        0 ,        0 ,        0 ,        0 ,        0 ,        0 ,           0.0 ,0.2153894603252411  ,1.2021377086639404 ,0.712483286857605  ,6.065363239409009  ,2.096105687673117  ,4.2181808605170925 ,            0.0 ,             0.0 ,           0.0 ,            0.0 ,               0.0 ,3.094241094087434  ,-2.065004446662494  ,4.432065353979494  ,8.58306884765625e-06    ,-3.921985626220703e-05  ,2.2846191227436066 ,3.7978230714797974 ,                   0
2025-12-05 17:53:05.571383 ,            0.0 ,             0.0 ,  1019.7 ,      84.5 ,        12.1 ,            1.3 ,6888.7 , 565.2 ,   26.2 ,        0.00 ,        0.00 ,         0.00 ,         0.00 ,       0 ,       0 ,       0 ,       0 ,       0 ,       0 ,       0 ,       0 ,       0 ,       0 ,        0 ,        0 ,        0 ,        0 ,        0 ,        0 ,           0.0 ,0.2153894603252411  ,1.2021377086639404 ,0.712483286857605  ,6.065363239409009  ,2.096105687673117  ,4.2181808605170925 ,            0.0 ,             0.0 ,           0.0 ,            0.0 ,               0.0 ,3.094241094087434  ,-2.065004446662494  ,4.432065353979494  ,8.58306884765625e-06    ,-3.921985626220703e-05  ,2.2846191227436066 ,3.7978230714797974 ,                   0
2025-12-05 17:53:05.602942 ,            0.0 ,             0.0 ,  1027.4 ,      85.1 ,        12.1 ,            1.3 ,6888.8 , 565.2 ,   26.2 ,        0.00 ,        0.00 ,         0.00 ,         0.00 ,       0 ,       0 ,       0 ,       0 ,       0 ,       0 ,       0 ,       0 ,       0 ,       0 ,        0 ,        0 ,        0 ,        0 ,        0 ,        0 ,           0.0 ,0.2153894603252411  ,1.2021377086639404 ,0.712483286857605  ,6.065363239409009  ,2.096105687673117  ,4.2181808605170925 ,            0.0 ,             0.0 ,           0.0 ,            0.0 ,               0.0 ,3.094241094087434  ,-2.065004446662494  ,4.432065353979494  ,8.58306884765625e-06    ,-3.921985626220703e-05  ,2.2846191227436066 ,3.7978230714797974 ,                   0
2025-12-05 17:53:05.634259 ,            0.0 ,             0.0 ,  1022.3 ,      84.7 ,        12.1 ,            1.3 ,6888.8 , 565.2 ,   26.2 ,        0.00 ,        0.00 ,         0.00 ,         0.00 ,       0 ,       0 ,       0 ,       0 ,       0 ,       0 ,       0 ,       0 ,       0 ,       0 ,        0 ,        0 ,        0 ,        0 ,        0 ,        0 ,           0.0 ,0.2151588350534439  ,1.2021596431732178 ,0.7125689387321472 ,6.058193264249402  ,2.0852668196837163 ,4.246977533347986  ,            0.0 ,             0.0 ,           0.0 ,            0.0 ,               0.0 ,3.065397281596634  ,-2.036207773831601  ,4.43216544422436   ,-0.00022204220294952393 ,-1.728534698486328e-05  ,2.2846191227436066 ,3.7978230714797974 ,                   0
2025-12-05 17:53:05.665382 ,            0.0 ,             0.0 ,  1025.9 ,      85.0 ,        12.1 ,            1.3 ,6888.9 , 565.2 ,   26.2 ,        0.00 ,        0.00 ,         0.00 ,         0.00 ,       0 ,       0 ,       0 ,       0 ,       0 ,       0 ,       0 ,       0 ,       0 ,       0 ,        0 ,        0 ,        0 ,        0 ,        0 ,        0 ,           0.0 ,0.2151588350534439  ,1.2021596431732178 ,0.7125689387321472 ,6.058193264249402  ,2.0852668196837163 ,4.246977533347986  ,            0.0 ,             0.0 ,           0.0 ,            0.0 ,               0.0 ,3.065397281596634  ,-2.036207773831601  ,4.43216544422436   ,-0.00022204220294952393 ,-1.728534698486328e-05  ,2.2846191227436066 ,3.7978230714797974 ,                   0
2025-12-05 17:53:05.696768 ,            0.0 ,             0.0 ,  1024.9 ,      84.9 ,        12.1 ,            1.3 ,6889.0 , 565.2 ,   26.2 ,        0.00 ,        0.00 ,         0.00 ,         0.00 ,       0 ,       0 ,       0 ,       0 ,       0 ,       0 ,       0 ,       0 ,       0 ,       0 ,        0 ,        0 ,        0 ,        0 ,        0 ,        0 ,           0.0 ,0.2151588350534439  ,1.2021596431732178 ,0.7125689387321472 ,6.058193264249402  ,2.0852668196837163 ,4.246977533347986  ,            0.0 ,             0.0 ,           0.0 ,            0.0 ,               0.0 ,3.065397281596634  ,-2.036207773831601  ,4.43216544422436   ,-0.00022204220294952393 ,-1.728534698486328e-05  ,2.2846191227436066 ,3.7978230714797974 ,                   0
2025-12-05 17:53:05.728230 ,            0.0 ,             0.0 ,  1026.2 ,      85.0 ,        12.1 ,            1.3 ,6889.0 , 565.2 ,   26.2 ,        0.00 ,        0.00 ,         0.00 ,         0.00 ,       0 ,       0 ,       0 ,       0 ,       0 ,       0 ,       0 ,       0 ,       0 ,       0 ,        0 ,        0 ,        0 ,        0 ,        0 ,        0 ,           0.0 ,0.2151934653520584  ,1.2021764516830444 ,0.7125704884529114 ,6.063773530362205  ,2.083201502855096  ,4.2426151121349545 ,            0.0 ,             0.0 ,           0.0 ,            0.0 ,               0.0 ,3.0697644429755693 ,-2.040570195044632  ,4.432133188987073  ,-0.00018741190433502197 ,-4.76837158203125e-07   ,2.2846191227436066 ,3.7978230714797974 ,                   0
2025-12-05 17:53:05.759743 ,            0.0 ,             0.0 ,  1030.6 ,      84.5 ,        12.1 ,            1.3 ,6889.1 , 565.2 ,   26.2 ,        0.00 ,        0.00 ,         0.00 ,         0.00 ,       0 ,       0 ,       0 ,       0 ,       0 ,       0 ,       0 ,       0 ,       0 ,       0 ,        0 ,        0 ,        0 ,        0 ,        0 ,        0 ,           0.0 ,0.2151934653520584  ,1.2021764516830444 ,0.7125704884529114 ,6.063773530362205  ,2.083201502855096  ,4.2426151121349545 ,            0.0 ,             0.0 ,           0.0 ,            0.0 ,               0.0 ,3.0697644429755693 ,-2.040570195044632  ,4.432133188987073  ,-0.00018741190433502197 ,-4.76837158203125e-07   ,2.2846191227436066 ,3.7978230714797974 ,                   0
2025-12-05 17:53:05.790904 ,            0.0 ,             0.0 ,  1024.1 ,      84.9 ,        12.1 ,            1.3 ,6889.1 , 565.2 ,   26.2 ,        0.00 ,        0.00 ,         0.00 ,         0.00 ,       0 ,       0 ,       0 ,       0 ,       0 ,       0 ,       0 ,       0 ,       0 ,       0 ,        0 ,        0 ,        0 ,        0 ,        0 ,        0 ,           0.0 ,0.2151934653520584  ,1.2021764516830444 ,0.7125704884529114 ,6.063773530362205  ,2.083201502855096  ,4.2426151121349545 ,            0.0 ,             0.0 ,           0.0 ,            0.0 ,               0.0 ,3.0697644429755693 ,-2.040570195044632  ,4.432133188987073  ,-0.00018741190433502197 ,-4.76837158203125e-07   ,2.2846191227436066 ,3.7978230714797974 ,                   0
2025-12-05 17:53:05.822174 ,            0.0 ,             0.0 ,  1030.2 ,      84.6 ,        12.1 ,            1.3 ,6889.2 , 565.2 ,   26.2 ,        0.00 ,        0.00 ,         0.00 ,         0.00 ,       0 ,       0 ,       0 ,       0 ,       0 ,       0 ,       0 ,       0 ,       0 ,       0 ,        0 ,        0 ,        0 ,        0 ,        0 ,        0 ,           0.0 ,0.2151934653520584  ,1.2021764516830444 ,0.7125704884529114 ,6.063773530362205  ,2.083201502855096  ,4.2426151121349545 ,            0.0 ,             0.0 ,           0.0 ,            0.0 ,               0.0 ,3.0697644429755693 ,-2.040570195044632  ,4.432133188987073  ,-0.00018741190433502197 ,-4.76837158203125e-07   ,2.2846191227436066 ,3.7978230714797974 ,                   0
2025-12-05 17:53:05.853525 ,            0.0 ,             0.0 ,  1026.4 ,      85.1 ,        12.1 ,            1.3 ,6889.3 , 565.2 ,   26.2 ,        0.00 ,        0.00 ,         0.00 ,         0.00 ,       0 ,       0 ,       0 ,       0 ,       0 ,       0 ,       0 ,       0 ,       0 ,       0 ,        0 ,        0 ,        0 ,        0 ,        0 ,        0 ,           0.0 ,0.2153446227312088  ,1.2022101879119873 ,0.7124412059783936 ,6.0711676674883694 ,2.088485913138175  ,4.238361989468343  ,            0.0 ,             0.0 ,           0.0 ,            0.0 ,               0.0 ,3.0740428662541124 ,-2.0448233177112436 ,4.432026359317226  ,-3.625452518463135e-05  ,3.325939178466797e-05   ,2.2846191227436066 ,3.7978230714797974 ,                   0
2025-12-05 17:53:05.884956 ,            0.0 ,             0.0 ,  1021.1 ,      84.6 ,        12.1 ,            1.3 ,6889.3 , 565.2 ,   26.2 ,        0.00 ,        0.00 ,         0.00 ,         0.00 ,       0 ,       0 ,       0 ,       0 ,       0 ,       0 ,       0 ,       0 ,       0 ,       0 ,        0 ,        0 ,        0 ,        0 ,        0 ,        0 ,           0.0 ,0.2153446227312088  ,1.2022101879119873 ,0.7124412059783936 ,6.0711676674883694 ,2.088485913138175  ,4.238361989468343  ,            0.0 ,             0.0 ,           0.0 ,            0.0 ,               0.0 ,3.0740428662541124 ,-2.0448233177112436 ,4.432026359317226  ,-3.625452518463135e-05  ,3.325939178466797e-05   ,2.2846191227436066 ,3.7978230714797974 ,                   0
2025-12-05 17:53:05.915627 ,            0.0 ,             0.0 ,  1023.6 ,      84.8 ,        12.1 ,            1.3 ,6889.4 , 565.2 ,   26.2 ,        0.00 ,        0.00 ,         0.00 ,         0.00 ,       0 ,       0 ,       0 ,       0 ,       0 ,       0 ,       0 ,       0 ,       0 ,       0 ,        0 ,        0 ,        0 ,        0 ,        0 ,        0 ,           0.0 ,0.2153446227312088  ,1.2022101879119873 ,0.7124412059783936 ,6.0711676674883694 ,2.088485913138175  ,4.238361989468343  ,            0.0 ,             0.0 ,           0.0 ,            0.0 ,               0.0 ,3.0740428662541124 ,-2.0448233177112436 ,4.432026359317226  ,-3.625452518463135e-05  ,3.325939178466797e-05   ,2.2846191227436066 ,3.7978230714797974 ,                   0
2025-12-05 17:53:05.946766 ,            0.0 ,             0.0 ,  1018.4 ,      84.4 ,        12.1 ,            1.3 ,6889.4 , 565.2 ,   26.2 ,        0.00 ,        0.00 ,         0.00 ,         0.00 ,       0 ,       0 ,       0 ,       0 ,       0 ,       0 ,       0 ,       0 ,       0 ,       0 ,        0 ,        0 ,        0 ,        0 ,        0 ,        0 ,           0.0 ,0.21518291532993317 ,1.2021700143814087 ,0.7125735878944397 ,6.055895873853285  ,2.0822424234375188 ,4.245624518958435  ,            0.0 ,             0.0 ,           0.0 ,            0.0 ,               0.0 ,3.0667537452071088 ,-2.037560788221152  ,4.432144143646948  ,-0.0001979619264602661  ,-6.9141387939453125e-06 ,2.2846191227436066 ,3.7978230714797974 ,                   0
2025-12-05 17:53:05.978150 ,            0.0 ,             0.0 ,  1025.1 ,      85.0 ,        12.1 ,            1.3 ,6889.5 , 565.2 ,   26.2 ,        0.00 ,        0.00 ,         0.00 ,         0.00 ,       0 ,       0 ,       0 ,       0 ,       0 ,       0 ,       0 ,       0 ,       0 ,       0 ,        0 ,        0 ,        0 ,        0 ,        0 ,        0 ,           0.0 ,0.21518291532993317 ,1.2021700143814087 ,0.7125735878944397 ,6.055895873853285  ,2.0822424234375188 ,4.245624518958435  ,            0.0 ,             0.0 ,           0.0 ,            0.0 ,               0.0 ,3.0667537452071088 ,-2.037560788221152  ,4.432144143646948  ,-0.0001979619264602661  ,-6.9141387939453125e-06 ,2.2846191227436066 ,3.7978230714797974 ,                   0
2025-12-05 17:53:06.008545 ,            0.0 ,             0.0 ,  1019.6 ,      84.5 ,        12.1 ,            1.3 ,6889.6 , 565.2 ,   26.2 ,        0.00 ,        0.00 ,         0.00 ,         0.00 ,       0 ,       0 ,       0 ,       0 ,       0 ,       0 ,       0 ,       0 ,       0 ,       0 ,        0 ,        0 ,        0 ,        0 ,        0 ,        0 ,           0.0 ,0.21518291532993317 ,1.2021700143814087 ,0.7125735878944397 ,6.055895873853285  ,2.0822424234375188 ,4.245624518958435  ,            0.0 ,             0.0 ,           0.0 ,            0.0 ,               0.0 ,3.0667537452071088 ,-2.037560788221152  ,4.432144143646948  ,-0.0001979619264602661  ,-6.9141387939453125e-06 ,2.2846191227436066 ,3.7978230714797974 ,                   0
2025-12-05 17:53:06.039350 ,            0.0 ,             0.0 ,  1029.5 ,      84.5 ,        12.1 ,            1.3 ,6889.6 , 565.2 ,   26.2 ,        0.00 ,        0.00 ,         0.00 ,         0.00 ,       0 ,       0 ,       0 ,       0 ,       0 ,       0 ,       0 ,       0 ,       0 ,       0 ,        0 ,        0 ,        0 ,        0 ,        0 ,        0 ,           0.0 ,0.2152044177055359  ,1.2021375894546509 ,0.7125912308692932 ,6.0542991002704865 ,2.090490750718116  ,4.2368420861490375 ,            0.0 ,             0.0 ,           0.0 ,            0.0 ,               0.0 ,3.075544106523221  ,-2.046343221030549  ,4.432160843460628  ,-0.00017645955085754395 ,-3.933906555175781e-05  ,2.2846191227436066 ,3.7978230714797974 ,                   0
2025-12-05 17:53:06.070260 ,            0.0 ,             0.0 ,  1020.1 ,      84.6 ,        12.1 ,            1.3 ,6889.7 , 565.2 ,   26.2 ,        0.00 ,        0.00 ,         0.00 ,         0.00 ,       0 ,       0 ,       0 ,       0 ,       0 ,       0 ,       0 ,       0 ,       0 ,       0 ,        0 ,        0 ,        0 ,        0 ,        0 ,        0 ,           0.0 ,0.2152044177055359  ,1.2021375894546509 ,0.7125912308692932 ,6.0542991002704865 ,2.090490750718116  ,4.2368420861490375 ,            0.0 ,             0.0 ,           0.0 ,            0.0 ,               0.0 ,3.075544106523221  ,-2.046343221030549  ,4.432160843460628  ,-0.00017645955085754395 ,-3.933906555175781e-05  ,2.2846191227436066 ,3.7978230714797974 ,                   0
2025-12-05 17:53:06.101340 ,            0.0 ,             0.0 ,  1027.3 ,      85.1 ,        12.1 ,            1.3 ,6889.7 , 565.3 ,   26.2 ,        0.00 ,        0.00 ,         0.00 ,         0.00 ,       0 ,       0 ,       0 ,       0 ,       0 ,       0 ,       0 ,       0 ,       0 ,       0 ,        0 ,        0 ,        0 ,        0 ,        0 ,        0 ,           0.0 ,0.2152044177055359  ,1.2021375894546509 ,0.7125912308692932 ,6.0542991002704865 ,2.090490750718116  ,4.2368420861490375 ,            0.0 ,             0.0 ,           0.0 ,            0.0 ,               0.0 ,3.075544106523221  ,-2.046343221030549  ,4.432160843460628  ,-0.00017645955085754395 ,-3.933906555175781e-05  ,2.2846191227436066 ,3.7978230714797974 ,                   0
2025-12-05 17:53:06.132390 ,            0.0 ,             0.0 ,  1020.1 ,      84.5 ,        12.1 ,            1.3 ,6889.8 , 565.3 ,   26.2 ,        0.00 ,        0.00 ,         0.00 ,         0.00 ,       0 ,       0 ,       0 ,       0 ,       0 ,       0 ,       0 ,       0 ,       0 ,       0 ,        0 ,        0 ,        0 ,        0 ,        0 ,        0 ,           0.0 ,0.2152044177055359  ,1.2021375894546509 ,0.7125912308692932 ,6.0542991002704865 ,2.090490750718116  ,4.2368420861490375 ,            0.0 ,             0.0 ,           0.0 ,            0.0 ,               0.0 ,3.075544106523221  ,-2.046343221030549  ,4.432160843460628  ,-0.00017645955085754395 ,-3.933906555175781e-05  ,2.2846191227436066 ,3.7978230714797974 ,                   0
2025-12-05 17:53:06.163521 ,            0.0 ,             0.0 ,  1024.8 ,      84.9 ,        12.1 ,            1.3 ,6889.9 , 565.3 ,   26.2 ,        0.00 ,        0.00 ,         0.00 ,         0.00 ,       0 ,       0 ,       0 ,       0 ,       0 ,       0 ,       0 ,       0 ,       0 ,       0 ,        0 ,        0 ,        0 ,        0 ,        0 ,        0 ,           0.0 ,0.2153632491827011  ,1.202183723449707  ,0.7124645113945007 ,6.059845752531583  ,2.094667261851514  ,4.229430707455107  ,            0.0 ,             0.0 ,           0.0 ,            0.0 ,               0.0 ,3.0829808275977713 ,-2.05375459972448   ,4.432039435024846  ,-1.7628073692321777e-05 ,6.794929504394531e-06   ,2.2846191227436066 ,3.7978230714797974 ,                   0
2025-12-05 17:53:06.194654 ,            0.0 ,             0.0 ,  1021.4 ,      84.6 ,        12.1 ,            1.3 ,6889.9 , 565.3 ,   26.2 ,        0.00 ,        0.00 ,         0.00 ,         0.00 ,       0 ,       0 ,       0 ,       0 ,       0 ,       0 ,       0 ,       0 ,       0 ,       0 ,        0 ,        0 ,        0 ,        0 ,        0 ,        0 ,           0.0 ,0.2153632491827011  ,1.202183723449707  ,0.7124645113945007 ,6.059845752531583  ,2.094667261851514  ,4.229430707455107  ,            0.0 ,             0.0 ,           0.0 ,            0.0 ,               0.0 ,3.0829808275977713 ,-2.05375459972448   ,4.432039435024846  ,-1.7628073692321777e-05 ,6.794929504394531e-06   ,2.2846191227436066 ,3.7978230714797974 ,                   0
2025-12-05 17:53:06.225840 ,            0.0 ,             0.0 ,  1021.0 ,      84.6 ,        12.1 ,            1.3 ,6890.0 , 565.3 ,   26.2 ,        0.00 ,        0.00 ,         0.00 ,         0.00 ,       0 ,       0 ,       0 ,       0 ,       0 ,       0 ,       0 ,       0 ,       0 ,       0 ,        0 ,        0 ,        0 ,        0 ,        0 ,        0 ,           0.0 ,0.2153632491827011  ,1.202183723449707  ,0.7124645113945007 ,6.059845752531583  ,2.094667261851514  ,4.229430707455107  ,            0.0 ,             0.0 ,           0.0 ,            0.0 ,               0.0 ,3.0829808275977713 ,-2.05375459972448   ,4.432039435024846  ,-1.7628073692321777e-05 ,6.794929504394531e-06   ,2.2846191227436066 ,3.7978230714797974 ,                   0
2025-12-05 17:53:06.256995 ,            0.0 ,             0.0 ,  1019.8 ,      84.5 ,        12.1 ,            1.3 ,6890.0 , 565.3 ,   26.2 ,        0.00 ,        0.00 ,         0.00 ,         0.00 ,       0 ,       0 ,       0 ,       0 ,       0 ,       0 ,       0 ,       0 ,       0 ,       0 ,        0 ,        0 ,        0 ,        0 ,        0 ,        0 ,           0.0 ,0.21538597345352173 ,1.2021777629852295 ,0.7124953866004944 ,6.066502775240773  ,2.089928071722227  ,4.226370526717515  ,            0.0 ,             0.0 ,           0.0 ,            0.0 ,               0.0 ,3.0860460951543445 ,-2.0568147804620716 ,4.432032828652873  ,5.0961971282958984e-06  ,8.344650268554688e-07   ,2.2846191227436066 ,3.7978230714797974 ,                   0
