Timestamp,forward_vel_cmd,steering_vel_cmd,power_mW,current_mA,busVoltage_V,shuntVoltage_mV,energy,charge,dieTemp,Left_Stick_X,Left_Stick_Y,Right_Stick_X,Right_Stick_Y,Button_0,Button_1,Button_2,Button_3,Button_4,Button_5,Button_6,Button_7,Button_8,Button_9,Button_10,Button_11,Button_12,Button_13,Button_14,Button_15,mocap_velocity,mocap_x,mocap_y,mocap_z,mocap_roll,mocap_pitch,mocap_yaw_raw,forward_vel_cmd,steering_vel_cmd,left_wheel_vel,right_wheel_vel,ppo_control_active,heading_error_rad,current_heading_rad,distance_to_target,relative_x,relative_y,target_relative_x,target_relative_y,current_waypoint_idx
2025-12-05 17:53:29.089028,0.0,0.0,1016.1,84.2,12.1,1.3,6933.9,568.9,26.2,0.00,0.00,0.00,0.00,0,0,0,0,0,0,0,0,0,0,0,0,0,0,0,0,0.0,0.21539953351020813,1.2021700143814087,0.7124902606010437,6.073791200290286,2.0882175279718402,4.223758101504798,0.0,0.0,0.0,0.0,0.0,3.0886620433298853,-2.059427205674789,4.4320324785756124,1.8656253814697266e-05,-6.9141387939453125e-06,2.2846191227436066,3.7978230714797974,0
2025-12-05 17:53:29.119870,0.0,0.0,1024.9,85.0,12.1,1.3,6933.9,568.9,26.2,0.00,0.00,0.00,0.00,0,0,0,0,0,0,0,0,0,0,0,0,0,0,0,0,0.0,0.21539953351020813,1.2021700143814087,0.7124902606010437,6.073791200290286,2.0882175279718402,4.223758101504798,0.0,0.0,0.0,0.0,0.0,3.0886620433298853,-2.059427205674789,4.4320324785756124,1.8656253814697266e-05,-6.9141387939453125e-06,2.2846191227436066,3.7978230714797974,0
2025-12-05 17:53:29.150999,0.0,0.0,1027.2,85.1,12.1,1.3,6934.0,568.9,26.2,0.00,0.00,0.00,0.00,0,0,0,0,0,0,0,0,0,0,0,0,0,0,0,0,0.0,0.21539953351020813,1.2021700143814087,0.7124902606010437,6.073791200290286,2.0882175279718402,4.223758101504798,0.0,0.0,0.0,0.0,0.0,3.0886620433298853,-2.059427205674789,4.4320324785756124,1.8656253814697266e-05,-6.9141387939453125e-06,2.2846191227436066,3.7978230714797974,0
2025-12-05 17:53:29.182689,0.0,0.0,1021.1,84.6,12.1,1.3,6934.0,568.9,26.2,0.00,0.00,0.00,0.00,0,0,0,0,0,0,0,0,0,0,0,0,0,0,0,0,0.0,0.21539953351020813,1.2021700143814087,0.7124902606010437,6.073791200290286,2.0882175279718402,4.223758101504798,0.0,0.0,0.0,0.0,0.0,3.0886620433298853,-2.059427205674789,4.4320324785756124,1.8656253814697266e-05,-6.9141387939453125e-06,2.2846191227436066,3.7978230714797974,0
2025-12-05 17:53:29.213435,0.0,0.0,1022.7,84.8,12.1,1.3,6934.1,568.9,26.2,0.00,0.00,0.00,0.00,0,0,0,0,0,0,0,0,0,0,0,0,0,0,0,0,0.0,0.21538123488426208,1.2021809816360474,0.7124815583229065,6.071711859549324,2.088828404551198,4.227983623060977,0.0,0.0,0.0,0.0,0.0,3.0844317082885584,-2.0552016841186096,4.432032513211731,3.5762786865234375e-07,4.0531158447265625e-06,2.2846191227436066,3.7978230714797974,0
2025-12-05 17:53:29.244008,0.0,0.0,1027.3,84.8,12.1,1.3,6934.2,568.9,26.2,0.00,0.00,0.00,0.00,0,0,0,0,0,0,0,0,0,0,0,0,0,0,0,0,0.0,0.21538123488426208,1.2021809816360474,0.7124815583229065,6.071711859549324,2.088828404551198,4.227983623060977,0.0,0.0,0.0,0.0,0.0,3.0844317082885584,-2.0552016841186096,4.432032513211731,3.5762786865234375e-07,4.0531158447265625e-06,2.2846191227436066,3.7978230714797974,0
2025-12-05 17:53:29.274580,0.0,0.0,1023.7,84.9,12.1,1.3,6934.2,568.9,26.2,0.00,0.00,0.00,0.00,0,0,0,0,0,0,0,0,0,0,0,0,0,0,0,0,0.0,0.21538123488426208,1.2021809816360474,0.7124815583229065,6.071711859549324,2.088828404551198,4.227983623060977,0.0,0.0,0.0,0.0,0.0,3.0844317082885584,-2.0552016841186096,4.432032513211731,3.5762786865234375e-07,4.0531158447265625e-06,2.2846191227436066,3.7978230714797974,0
2025-12-05 17:53:29.305926,0.0,0.0,1032.1,84.8,12.1,1.3,6934.3,568.9,26.2,0.00,0.00,0.00,0.00,0,0,0,0,0,0,0,0,0,0,0,0,0,0,0,0,0.0,0.2153758704662323,1.2021539211273193,0.7124777436256409,6.0605444217276965,2.096058310633841,4.22229224249463,0.0,0.0,0.0,0.0,0.0,3.090125199011183,-2.0608930646849566,4.432058466678494,-5.0067901611328125e-06,-2.300739288330078e-05,2.2846191227436066,3.7978230714797974,0
2025-12-05 17:53:29.337306,0.0,0.0,1019.6,84.5,12.1,1.3,6934.3,569.0,26.2,0.00,0.00,0.00,0.00,0,0,0,0,0,0,0,0,0,0,0,0,0,0,0,0,0.0,0.2153758704662323,1.2021539211273193,0.7124777436256409,6.0605444217276965,2.096058310633841,4.22229224249463,0.0,0.0,0.0,0.0,0.0,3.090125199011183,-2.0608930646849566,4.432058466678494,-5.0067901611328125e-06,-2.300739288330078e-05,2.2846191227436066,3.7978230714797974,0
2025-12-05 17:53:29.368246,0.0,0.0,1023.4,85.7,12.1,1.3,6934.4,569.0,26.2,0.00,0.00,0.00,0.00,0,0,0,0,0,0,0,0,0,0,0,0,0,0,0,0,0.0,0.2153758704662323,1.2021539211273193,0.7124777436256409,6.0605444217276965,2.096058310633841,4.22229224249463,0.0,0.0,0.0,0.0,0.0,3.090125199011183,-2.0608930646849566,4.432058466678494,-5.0067901611328125e-06,-2.300739288330078e-05,2.2846191227436066,3.7978230714797974,0
2025-12-05 17:53:29.399175,0.0,0.0,1026.6,85.1,12.1,1.3,6934.5,569.0,26.2,0.00,0.00,0.00,0.00,0,0,0,0,0,0,0,0,0,0,0,0,0,0,0,0,0.0,0.21536827087402344,1.202164649963379,0.712479829788208,6.065069376926447,2.0945779945532768,4.224791744850846,0.0,0.0,0.0,0.0,0.0,3.087622979497903,-2.058393562328741,4.4320531905333596,-1.2606382369995117e-05,-1.2278556823730469e-05,2.2846191227436066,3.7978230714797974,0
2025-12-05 17:53:29.430457,0.0,0.0,1019.7,84.5,12.1,1.3,6934.5,569.0,26.2,0.00,0.00,0.00,0.00,0,0,0,0,0,0,0,0,0,0,0,0,0,0,0,0,0.0,0.21536827087402344,1.202164649963379,0.712479829788208,6.065069376926447,2.0945779945532768,4.224791744850846,0.0,0.0,0.0,0.0,0.0,3.087622979497903,-2.058393562328741,4.4320531905333596,-1.2606382369995117e-05,-1.2278556823730469e-05,2.2846191227436066,3.7978230714797974,0
2025-12-05 17:53:29.461061,0.0,0.0,1022.5,84.8,12.1,1.3,6934.6,569.0,26.2,0.00,0.00,0.00,0.00,0,0,0,0,0,0,0,0,0,0,0,0,0,0,0,0,0.0,0.21536827087402344,1.202164649963379,0.712479829788208,6.065069376926447,2.0945779945532768,4.224791744850846,0.0,0.0,0.0,0.0,0.0,3.087622979497903,-2.058393562328741,4.4320531905333596,-1.2606382369995117e-05,-1.2278556823730469e-05,2.2846191227436066,3.7978230714797974,0
2025-12-05 17:53:29.492391,0.0,0.0,1020.7,84.6,12.1,1.3,6934.6,569.0,26.2,0.00,0.00,0.00,0.00,0,0,0,0,0,0,0,0,0,0,0,0,0,0,0,0,0.0,0.21536827087402344,1.202164649963379,0.712479829788208,6.065069376926447,2.0945779945532768,4.224791744850846,0.0,0.0,0.0,0.0,0.0,3.087622979497903,-2.058393562328741,4.4320531905333596,-1.2606382369995117e-05,-1.2278556823730469e-05,2.2846191227436066,3.7978230714797974,0
2025-12-05 17:53:29.523913,0.0,0.0,1024.9,84.9,12.1,1.3,6934.7,569.0,26.2,0.00,0.00,0.00,0.00,0,0,0,0,0,0,0,0,0,0,0,0,0,0,0,0,0.0,0.21536941826343536,1.2021788358688354,0.7124651670455933,6.065057359769446,2.0899141249796824,4.226255873904206,0.0,0.0,0.0,0.0,0.0,3.0861574223572865,-2.0569294332753807,4.4320404431512745,-1.1458992958068848e-05,1.9073486328125e-06,2.2846191227436066,3.7978230714797974,0
2025-12-05 17:53:29.555080,0.0,0.0,1024.3,84.9,12.1,1.3,6934.8,569.0,26.2,0.00,0.00,0.00,0.00,0,0,0,0,0,0,0,0,0,0,0,0,0,0,0,0,0.0,0.21536941826343536,1.2021788358688354,0.7124651670455933,6.065057359769446,2.0899141249796824,4.226255873904206,0.0,0.0,0.0,0.0,0.0,3.0861574223572865,-2.0569294332753807,4.4320404431512745,-1.1458992958068848e-05,1.9073486328125e-06,2.2846191227436066,3.7978230714797974,0
2025-12-05 17:53:29.586492,0.0,0.0,1018.9,84.5,12.1,1.3,6934.8,569.0,26.2,0.00,0.00,0.00,0.00,0,0,0,0,0,0,0,0,0,0,0,0,0,0,0,0,0.0,0.21536941826343536,1.2021788358688354,0.7124651670455933,6.065057359769446,2.0899141249796824,4.226255873904206,0.0,0.0,0.0,0.0,0.0,3.0861574223572865,-2.0569294332753807,4.4320404431512745,-1.1458992958068848e-05,1.9073486328125e-06,2.2846191227436066,3.7978230714797974,0
2025-12-05 17:53:29.617275,0.0,0.0,1027.0,85.1,12.1,1.3,6934.9,569.0,26.2,0.00,0.00,0.00,0.00,0,0,0,0,0,0,0,0,0,0,0,0,0,0,0,0,0.0,0.21537938714027405,1.2021489143371582,0.7124748229980469,6.057337061826477,2.0974920640882635,4.220693900261322,0.0,0.0,0.0,0.0,0.0,3.0917248034868634,-2.0624914069182645,4.432060944253133,-1.4901161193847656e-06,-2.8014183044433594e-05,2.2846191227436066,3.7978230714797974,0
2025-12-05 17:53:29.647983,0.0,0.0,1028.1,85.2,12.1,1.3,6934.9,569.0,26.2,0.00,0.00,0.00,0.00,0,0,0,0,0,0,0,0,0,0,0,0,0,0,0,0,0.0,0.21537938714027405,1.2021489143371582,0.7124748229980469,6.057337061826477,2.0974920640882635,4.220693900261322,0.0,0.0,0.0,0.0,0.0,3.0917248034868634,-2.0624914069182645,4.432060944253133,-1.4901161193847656e-06,-2.8014183044433594e-05,2.2846191227436066,3.7978230714797974,0
2025-12-05 17:53:29.678947,0.0,0.0,1028.5,85.3,12.1,1.3,6935.0,569.0,26.2,0.00,0.00,0.00,0.00,0,0,0,0,0,0,0,0,0,0,0,0,0,0,0,0,0.0,0.21537938714027405,1.2021489143371582,0.7124748229980469,6.057337061826477,2.0974920640882635,4.220693900261322,0.0,0.0,0.0,0.0,0.0,3.0917248034868634,-2.0624914069182645,4.432060944253133,-1.4901161193847656e-06,-2.8014183044433594e-05,2.2846191227436066,3.7978230714797974,0
2025-12-05 17:53:29.710001,0.0,0.0,1028.8,85.7,12.1,1.3,6935.1,569.0,26.2,0.00,0.00,0.00,0.00,0,0,0,0,0,0,0,0,0,0,0,0,0,0,0,0,0.0,0.21516737341880798,1.2021424770355225,0.7125858664512634,6.05980032124091,2.086302878000976,4.242165371609046,0.0,0.0,0.0,0.0,0.0,3.0702130906960807,-2.041019935570541,4.432175751956119,-0.00021350383758544922,-3.445148468017578e-05,2.2846191227436066,3.7978230714797974,0
2025-12-05 17:53:29.741887,0.0,0.0,1040.8,86.3,12.1,1.3,6935.1,569.0,26.2,0.00,0.00,0.00,0.00,0,0,0,0,0,0,0,0,0,0,0,0,0,0,0,0,0.0,0.21516737341880798,1.2021424770355225,0.7125858664512634,6.05980032124091,2.086302878000976,4.242165371609046,0.0,0.0,0.0,0.0,0.0,3.0702130906960807,-2.041019935570541,4.432175751956119,-0.00021350383758544922,-3.445148468017578e-05,2.2846191227436066,3.7978230714797974,0
2025-12-05 17:53:29.772833,0.0,0.0,1033.0,85.6,12.1,1.3,6935.2,569.0,26.2,0.00,0.00,0.00,0.00,0,0,0,0,0,0,0,0,0,0,0,0,0,0,0,0,0.0,0.21516737341880798,1.2021424770355225,0.7125858664512634,6.05980032124091,2.086302878000976,4.242165371609046,0.0,0.0,0.0,0.0,0.0,3.0702130906960807,-2.041019935570541,4.432175751956119,-0.00021350383758544922,-3.445148468017578e-05,2.2846191227436066,3.7978230714797974,0
2025-12-05 17:53:29.803490,0.0,0.0,1017.0,84.3,12.1,1.3,6935.2,569.0,26.2,0.00,0.00,0.00,0.00,0,0,0,0,0,0,0,0,0,0,0,0,0,0,0,0,0.0,0.21516737341880798,1.2021424770355225,0.7125858664512634,6.05980032124091,2.086302878000976,4.242165371609046,0.0,0.0,0.0,0.0,0.0,3.0702130906960807,-2.041019935570541,4.432175751956119,-0.00021350383758544922,-3.445148468017578e-05,2.2846191227436066,3.7978230714797974,0
2025-12-05 17:53:29.833897,0.0,0.0,1018.4,84.4,12.1,1.3,6935.3,569.0,26.2,0.00,0.00,0.00,0.00,0,0,0,0,0,0,0,0,0,0,0,0,0,0,0,0,0.0,0.21535992622375488,1.202176809310913,0.7124669551849365,6.06788498687274,2.0915033439196256,4.2272974857685295,0.0,0.0,0.0,0.0,0.0,3.085114210986065,-2.055887821411057,4.4320470726787375,-2.0951032638549805e-05,-1.1920928955078125e-07,2.2846191227436066,3.7978230714797974,0
2025-12-05 17:53:29.864490,0.0,0.0,1012.9,84.0,12.1,1.3,6935.4,569.0,26.2,0.00,0.00,0.00,0.00,0,0,0,0,0,0,0,0,0,0,0,0,0,0,0,0,0.0,0.21535992622375488,1.202176809310913,0.7124669551849365,6.06788498687274,2.0915033439196256,4.2272974857685295,0.0,0.0,0.0,0.0,0.0,3.085114210986065,-2.055887821411057,4.4320470726787375,-2.0951032638549805e-05,-1.1920928955078125e-07,2.2846191227436066,3.7978230714797974,0
2025-12-05 17:53:29.895701,0.0,0.0,1030.5,84.0,12.1,1.3,6935.4,569.0,26.2,0.00,0.00,0.00,0.00,0,0,0,0,0,0,0,0,0,0,0,0,0,0,0,0,0.0,0.21535992622375488,1.202176809310913,0.7124669551849365,6.06788498687274,2.0915033439196256,4.2272974857685295,0.0,0.0,0.0,0.0,0.0,3.085114210986065,-2.055887821411057,4.4320470726787375,-2.0951032638549805e-05,-1.1920928955078125e-07,2.2846191227436066,3.7978230714797974,0
2025-12-05 17:53:29.926787,0.0,0.0,1028.1,85.2,12.1,1.3,6935.5,569.0,26.2,0.00,0.00,0.00,0.00,0,0,0,0,0,0,0,0,0,0,0,0,0,0,0,0,0.0,0.21538661420345306,1.202165961265564,0.7124982476234436,6.0694531245381445,2.0959048808086664,4.222264074513985,0.0,0.0,0.0,0.0,0.0,3.0901540438650756,-2.0609212326656015,4.432042611294557,5.736947059631348e-06,-1.0967254638671875e-05,2.2846191227436066,3.7978230714797974,0
2025-12-05 17:53:29.957406,0.0,0.0,1027.6,84.2,12.1,1.3,6935.5,569.1,26.2,0.00,0.00,0.00,0.00,0,0,0,0,0,0,0,0,0,0,0,0,0,0,0,0,0.0,0.21538661420345306,1.202165961265564,0.7124982476234436,6.0694531245381445,2.0959048808086664,4.222264074513985,0.0,0.0,0.0,0.0,0.0,3.0901540438650756,-2.0609212326656015,4.432042611294557,5.736947059631348e-06,-1.0967254638671875e-05,2.2846191227436066,3.7978230714797974,0
2025-12-05 17:53:29.988537,0.0,0.0,1022.3,84.7,12.1,1.3,6935.6,569.1,26.2,0.00,0.00,0.00,0.00,0,0,0,0,0,0,0,0,0,0,0,0,0,0,0,0,0.0,0.21538661420345306,1.202165961265564,0.7124982476234436,6.0694531245381445,2.0959048808086664,4.222264074513985,0.0,0.0,0.0,0.0,0.0,3.0901540438650756,-2.0609212326656015,4.432042611294557,5.736947059631348e-06,-1.0967254638671875e-05,2.2846191227436066,3.7978230714797974,0
2025-12-05 17:53:30.019287,0.0,0.0,1034.1,85.7,12.1,1.3,6935.7,569.1,26.2,0.00,0.00,0.00,0.00,0,0,0,0,0,0,0,0,0,0,0,0,0,0,0,0,0.0,0.21520648896694183,1.2021721601486206,0.7125789523124695,6.069633629843368,2.079830717379644,4.244855435219902,0.0,0.0,0.0,0.0,0.0,3.067527136961855,-2.0383298719596845,4.432130152557455,-0.00017438828945159912,-4.76837158203125e-06,2.2846191227436066,3.7978230714797974,0
2025-12-05 17:53:30.050029,0.0,0.0,1026.6,85.1,12.1,1.3,6935.7,569.1,26.2,0.00,0.00,0.00,0.00,0,0,0,0,0,0,0,0,0,0,0,0,0,0,0,0,0.0,0.21520648896694183,1.2021721601486206,0.7125789523124695,6.069633629843368,2.079830717379644,4.244855435219902,0.0,0.0,0.0,0.0,0.0,3.067527136961855,-2.0383298719596845,4.432130152557455,-0.00017438828945159912,-4.76837158203125e-06,2.2846191227436066,3.7978230714797974,0
2025-12-05 17:53:30.080990,0.0,0.0,1030.0,85.4,12.1,1.3,6935.8,569.1,26.2,0.00,0.00,0.00,0.00,0,0,0,0,0,0,0,0,0,0,0,0,0,0,0,0,0.0,0.21520648896694183,1.2021721601486206,0.7125789523124695,6.069633629843368,2.079830717379644,4.244855435219902,0.0,0.0,0.0,0.0,0.0,3.067527136961855,-2.0383298719596845,4.432130152557455,-0.00017438828945159912,-4.76837158203125e-06,2.2846191227436066,3.7978230714797974,0
2025-12-05 17:53:30.111929,0.0,0.0,1019.4,84.5,12.1,1.3,6935.9,569.1,26.2,0.00,0.00,0.00,0.00,0,0,0,0,0,0,0,0,0,0,0,0,0,0,0,0,0.0,0.21520648896694183,1.2021721601486206,0.7125789523124695,6.069633629843368,2.079830717379644,4.244855435219902,0.0,0.0,0.0,0.0,0.0,3.067527136961855,-2.0383298719596845,4.432130152557455,-0.00017438828945159912,-4.76837158203125e-06,2.2846191227436066,3.7978230714797974,0
2025-12-05 17:53:30.142655,0.0,0.0,1019.3,84.5,12.1,1.3,6935.9,569.1,26.2,0.00,0.00,0.00,0.00,0,0,0,0,0,0,0,0,0,0,0,0,0,0,0,0,0.0,0.21538753807544708,1.2021591663360596,0.7124788761138916,6.065338648509443,2.094249858978623,4.221631147484883,0.0,0.0,0.0,0.0,0.0,3.0907879398131204,-2.0615541596947033,4.432047957663159,6.660819053649902e-06,-1.7762184143066406e-05,2.2846191227436066,3.7978230714797974,0
2025-12-05 17:53:30.173905,0.0,0.0,1042.8,86.4,12.1,1.3,6936.0,569.1,26.2,0.00,0.00,0.00,0.00,0,0,0,0,0,0,0,0,0,0,0,0,0,0,0,0,0.0,0.21538753807544708,1.2021591663360596,0.7124788761138916,6.065338648509443,2.094249858978623,4.221631147484883,0.0,0.0,0.0,0.0,0.0,3.0907879398131204,-2.0615541596947033,4.432047957663159,6.660819053649902e-06,-1.7762184143066406e-05,2.2846191227436066,3.7978230714797974,0
2025-12-05 17:53:30.205437,0.0,0.0,1031.6,85.5,12.1,1.3,6936.0,569.1,26.2,0.00,0.00,0.00,0.00,0,0,0,0,0,0,0,0,0,0,0,0,0,0,0,0,0.0,0.21538753807544708,1.2021591663360596,0.7124788761138916,6.065338648509443,2.094249858978623,4.221631147484883,0.0,0.0,0.0,0.0,0.0,3.0907879398131204,-2.0615541596947033,4.432047957663159,6.660819053649902e-06,-1.7762184143066406e-05,2.2846191227436066,3.7978230714797974,0
2025-12-05 17:53:30.236679,0.0,0.0,1033.0,85.6,12.1,1.3,6936.1,569.1,26.2,0.00,0.00,0.00,0.00,0,0,0,0,0,0,0,0,0,0,0,0,0,0,0,0,0.0,0.2153880000114441,1.2021501064300537,0.7124723792076111,6.063599695583008,2.0959868720162262,4.220909523939282,0.0,0.0,0.0,0.0,0.0,3.0915107063938647,-2.0622757832403047,4.432055483021502,7.12275505065918e-06,-2.682209014892578e-05,2.2846191227436066,3.7978230714797974,0
2025-12-05 17:53:30.268036,0.0,0.0,1028.7,85.3,12.1,1.3,6936.2,569.1,26.2,0.00,0.00,0.00,0.00,0,0,0,0,0,0,0,0,0,0,0,0,0,0,0,0,0.0,0.2153880000114441,1.2021501064300537,0.7124723792076111,6.063599695583008,2.0959868720162262,4.220909523939282,0.0,0.0,0.0,0.0,0.0,3.0915107063938647,-2.0622757832403047,4.432055483021502,7.12275505065918e-06,-2.682209014892578e-05,2.2846191227436066,3.7978230714797974,0
2025-12-05 17:53:30.299606,0.0,0.0,1021.7,84.4,12.1,1.3,6936.2,569.1,26.2,0.00,0.00,0.00,0.00,0,0,0,0,0,0,0,0,0,0,0,0,0,0,0,0,0.0,0.2153880000114441,1.2021501064300537,0.7124723792076111,6.063599695583008,2.0959868720162262,4.220909523939282,0.0,0.0,0.0,0.0,0.0,3.0915107063938647,-2.0622757832403047,4.432055483021502,7.12275505065918e-06,-2.682209014892578e-05,2.2846191227436066,3.7978230714797974,0
2025-12-05 17:53:30.330859,0.0,0.0,1025.0,85.0,12.1,1.3,6936.3,569.1,26.2,0.00,0.00,0.00,0.00,0,0,0,0,0,0,0,0,0,0,0,0,0,0,0,0,0.0,0.21536825597286224,1.202162504196167,0.7124762535095215,6.056567206219163,2.097719183275052,4.22253321437533,0.0,0.0,0.0,0.0,0.0,3.0898817566602848,-2.0606520928042564,4.432055036927002,-1.2621283531188965e-05,-1.4424324035644531e-05,2.2846191227436066,3.7978230714797974,0
2025-12-05 17:53:30.361463,0.0,0.0,1024.2,84.6,12.1,1.3,6936.3,569.1,26.2,0.00,0.00,0.00,0.00,0,0,0,0,0,0,0,0,0,0,0,0,0,0,0,0,0.0,0.21536825597286224,1.202162504196167,0.7124762535095215,6.056567206219163,2.097719183275052,4.22253321437533,0.0,0.0,0.0,0.0,0.0,3.0898817566602848,-2.0606520928042564,4.432055036927002,-1.2621283531188965e-05,-1.4424324035644531e-05,2.2846191227436066,3.7978230714797974,0
2025-12-05 17:53:30.392167,0.0,0.0,1016.4,84.2,12.1,1.3,6936.4,569.1,26.2,0.00,0.00,0.00,0.00,0,0,0,0,0,0,0,0,0,0,0,0,0,0,0,0,0.0,0.21536825597286224,1.202162504196167,0.7124762535095215,6.056567206219163,2.097719183275052,4.22253321437533,0.0,0.0,0.0,0.0,0.0,3.0898817566602848,-2.0606520928042564,4.432055036927002,-1.2621283531188965e-05,-1.4424324035644531e-05,2.2846191227436066,3.7978230714797974,0
2025-12-05 17:53:30.422856,0.0,0.0,1025.9,84.5,12.1,1.3,6936.5,569.1,26.2,0.00,0.00,0.00,0.00,0,0,0,0,0,0,0,0,0,0,0,0,0,0,0,0,0.0,0.21536825597286224,1.202162504196167,0.7124762535095215,6.056567206219163,2.097719183275052,4.22253321437533,0.0,0.0,0.0,0.0,0.0,3.0898817566602848,-2.0606520928042564,4.432055036927002,-1.2621283531188965e-05,-1.4424324035644531e-05,2.2846191227436066,3.7978230714797974,0
2025-12-05 17:53:30.453887,0.0,0.0,1036.0,85.9,12.1,1.3,6936.5,569.1,26.2,0.00,0.00,0.00,0.00,0,0,0,0,0,0,0,0,0,0,0,0,0,0,0,0,0.0,0.2151801437139511,1.202158808708191,0.7125657796859741,6.057495552712392,2.085989838533668,4.241278810805765,0.0,0.0,0.0,0.0,0.0,3.071100220862591,-2.0419064963738216,4.4321551743989955,-0.00020073354244232178,-1.811981201171875e-05,2.2846191227436066,3.7978230714797974,0
2025-12-05 17:53:30.485283,0.0,0.0,1025.8,85.0,12.1,1.3,6936.6,569.1,26.2,0.00,0.00,0.00,0.00,0,0,0,0,0,0,0,0,0,0,0,0,0,0,0,0,0.0,0.2151801437139511,1.202158808708191,0.7125657796859741,6.057495552712392,2.085989838533668,4.241278810805765,0.0,0.0,0.0,0.0,0.0,3.071100220862591,-2.0419064963738216,4.4321551743989955,-0.00020073354244232178,-1.811981201171875e-05,2.2846191227436066,3.7978230714797974,0
2025-12-05 17:53:30.516354,0.0,0.0,1037.7,86.0,12.1,1.3,6936.6,569.1,26.2,0.00,0.00,0.00,0.00,0,0,0,0,0,0,0,0,0,0,0,0,0,0,0,0,0.0,0.2151801437139511,1.202158808708191,0.7125657796859741,6.057495552712392,2.085989838533668,4.241278810805765,0.0,0.0,0.0,0.0,0.0,3.071100220862591,-2.0419064963738216,4.4321551743989955,-0.00020073354244232178,-1.811981201171875e-05,2.2846191227436066,3.7978230714797974,0
2025-12-05 17:53:30.547413,0.0,0.0,1026.1,85.0,12.1,1.3,6936.7,569.1,26.2,0.00,0.00,0.00,0.00,0,0,0,0,0,0,0,0,0,0,0,0,0,0,0,0,0.0,0.21518078446388245,1.202176570892334,0.7125586867332458,6.054797801273285,2.0844706823480768,4.243913355932461,0.0,0.0,0.0,0.0,0.0,3.068463733664047,-2.0392719512471253,4.43213962396969,-0.00020009279251098633,-3.5762786865234375e-07,2.2846191227436066,3.7978230714797974,0
2025-12-05 17:53:30.578769,0.0,0.0,1030.3,85.4,12.1,1.3,6936.8,569.2,26.2,0.00,0.00,0.00,0.00,0,0,0,0,0,0,0,0,0,0,0,0,0,0,0,0,0.0,0.21518078446388245,1.202176570892334,0.7125586867332458,6.054797801273285,2.0844706823480768,4.243913355932461,0.0,0.0,0.0,0.0,0.0,3.068463733664047,-2.0392719512471253,4.43213962396969,-0.00020009279251098633,-3.5762786865234375e-07,2.2846191227436066,3.7978230714797974,0
2025-12-05 17:53:30.610191,0.0,0.0,1015.3,84.2,12.1,1.3,6936.8,569.2,26.2,0.00,0.00,0.00,0.00,0,0,0,0,0,0,0,0,0,0,0,0,0,0,0,0,0.0,0.21518078446388245,1.202176570892334,0.7125586867332458,6.054797801273285,2.0844706823480768,4.243913355932461,0.0,0.0,0.0,0.0,0.0,3.068463733664047,-2.0392719512471253,4.43213962396969,-0.00020009279251098633,-3.5762786865234375e-07,2.2846191227436066,3.7978230714797974,0
2025-12-05 17:53:30.641683,0.0,0.0,1016.1,84.2,12.1,1.3,6936.9,569.2,26.2,0.00,0.00,0.00,0.00,0,0,0,0,0,0,0,0,0,0,0,0,0,0,0,0,0.0,0.2153354287147522,1.2021903991699219,0.7124401330947876,6.061002598630386,2.0954994890326626,4.234553754468221,0.0,0.0,0.0,0.0,0.0,3.077851625285092,-2.0486315527113654,4.432048055633324,-4.544854164123535e-05,1.3470649719238281e-05,2.2846191227436066,3.7978230714797974,0
2025-12-05 17:53:30.672553,0.0,0.0,1014.6,84.1,12.1,1.3,6936.9,569.2,26.2,0.00,0.00,0.00,0.00,0,0,0,0,0,0,0,0,0,0,0,0,0,0,0,0,0.0,0.2153354287147522,1.2021903991699219,0.7124401330947876,6.061002598630386,2.0954994890326626,4.234553754468221,0.0,0.0,0.0,0.0,0.0,3.077851625285092,-2.0486315527113654,4.432048055633324,-4.544854164123535e-05,1.3470649719238281e-05,2.2846191227436066,3.7978230714797974,0
2025-12-05 17:53:30.704021,0.0,0.0,1010.1,83.7,12.1,1.3,6937.0,569.2,26.2,0.00,0.00,0.00,0.00,0,0,0,0,0,0,0,0,0,0,0,0,0,0,0,0,0.0,0.2153354287147522,1.2021903991699219,0.7124401330947876,6.061002598630386,2.0954994890326626,4.234553754468221,0.0,0.0,0.0,0.0,0.0,3.077851625285092,-2.0486315527113654,4.432048055633324,-4.544854164123535e-05,1.3470649719238281e-05,2.2846191227436066,3.7978230714797974,0
2025-12-05 17:53:30.735258,0.0,0.0,1011.7,83.8,12.1,1.3,6937.1,569.2,26.2,0.00,0.00,0.00,0.00,0,0,0,0,0,0,0,0,0,0,0,0,0,0,0,0,0.0,0.2153354287147522,1.2021903991699219,0.7124401330947876,6.061002598630386,2.0954994890326626,4.234553754468221,0.0,0.0,0.0,0.0,0.0,3.077851625285092,-2.0486315527113654,4.432048055633324,-4.544854164123535e-05,1.3470649719238281e-05,2.2846191227436066,3.7978230714797974,0
2025-12-05 17:53:30.766679,0.0,0.0,1031.8,85.5,12.1,1.3,6937.1,569.2,26.2,0.00,0.00,0.00,0.00,0,0,0,0,0,0,0,0,0,0,0,0,0,0,0,0,0.0,0.21520301699638367,1.2021400928497314,0.7125927805900574,6.054541224790902,2.0900638553282715,4.2344578065082725,0.0,0.0,0.0,0.0,0.0,3.0779278241897323,-2.048727500671314,4.4321594204046715,-0.00017786026000976562,-3.6835670471191406e-05,2.2846191227436066,3.7978230714797974,0
2025-12-05 17:53:30.797965,0.0,0.0,1015.3,84.2,12.1,1.3,6937.2,569.2,26.2,0.00,0.00,0.00,0.00,0,0,0,0,0,0,0,0,0,0,0,0,0,0,0,0,0.0,0.21520301699638367,1.2021400928497314,0.7125927805900574,6.054541224790902,2.0900638553282715,4.2344578065082725,0.0,0.0,0.0,0.0,0.0,3.0779278241897323,-2.048727500671314,4.4321594204046715,-0.00017786026000976562,-3.6835670471191406e-05,2.2846191227436066,3.7978230714797974,0
2025-12-05 17:53:30.828870,0.0,0.0,1021.0,84.6,12.1,1.3,6937.2,569.2,26.2,0.00,0.00,0.00,0.00,0,0,0,0,0,0,0,0,0,0,0,0,0,0,0,0,0.0,0.21520301699638367,1.2021400928497314,0.7125927805900574,6.054541224790902,2.0900638553282715,4.2344578065082725,0.0,0.0,0.0,0.0,0.0,3.0779278241897323,-2.048727500671314,4.4321594204046715,-0.00017786026000976562,-3.6835670471191406e-05,2.2846191227436066,3.7978230714797974,0
2025-12-05 17:53:30.859974,0.0,0.0,1025.0,85.0,12.1,1.3,6937.3,569.2,26.2,0.00,0.00,0.00,0.00,0,0,0,0,0,0,0,0,0,0,0,0,0,0,0,0,0.0,0.21520301699638367,1.2021400928497314,0.7125927805900574,6.054541224790902,2.0900638553282715,4.2344578065082725,0.0,0.0,0.0,0.0,0.0,3.0779278241897323,-2.048727500671314,4.4321594204046715,-0.00017786026000976562,-3.6835670471191406e-05,2.2846191227436066,3.7978230714797974,0
2025-12-05 17:53:30.891287,0.0,0.0,1026.1,85.0,12.1,1.3,6937.4,569.2,26.2,0.00,0.00,0.00,0.00,0,0,0,0,0,0,0,0,0,0,0,0,0,0,0,0,0.0,0.21520301699638367,1.2021400928497314,0.7125927805900574,6.054541224790902,2.0900638553282715,4.2344578065082725,0.0,0.0,0.0,0.0,0.0,3.0779278241897323,-2.048727500671314,4.4321594204046715,-0.00017786026000976562,-3.6835670471191406e-05,2.2846191227436066,3.7978230714797974,0
2025-12-05 17:53:30.922234,0.0,0.0,1026.5,85.1,12.1,1.3,6937.4,569.2,26.2,0.00,0.00,0.00,0.00,0,0,0,0,0,0,0,0,0,0,0,0,0,0,0,0,0.0,0.21520301699638367,1.2021400928497314,0.7125927805900574,6.054541224790902,2.0900638553282715,4.2344578065082725,0.0,0.0,0.0,0.0,0.0,3.0779278241897323,-2.048727500671314,4.4321594204046715,-0.00017786026000976562,-3.6835670471191406e-05,2.2846191227436066,3.7978230714797974,0
2025-12-05 17:53:30.952831,0.0,0.0,1025.3,85.0,12.1,1.3,6937.5,569.2,26.2,0.00,0.00,0.00,0.00,0,0,0,0,0,0,0,0,0,0,0,0,0,0,0,0,0.0,0.21520301699638367,1.2021400928497314,0.7125927805900574,6.054541224790902,2.0900638553282715,4.2344578065082725,0.0,0.0,0.0,0.0,0.0,3.0779278241897323,-2.048727500671314,4.4321594204046715,-0.00017786026000976562,-3.6835670471191406e-05,2.2846191227436066,3.7978230714797974,0
2025-12-05 17:53:30.984366,0.0,0.0,1028.7,85.3,12.1,1.3,6937.5,569.2,26.2,0.00,0.00,0.00,0.00,0,0,0,0,0,0,0,0,0,0,0,0,0,0,0,0,0.0,0.2151537537574768,1.2021414041519165,0.71257084608078,6.057455446821402,2.0914129068117737,4.2431706907430975,0.0,0.0,0.0,0.0,0.0,3.0692052632322975,-2.040014616436489,4.432183692382991,-0.00022712349891662598,-3.552436828613281e-05,2.2846191227436066,3.7978230714797974,0
2025-12-05 17:53:31.015780,0.0,0.0,1024.0,84.9,12.1,1.3,6937.6,569.2,26.2,0.00,0.00,0.00,0.00,0,0,0,0,0,0,0,0,0,0,0,0,0,0,0,0,0.0,0.2151537537574768,1.2021414041519165,0.71257084608078,6.057455446821402,2.0914129068117737,4.2431706907430975,0.0,0.0,0.0,0.0,0.0,3.0692052632322975,-2.040014616436489,4.432183692382991,-0.00022712349891662598,-3.552436828613281e-05,2.2846191227436066,3.7978230714797974,0
2025-12-05 17:53:31.046562,0.0,0.0,1030.9,85.4,12.1,1.3,6937.7,569.2,26.2,0.00,0.00,0.00,0.00,0,0,0,0,0,0,0,0,0,0,0,0,0,0,0,0,0.0,0.2151537537574768,1.2021414041519165,0.71257084608078,6.057455446821402,2.0914129068117737,4.2431706907430975,0.0,0.0,0.0,0.0,0.0,3.0692052632322975,-2.040014616436489,4.432183692382991,-0.00022712349891662598,-3.552436828613281e-05,2.2846191227436066,3.7978230714797974,0
2025-12-05 17:53:31.077364,0.0,0.0,1028.9,85.3,12.1,1.3,6937.7,569.2,26.2,0.00,0.00,0.00,0.00,0,0,0,0,0,0,0,0,0,0,0,0,0,0,0,0,0.0,0.21518173813819885,1.2021690607070923,0.712581217288971,6.068251022549769,2.0838748488218504,4.243624178892203,0.0,0.0,0.0,0.0,0.0,3.068753968605991,-2.039561128287384,4.432145567689269,-0.00019913911819458008,-7.867813110351562e-06,2.2846191227436066,3.7978230714797974,0
2025-12-05 17:53:31.108099,0.0,0.0,1020.0,84.5,12.1,1.3,6937.8,569.2,26.2,0.00,0.00,0.00,0.00,0,0,0,0,0,0,0,0,0,0,0,0,0,0,0,0,0.0,0.21518173813819885,1.2021690607070923,0.712581217288971,6.068251022549769,2.0838748488218504,4.243624178892203,0.0,0.0,0.0,0.0,0.0,3.068753968605991,-2.039561128287384,4.432145567689269,-0.00019913911819458008,-7.867813110351562e-06,2.2846191227436066,3.7978230714797974,0
2025-12-05 17:53:31.139240,0.0,0.0,1029.2,84.9,12.1,1.3,6937.8,569.2,26.2,0.00,0.00,0.00,0.00,0,0,0,0,0,0,0,0,0,0,0,0,0,0,0,0,0.0,0.21518173813819885,1.2021690607070923,0.712581217288971,6.068251022549769,2.0838748488218504,4.243624178892203,0.0,0.0,0.0,0.0,0.0,3.068753968605991,-2.039561128287384,4.432145567689269,-0.00019913911819458008,-7.867813110351562e-06,2.2846191227436066,3.7978230714797974,0
2025-12-05 17:53:31.170294,0.0,0.0,1020.6,84.6,12.1,1.3,6937.9,569.2,26.2,0.00,0.00,0.00,0.00,0,0,0,0,0,0,0,0,0,0,0,0,0,0,0,0,0.0,0.21520674228668213,1.2021406888961792,0.7125905752182007,6.057926490182336,2.093365577759117,4.2335017414681015,0.0,0.0,0.0,0.0,0.0,3.0788845401293323,-2.049683565711485,4.43215698925819,-0.0001741349697113037,-3.62396240234375e-05,2.2846191227436066,3.7978230714797974,0
2025-12-05 17:53:31.201459,0.0,0.0,1022.9,84.8,12.1,1.3,6938.0,569.3,26.2,0.00,0.00,0.00,0.00,0,0,0,0,0,0,0,0,0,0,0,0,0,0,0,0,0.0,0.21520674228668213,1.2021406888961792,0.7125905752182007,6.057926490182336,2.093365577759117,4.2335017414681015,0.0,0.0,0.0,0.0,0.0,3.0788845401293323,-2.049683565711485,4.43215698925819,-0.0001741349697113037,-3.62396240234375e-05,2.2846191227436066,3.7978230714797974,0
2025-12-05 17:53:31.232443,0.0,0.0,1031.4,85.5,12.1,1.3,6938.0,569.3,26.2,0.00,0.00,0.00,0.00,0,0,0,0,0,0,0,0,0,0,0,0,0,0,0,0,0.0,0.21520674228668213,1.2021406888961792,0.7125905752182007,6.057926490182336,2.093365577759117,4.2335017414681015,0.0,0.0,0.0,0.0,0.0,3.0788845401293323,-2.049683565711485,4.43215698925819,-0.0001741349697113037,-3.62396240234375e-05,2.2846191227436066,3.7978230714797974,0
2025-12-05 17:53:31.263845,0.0,0.0,1018.5,84.4,12.1,1.3,6938.1,569.3,26.2,0.00,0.00,0.00,0.00,0,0,0,0,0,0,0,0,0,0,0,0,0,0,0,0,0.0,0.21520674228668213,1.2021406888961792,0.7125905752182007,6.057926490182336,2.093365577759117,4.2335017414681015,0.0,0.0,0.0,0.0,0.0,3.0788845401293323,-2.049683565711485,4.43215698925819,-0.0001741349697113037,-3.62396240234375e-05,2.2846191227436066,3.7978230714797974,0
2025-12-05 17:53:31.295199,0.0,0.0,1021.7,84.7,12.1,1.3,6938.2,569.3,26.2,0.00,0.00,0.00,0.00,0,0,0,0,0,0,0,0,0,0,0,0,0,0,0,0,0.0,0.2153702676296234,1.2021833658218384,0.7124877572059631,6.073167048899519,2.091903956741492,4.227242495586436,0.0,0.0,0.0,0.0,0.0,3.085170438024668,-2.05594281159315,4.432036123597266,-1.0609626770019531e-05,6.4373016357421875e-06,2.2846191227436066,3.7978230714797974,0
2025-12-05 17:53:31.326618,0.0,0.0,1021.2,84.6,12.1,1.3,6938.2,569.3,26.2,0.00,0.00,0.00,0.00,0,0,0,0,0,0,0,0,0,0,0,0,0,0,0,0,0.0,0.2153702676296234,1.2021833658218384,0.7124877572059631,6.073167048899519,2.091903956741492,4.227242495586436,0.0,0.0,0.0,0.0,0.0,3.085170438024668,-2.05594281159315,4.432036123597266,-1.0609626770019531e-05,6.4373016357421875e-06,2.2846191227436066,3.7978230714797974,0
2025-12-05 17:53:31.358023,0.0,0.0,1020.3,84.6,12.1,1.3,6938.3,569.3,26.2,0.00,0.00,0.00,0.00,0,0,0,0,0,0,0,0,0,0,0,0,0,0,0,0,0.0,0.2153702676296234,1.2021833658218384,0.7124877572059631,6.073167048899519,2.091903956741492,4.227242495586436,0.0,0.0,0.0,0.0,0.0,3.085170438024668,-2.05594281159315,4.432036123597266,-1.0609626770019531e-05,6.4373016357421875e-06,2.2846191227436066,3.7978230714797974,0
2025-12-05 17:53:31.388956,0.0,0.0,1021.9,84.7,12.1,1.3,6938.3,569.3,26.2,0.00,0.00,0.00,0.00,0,0,0,0,0,0,0,0,0,0,0,0,0,0,0,0,0.0,0.21538078784942627,1.202158808708191,0.7124936580657959,6.069828966834533,2.0946928475629925,4.221979298025429,0.0,0.0,0.0,0.0,0.0,3.0904385257609066,-2.0612060091541573,4.4320517436961735,-8.940696716308594e-08,-1.811981201171875e-05,2.2846191227436066,3.7978230714797974,0
2025-12-05 17:53:31.420091,0.0,0.0,1027.6,85.2,12.1,1.3,6938.4,569.3,26.2,0.00,0.00,0.00,0.00,0,0,0,0,0,0,0,0,0,0,0,0,0,0,0,0,0.0,0.21538078784942627,1.202158808708191,0.7124936580657959,6.069828966834533,2.0946928475629925,4.221979298025429,0.0,0.0,0.0,0.0,0.0,3.0904385257609066,-2.0612060091541573,4.4320517436961735,-8.940696716308594e-08,-1.811981201171875e-05,2.2846191227436066,3.7978230714797974,0
2025-12-05 17:53:31.451330,0.0,0.0,1022.2,84.7,12.1,1.3,6938.5,569.3,26.2,0.00,0.00,0.00,0.00,0,0,0,0,0,0,0,0,0,0,0,0,0,0,0,0,0.0,0.21538078784942627,1.202158808708191,0.7124936580657959,6.069828966834533,2.0946928475629925,4.221979298025429,0.0,0.0,0.0,0.0,0.0,3.0904385257609066,-2.0612060091541573,4.4320517436961735,-8.940696716308594e-08,-1.811981201171875e-05,2.2846191227436066,3.7978230714797974,0
2025-12-05 17:53:31.482026,0.0,0.0,1019.2,84.5,12.1,1.3,6938.5,569.3,26.2,0.00,0.00,0.00,0.00,0,0,0,0,0,0,0,0,0,0,0,0,0,0,0,0,0.0,0.21518290042877197,1.2021708488464355,0.7125775218009949,6.064497020668675,2.084879915073093,4.244100010285335,0.0,0.0,0.0,0.0,0.0,3.0682781539411863,-2.039085296894252,4.432143436289588,-0.00019797682762145996,-6.079673767089844e-06,2.2846191227436066,3.7978230714797974,0
2025-12-05 17:53:31.513302,0.0,0.0,1028.9,85.3,12.1,1.3,6938.6,569.3,26.2,0.00,0.00,0.00,0.00,0,0,0,0,0,0,0,0,0,0,0,0,0,0,0,0,0.0,0.21518290042877197,1.2021708488464355,0.7125775218009949,6.064497020668675,2.084879915073093,4.244100010285335,0.0,0.0,0.0,0.0,0.0,3.0682781539411863,-2.039085296894252,4.432143436289588,-0.00019797682762145996,-6.079673767089844e-06,2.2846191227436066,3.7978230714797974,0
2025-12-05 17:53:31.544172,0.0,0.0,1026.3,84.9,12.1,1.3,6938.6,569.3,26.2,0.00,0.00,0.00,0.00,0,0,0,0,0,0,0,0,0,0,0,0,0,0,0,0,0.0,0.21518290042877197,1.2021708488464355,0.7125775218009949,6.064497020668675,2.084879915073093,4.244100010285335,0.0,0.0,0.0,0.0,0.0,3.0682781539411863,-2.039085296894252,4.432143436289588,-0.00019797682762145996,-6.079673767089844e-06,2.2846191227436066,3.7978230714797974,0
2025-12-05 17:53:31.575445,0.0,0.0,1031.2,85.5,12.1,1.3,6938.7,569.3,26.2,0.00,0.00,0.00,0.00,0,0,0,0,0,0,0,0,0,0,0,0,0,0,0,0,0.0,0.21518290042877197,1.2021708488464355,0.7125775218009949,6.064497020668675,2.084879915073093,4.244100010285335,0.0,0.0,0.0,0.0,0.0,3.0682781539411863,-2.039085296894252,4.432143436289588,-0.00019797682762145996,-6.079673767089844e-06,2.2846191227436066,3.7978230714797974,0
2025-12-05 17:53:31.606048,0.0,0.0,1027.1,84.8,12.1,1.3,6938.8,569.3,26.2,0.00,0.00,0.00,0.00,0,0,0,0,0,0,0,0,0,0,0,0,0,0,0,0,0.0,0.21537798643112183,1.2021548748016357,0.7124921083450317,6.058732178036354,2.0996165158041995,4.2189973316851574,0.0,0.0,0.0,0.0,0.0,3.0934204080073737,-2.064187975494429,4.432056558740705,-2.8908252716064453e-06,-2.205371856689453e-05,2.2846191227436066,3.7978230714797974,0
2025-12-05 17:53:31.636669,0.0,0.0,1032.2,85.6,12.1,1.3,6938.8,569.3,26.2,0.00,0.00,0.00,0.00,0,0,0,0,0,0,0,0,0,0,0,0,0,0,0,0,0.0,0.21537798643112183,1.2021548748016357,0.7124921083450317,6.058732178036354,2.0996165158041995,4.2189973316851574,0.0,0.0,0.0,0.0,0.0,3.0934204080073737,-2.064187975494429,4.432056558740705,-2.8908252716064453e-06,-2.205371856689453e-05,2.2846191227436066,3.7978230714797974,0
2025-12-05 17:53:31.667689,0.0,0.0,1031.9,85.5,12.1,1.3,6938.9,569.3,26.2,0.00,0.00,0.00,0.00,0,0,0,0,0,0,0,0,0,0,0,0,0,0,0,0,0.0,0.21537798643112183,1.2021548748016357,0.7124921083450317,6.058732178036354,2.0996165158041995,4.2189973316851574,0.0,0.0,0.0,0.0,0.0,3.0934204080073737,-2.064187975494429,4.432056558740705,-2.8908252716064453e-06,-2.205371856689453e-05,2.2846191227436066,3.7978230714797974,0
2025-12-05 17:53:31.699241,0.0,0.0,1032.6,85.6,12.1,1.3,6938.9,569.3,26.2,0.00,0.00,0.00,0.00,0,0,0,0,0,0,0,0,0,0,0,0,0,0,0,0,0.0,0.21539172530174255,1.2021535634994507,0.7124952673912048,6.069158536704295,2.094204946222327,4.221779638880845,0.0,0.0,0.0,0.0,0.0,3.0906409096318654,-2.061405668298742,4.432050600349648,1.0848045349121094e-05,-2.3365020751953125e-05,2.2846191227436066,3.7978230714797974,0
2025-12-05 17:53:31.730695,0.0,0.0,1033.7,85.7,12.1,1.3,6939.0,569.3,26.2,0.00,0.00,0.00,0.00,0,0,0,0,0,0,0,0,0,0,0,0,0,0,0,0,0.0,0.21539172530174255,1.2021535634994507,0.7124952673912048,6.069158536704295,2.094204946222327,4.221779638880845,0.0,0.0,0.0,0.0,0.0,3.0906409096318654,-2.061405668298742,4.432050600349648,1.0848045349121094e-05,-2.3365020751953125e-05,2.2846191227436066,3.7978230714797974,0
2025-12-05 17:53:31.762210,0.0,0.0,1014.5,84.1,12.1,1.3,6939.1,569.3,26.2,0.00,0.00,0.00,0.00,0,0,0,0,0,0,0,0,0,0,0,0,0,0,0,0,0.0,0.21539172530174255,1.2021535634994507,0.7124952673912048,6.069158536704295,2.094204946222327,4.221779638880845,0.0,0.0,0.0,0.0,0.0,3.0906409096318654,-2.061405668298742,4.432050600349648,1.0848045349121094e-05,-2.3365020751953125e-05,2.2846191227436066,3.7978230714797974,0
2025-12-05 17:53:31.793663,0.0,0.0,1019.6,84.5,12.1,1.3,6939.1,569.3,26.2,0.00,0.00,0.00,0.00,0,0,0,0,0,0,0,0,0,0,0,0,0,0,0,0,0.0,0.2153724879026413,1.202169418334961,0.7124732732772827,6.0644306043522755,2.0928505392462915,4.222762046957966,0.0,0.0,0.0,0.0,0.0,3.089652938124361,-2.060423260221621,4.43204693071524,-8.38935375213623e-06,-7.510185241699219e-06,2.2846191227436066,3.7978230714797974,0
2025-12-05 17:53:31.824690,0.0,0.0,1017.0,84.3,12.1,1.3,6939.2,569.4,26.2,0.00,0.00,0.00,0.00,0,0,0,0,0,0,0,0,0,0,0,0,0,0,0,0,0.0,0.2153724879026413,1.202169418334961,0.7124732732772827,6.0644306043522755,2.0928505392462915,4.222762046957966,0.0,0.0,0.0,0.0,0.0,3.089652938124361,-2.060423260221621,4.43204693071524,-8.38935375213623e-06,-7.510185241699219e-06,2.2846191227436066,3.7978230714797974,0
2025-12-05 17:53:31.855959,0.0,0.0,1028.2,85.2,12.1,1.3,6939.2,569.4,26.2,0.00,0.00,0.00,0.00,0,0,0,0,0,0,0,0,0,0,0,0,0,0,0,0,0.0,0.2153724879026413,1.202169418334961,0.7124732732772827,6.0644306043522755,2.0928505392462915,4.222762046957966,0.0,0.0,0.0,0.0,0.0,3.089652938124361,-2.060423260221621,4.43204693071524,-8.38935375213623e-06,-7.510185241699219e-06,2.2846191227436066,3.7978230714797974,0
2025-12-05 17:53:31.886573,0.0,0.0,1024.6,84.9,12.1,1.3,6939.3,569.4,26.2,0.00,0.00,0.00,0.00,0,0,0,0,0,0,0,0,0,0,0,0,0,0,0,0,0.0,0.2153724879026413,1.202169418334961,0.7124732732772827,6.0644306043522755,2.0928505392462915,4.222762046957966,0.0,0.0,0.0,0.0,0.0,3.089652938124361,-2.060423260221621,4.43204693071524,-8.38935375213623e-06,-7.510185241699219e-06,2.2846191227436066,3.7978230714797974,0
2025-12-05 17:53:31.917484,0.0,0.0,1023.6,84.8,12.1,1.3,6939.4,569.4,26.2,0.00,0.00,0.00,0.00,0,0,0,0,0,0,0,0,0,0,0,0,0,0,0,0,0.0,0.21537254750728607,1.202197790145874,0.7124649286270142,6.070742275257178,2.088148325823589,4.230387105244942,0.0,0.0,0.0,0.0,0.0,3.0820245914967703,-2.0527982019346447,4.432022588148241,-8.32974910736084e-06,2.086162567138672e-05,2.2846191227436066,3.7978230714797974,0
2025-12-05 17:53:31.948762,0.0,0.0,1020.6,84.6,12.1,1.3,6939.4,569.4,26.2,0.00,0.00,0.00,0.00,0,0,0,0,0,0,0,0,0,0,0,0,0,0,0,0,0.0,0.21537254750728607,1.202197790145874,0.7124649286270142,6.070742275257178,2.088148325823589,4.230387105244942,0.0,0.0,0.0,0.0,0.0,3.0820245914967703,-2.0527982019346447,4.432022588148241,-8.32974910736084e-06,2.086162567138672e-05,2.2846191227436066,3.7978230714797974,0
2025-12-05 17:53:31.980228,0.0,0.0,1020.3,84.6,12.1,1.3,6939.5,569.4,26.2,0.00,0.00,0.00,0.00,0,0,0,0,0,0,0,0,0,0,0,0,0,0,0,0,0.0,0.21537254750728607,1.202197790145874,0.7124649286270142,6.070742275257178,2.088148325823589,4.230387105244942,0.0,0.0,0.0,0.0,0.0,3.0820245914967703,-2.0527982019346447,4.432022588148241,-8.32974910736084e-06,2.086162567138672e-05,2.2846191227436066,3.7978230714797974,0
2025-12-05 17:53:32.011542,0.0,0.0,1023.5,84.8,12.1,1.3,6939.5,569.4,26.2,0.00,0.00,0.00,0.00,0,0,0,0,0,0,0,0,0,0,0,0,0,0,0,0,0.0,0.21517321467399597,1.2021845579147339,0.7125642895698547,6.06939041266354,2.07866675805293,4.251767570076593,0.0,0.0,0.0,0.0,0.0,3.060607127034177,-2.0314177371029936,4.432136682355867,-0.00020766258239746094,7.62939453125e-06,2.2846191227436066,3.7978230714797974,0
2025-12-05 17:53:32.042483,0.0,0.0,1037.8,86.0,12.1,1.3,6939.6,569.4,26.2,0.00,0.00,0.00,0.00,0,0,0,0,0,0,0,0,0,0,0,0,0,0,0,0,0.0,0.21517321467399597,1.2021845579147339,0.7125642895698547,6.06939041266354,2.07866675805293,4.251767570076593,0.0,0.0,0.0,0.0,0.0,3.060607127034177,-2.0314177371029936,4.432136682355867,-0.00020766258239746094,7.62939453125e-06,2.2846191227436066,3.7978230714797974,0
2025-12-05 17:53:32.073987,0.0,0.0,1015.9,84.2,12.1,1.3,6939.7,569.4,26.2,0.00,0.00,0.00,0.00,0,0,0,0,0,0,0,0,0,0,0,0,0,0,0,0,0.0,0.21517321467399597,1.2021845579147339,0.7125642895698547,6.06939041266354,2.07866675805293,4.251767570076593,0.0,0.0,0.0,0.0,0.0,3.060607127034177,-2.0314177371029936,4.432136682355867,-0.00020766258239746094,7.62939453125e-06,2.2846191227436066,3.7978230714797974,0
2025-12-05 17:53:32.105321,0.0,0.0,1022.9,84.8,12.1,1.3,6939.7,569.4,26.2,0.00,0.00,0.00,0.00,0,0,0,0,0,0,0,0,0,0,0,0,0,0,0,0,0.0,0.21517585217952728,1.2021795511245728,0.7125621438026428,6.062704238278825,2.0802897833903207,4.249913787914435,0.0,0.0,0.0,0.0,0.0,3.0624620014674058,-2.0332715192651514,4.432139612913824,-0.0002050250768661499,2.6226043701171875e-06,2.2846191227436066,3.7978230714797974,0
2025-12-05 17:53:32.135969,0.0,0.0,1027.9,85.2,12.1,1.3,6939.8,569.4,26.2,0.00,0.00,0.00,0.00,0,0,0,0,0,0,0,0,0,0,0,0,0,0,0,0,0.0,0.21517585217952728,1.2021795511245728,0.7125621438026428,6.062704238278825,2.0802897833903207,4.249913787914435,0.0,0.0,0.0,0.0,0.0,3.0624620014674058,-2.0332715192651514,4.432139612913824,-0.0002050250768661499,2.6226043701171875e-06,2.2846191227436066,3.7978230714797974,0
2025-12-05 17:53:32.167263,0.0,0.0,1021.5,84.7,12.1,1.3,6939.8,569.4,26.2,0.00,0.00,0.00,0.00,0,0,0,0,0,0,0,0,0,0,0,0,0,0,0,0,0.0,0.21517585217952728,1.2021795511245728,0.7125621438026428,6.062704238278825,2.0802897833903207,4.249913787914435,0.0,0.0,0.0,0.0,0.0,3.0624620014674058,-2.0332715192651514,4.432139612913824,-0.0002050250768661499,2.6226043701171875e-06,2.2846191227436066,3.7978230714797974,0
2025-12-05 17:53:32.198703,0.0,0.0,1030.4,85.4,12.1,1.3,6939.9,569.4,26.2,0.00,0.00,0.00,0.00,0,0,0,0,0,0,0,0,0,0,0,0,0,0,0,0,0.0,0.21517585217952728,1.2021795511245728,0.7125621438026428,6.062704238278825,2.0802897833903207,4.249913787914435,0.0,0.0,0.0,0.0,0.0,3.0624620014674058,-2.0332715192651514,4.432139612913824,-0.0002050250768661499,2.6226043701171875e-06,2.2846191227436066,3.7978230714797974,0
2025-12-05 17:53:32.230000,0.0,0.0,1022.2,84.7,12.1,1.3,6940.0,569.4,26.2,0.00,0.00,0.00,0.00,0,0,0,0,0,0,0,0,0,0,0,0,0,0,0,0,0.0,0.21520961821079254,1.2021468877792358,0.7125831842422485,6.064941482820467,2.0862180848411236,4.237719513411276,0.0,0.0,0.0,0.0,0.0,3.0746666032088896,-2.0454657937683103,4.432150194964225,-0.0001712590456008911,-3.0040740966796875e-05,2.2846191227436066,3.7978230714797974,0
2025-12-05 17:53:32.261634,0.0,0.0,1026.3,85.0,12.1,1.3,6940.0,569.4,26.2,0.00,0.00,0.00,0.00,0,0,0,0,0,0,0,0,0,0,0,0,0,0,0,0,0.0,0.21520961821079254,1.2021468877792358,0.7125831842422485,6.064941482820467,2.0862180848411236,4.237719513411276,0.0,0.0,0.0,0.0,0.0,3.0746666032088896,-2.0454657937683103,4.432150194964225,-0.0001712590456008911,-3.0040740966796875e-05,2.2846191227436066,3.7978230714797974,0
2025-12-05 17:53:32.292416,0.0,0.0,1027.3,85.1,12.1,1.3,6940.1,569.4,26.2,0.00,0.00,0.00,0.00,0,0,0,0,0,0,0,0,0,0,0,0,0,0,0,0,0.0,0.21520961821079254,1.2021468877792358,0.7125831842422485,6.064941482820467,2.0862180848411236,4.237719513411276,0.0,0.0,0.0,0.0,0.0,3.0746666032088896,-2.0454657937683103,4.432150194964225,-0.0001712590456008911,-3.0040740966796875e-05,2.2846191227436066,3.7978230714797974,0
2025-12-05 17:53:32.323630,0.0,0.0,1022.1,85.2,12.1,1.3,6940.2,569.4,26.2,0.00,0.00,0.00,0.00,0,0,0,0,0,0,0,0,0,0,0,0,0,0,0,0,0.0,0.215205579996109,1.2021576166152954,0.7125758528709412,6.057687066035227,2.085102506363941,4.2377019167981,0.0,0.0,0.0,0.0,0.0,3.0746821712208563,-2.0454833903814866,4.432143083285346,-0.00017529726028442383,-1.9311904907226562e-05,2.2846191227436066,3.7978230714797974,0
2025-12-05 17:53:32.354711,0.0,0.0,1025.7,85.0,12.1,1.3,6940.2,569.4,26.2,0.00,0.00,0.00,0.00,0,0,0,0,0,0,0,0,0,0,0,0,0,0,0,0,0.0,0.215205579996109,1.2021576166152954,0.7125758528709412,6.057687066035227,2.085102506363941,4.2377019167981,0.0,0.0,0.0,0.0,0.0,3.0746821712208563,-2.0454833903814866,4.432143083285346,-0.00017529726028442383,-1.9311904907226562e-05,2.2846191227436066,3.7978230714797974,0
2025-12-05 17:53:32.386285,0.0,0.0,1027.7,84.9,12.1,1.3,6940.3,569.4,26.2,0.00,0.00,0.00,0.00,0,0,0,0,0,0,0,0,0,0,0,0,0,0,0,0,0.0,0.215205579996109,1.2021576166152954,0.7125758528709412,6.057687066035227,2.085102506363941,4.2377019167981,0.0,0.0,0.0,0.0,0.0,3.0746821712208563,-2.0454833903814866,4.432143083285346,-0.00017529726028442383,-1.9311904907226562e-05,2.2846191227436066,3.7978230714797974,0
2025-12-05 17:53:32.417558,0.0,0.0,1025.0,85.0,12.1,1.3,6940.3,569.4,26.2,0.00,0.00,0.00,0.00,0,0,0,0,0,0,0,0,0,0,0,0,0,0,0,0,0.0,0.21519498527050018,1.2021639347076416,0.7125786542892456,6.062936496599438,2.0850000708674434,4.2397072723690865,0.0,0.0,0.0,0.0,0.0,3.0726740324621677,-2.0434780348105,4.432143131056173,-0.0001858919858932495,-1.2993812561035156e-05,2.2846191227436066,3.7978230714797974,0
2025-12-05 17:53:32.448522,0.0,0.0,1035.6,85.5,12.1,1.3,6940.4,569.5,26.2,0.00,0.00,0.00,0.00,0,0,0,0,0,0,0,0,0,0,0,0,0,0,0,0,0.0,0.21519498527050018,1.2021639347076416,0.7125786542892456,6.062936496599438,2.0850000708674434,4.2397072723690865,0.0,0.0,0.0,0.0,0.0,3.0726740324621677,-2.0434780348105,4.432143131056173,-0.0001858919858932495,-1.2993812561035156e-05,2.2846191227436066,3.7978230714797974,0
2025-12-05 17:53:32.479660,0.0,0.0,1033.3,85.7,12.1,1.3,6940.5,569.5,26.2,0.00,0.00,0.00,0.00,0,0,0,0,0,0,0,0,0,0,0,0,0,0,0,0,0.0,0.21519498527050018,1.2021639347076416,0.7125786542892456,6.062936496599438,2.0850000708674434,4.2397072723690865,0.0,0.0,0.0,0.0,0.0,3.0726740324621677,-2.0434780348105,4.432143131056173,-0.0001858919858932495,-1.2993812561035156e-05,2.2846191227436066,3.7978230714797974,0
2025-12-05 17:53:32.511110,0.0,0.0,1030.9,85.4,12.1,1.3,6940.5,569.5,26.2,0.00,0.00,0.00,0.00,0,0,0,0,0,0,0,0,0,0,0,0,0,0,0,0,0.0,0.21519498527050018,1.2021639347076416,0.7125786542892456,6.062936496599438,2.0850000708674434,4.2397072723690865,0.0,0.0,0.0,0.0,0.0,3.0726740324621677,-2.0434780348105,4.432143131056173,-0.0001858919858932495,-1.2993812561035156e-05,2.2846191227436066,3.7978230714797974,0
2025-12-05 17:53:32.541826,0.0,0.0,1029.6,85.4,12.1,1.3,6940.6,569.5,26.2,0.00,0.00,0.00,0.00,0,0,0,0,0,0,0,0,0,0,0,0,0,0,0,0,0.0,0.2152092307806015,1.2021270990371704,0.7125965356826782,6.055689871734525,2.0937268295532845,4.232597221330023,0.0,0.0,0.0,0.0,0.0,3.079791122008463,-2.0505880858495638,4.432167351418264,-0.00017164647579193115,-4.982948303222656e-05,2.2846191227436066,3.7978230714797974,0
2025-12-05 17:53:32.573171,0.0,0.0,1014.3,84.1,12.1,1.3,6940.6,569.5,26.2,0.00,0.00,0.00,0.00,0,0,0,0,0,0,0,0,0,0,0,0,0,0,0,0,0.0,0.2152092307806015,1.2021270990371704,0.7125965356826782,6.055689871734525,2.0937268295532845,4.232597221330023,0.0,0.0,0.0,0.0,0.0,3.079791122008463,-2.0505880858495638,4.432167351418264,-0.00017164647579193115,-4.982948303222656e-05,2.2846191227436066,3.7978230714797974,0
2025-12-05 17:53:32.604553,0.0,0.0,1010.6,83.8,12.1,1.3,6940.7,569.5,26.2,0.00,0.00,0.00,0.00,0,0,0,0,0,0,0,0,0,0,0,0,0,0,0,0,0.0,0.2152092307806015,1.2021270990371704,0.7125965356826782,6.055689871734525,2.0937268295532845,4.232597221330023,0.0,0.0,0.0,0.0,0.0,3.079791122008463,-2.0505880858495638,4.432167351418264,-0.00017164647579193115,-4.982948303222656e-05,2.2846191227436066,3.7978230714797974,0
2025-12-05 17:53:32.635935,0.0,0.0,1014.8,84.1,12.1,1.3,6940.8,569.5,26.2,0.00,0.00,0.00,0.00,0,0,0,0,0,0,0,0,0,0,0,0,0,0,0,0,0.0,0.2153620570898056,1.2021782398223877,0.7124777436256409,6.0642001653664375,2.0950459650950903,4.227061638646672,0.0,0.0,0.0,0.0,0.0,3.085350303714044,-2.0561236685329143,4.432044748450031,-1.882016658782959e-05,1.3113021850585938e-06,2.2846191227436066,3.7978230714797974,0
2025-12-05 17:53:32.667349,0.0,0.0,1021.1,84.6,12.1,1.3,6940.8,569.5,26.2,0.00,0.00,0.00,0.00,0,0,0,0,0,0,0,0,0,0,0,0,0,0,0,0,0.0,0.2153620570898056,1.2021782398223877,0.7124777436256409,6.0642001653664375,2.0950459650950903,4.227061638646672,0.0,0.0,0.0,0.0,0.0,3.085350303714044,-2.0561236685329143,4.432044748450031,-1.882016658782959e-05,1.3113021850585938e-06,2.2846191227436066,3.7978230714797974,0
2025-12-05 17:53:32.698002,0.0,0.0,1027.0,85.1,12.1,1.3,6940.9,569.5,26.2,0.00,0.00,0.00,0.00,0,0,0,0,0,0,0,0,0,0,0,0,0,0,0,0,0.0,0.2153620570898056,1.2021782398223877,0.7124777436256409,6.0642001653664375,2.0950459650950903,4.227061638646672,0.0,0.0,0.0,0.0,0.0,3.085350303714044,-2.0561236685329143,4.432044748450031,-1.882016658782959e-05,1.3113021850585938e-06,2.2846191227436066,3.7978230714797974,0
2025-12-05 17:53:32.728533,0.0,0.0,1024.2,84.9,12.1,1.3,6940.9,569.5,26.2,0.00,0.00,0.00,0.00,0,0,0,0,0,0,0,0,0,0,0,0,0,0,0,0,0.0,0.21514442563056946,1.202155351638794,0.7125593423843384,6.060235002053894,2.0876120565249066,4.249779525378939,0.0,0.0,0.0,0.0,0.0,3.0625930029186814,-2.033405781800648,4.432176549824354,-0.0002364516258239746,-2.1576881408691406e-05,2.2846191227436066,3.7978230714797974,0
2025-12-05 17:53:32.760151,0.0,0.0,1022.4,84.7,12.1,1.3,6941.0,569.5,26.2,0.00,0.00,0.00,0.00,0,0,0,0,0,0,0,0,0,0,0,0,0,0,0,0,0.0,0.21514442563056946,1.202155351638794,0.7125593423843384,6.060235002053894,2.0876120565249066,4.249779525378939,0.0,0.0,0.0,0.0,0.0,3.0625930029186814,-2.033405781800648,4.432176549824354,-0.0002364516258239746,-2.1576881408691406e-05,2.2846191227436066,3.7978230714797974,0
2025-12-05 17:53:32.791546,0.0,0.0,1023.9,84.9,12.1,1.3,6941.1,569.5,26.2,0.00,0.00,0.00,0.00,0,0,0,0,0,0,0,0,0,0,0,0,0,0,0,0,0.0,0.21514442563056946,1.202155351638794,0.7125593423843384,6.060235002053894,2.0876120565249066,4.249779525378939,0.0,0.0,0.0,0.0,0.0,3.0625930029186814,-2.033405781800648,4.432176549824354,-0.0002364516258239746,-2.1576881408691406e-05,2.2846191227436066,3.7978230714797974,0
2025-12-05 17:53:32.822992,0.0,0.0,1029.5,85.3,12.1,1.3,6941.1,569.5,26.2,0.00,0.00,0.00,0.00,0,0,0,0,0,0,0,0,0,0,0,0,0,0,0,0,0.0,0.21514442563056946,1.202155351638794,0.7125593423843384,6.060235002053894,2.0876120565249066,4.249779525378939,0.0,0.0,0.0,0.0,0.0,3.0625930029186814,-2.033405781800648,4.432176549824354,-0.0002364516258239746,-2.1576881408691406e-05,2.2846191227436066,3.7978230714797974,0
2025-12-05 17:53:32.853651,0.0,0.0,1027.8,85.2,12.1,1.3,6941.2,569.5,26.2,0.00,0.00,0.00,0.00,0,0,0,0,0,0,0,0,0,0,0,0,0,0,0,0,0.0,0.21538463234901428,1.202161192893982,0.7124974727630615,6.0681351465742575,2.0935622046687574,4.221142941292426,0.0,0.0,0.0,0.0,0.0,3.0912753485027693,-2.062042365887161,4.432047718929424,3.7550926208496094e-06,-1.5735626220703125e-05,2.2846191227436066,3.7978230714797974,0
2025-12-05 17:53:32.885209,0.0,0.0,1020.3,84.6,12.1,1.3,6941.2,569.5,26.2,0.00,0.00,0.00,0.00,0,0,0,0,0,0,0,0,0,0,0,0,0,0,0,0,0.0,0.21538463234901428,1.202161192893982,0.7124974727630615,6.0681351465742575,2.0935622046687574,4.221142941292426,0.0,0.0,0.0,0.0,0.0,3.0912753485027693,-2.062042365887161,4.432047718929424,3.7550926208496094e-06,-1.5735626220703125e-05,2.2846191227436066,3.7978230714797974,0
2025-12-05 17:53:32.916756,0.0,0.0,1028.3,85.2,12.1,1.3,6941.3,569.5,26.2,0.00,0.00,0.00,0.00,0,0,0,0,0,0,0,0,0,0,0,0,0,0,0,0,0.0,0.21538463234901428,1.202161192893982,0.7124974727630615,6.0681351465742575,2.0935622046687574,4.221142941292426,0.0,0.0,0.0,0.0,0.0,3.0912753485027693,-2.062042365887161,4.432047718929424,3.7550926208496094e-06,-1.5735626220703125e-05,2.2846191227436066,3.7978230714797974,0
2025-12-05 17:53:32.947637,0.0,0.0,1031.1,85.5,12.1,1.3,6941.4,569.5,26.2,0.00,0.00,0.00,0.00,0,0,0,0,0,0,0,0,0,0,0,0,0,0,0,0,0.0,0.2153857946395874,1.2021700143814087,0.7124885320663452,6.075559217902068,2.090961646065741,4.223681916008827,0.0,0.0,0.0,0.0,0.0,3.0887355725083134,-2.0595033911707596,4.432039560631008,4.9173831939697266e-06,-6.9141387939453125e-06,2.2846191227436066,3.7978230714797974,0
2025-12-05 17:53:32.978949,0.0,0.0,1031.2,85.7,12.1,1.3,6941.4,569.5,26.2,0.00,0.00,0.00,0.00,0,0,0,0,0,0,0,0,0,0,0,0,0,0,0,0,0.0,0.2153857946395874,1.2021700143814087,0.7124885320663452,6.075559217902068,2.090961646065741,4.223681916008827,0.0,0.0,0.0,0.0,0.0,3.0887355725083134,-2.0595033911707596,4.432039560631008,4.9173831939697266e-06,-6.9141387939453125e-06,2.2846191227436066,3.7978230714797974,0
2025-12-05 17:53:33.010153,0.0,0.0,1033.2,85.6,12.1,1.3,6941.5,569.5,26.2,0.00,0.00,0.00,0.00,0,0,0,0,0,0,0,0,0,0,0,0,0,0,0,0,0.0,0.2153857946395874,1.2021700143814087,0.7124885320663452,6.075559217902068,2.090961646065741,4.223681916008827,0.0,0.0,0.0,0.0,0.0,3.0887355725083134,-2.0595033911707596,4.432039560631008,4.9173831939697266e-06,-6.9141387939453125e-06,2.2846191227436066,3.7978230714797974,0
2025-12-05 17:53:33.041554,0.0,0.0,1018.2,84.4,12.1,1.3,6941.5,569.6,26.2,0.00,0.00,0.00,0.00,0,0,0,0,0,0,0,0,0,0,0,0,0,0,0,0,0.0,0.2151797115802765,1.202147126197815,0.712575376033783,6.059096917520058,2.0874205698434465,4.242113435793355,0.0,0.0,0.0,0.0,0.0,3.0702668711345926,-2.0410718713862317,4.432165407723622,-0.00020116567611694336,-2.9802322387695312e-05,2.2846191227436066,3.7978230714797974,0
2025-12-05 17:53:33.072225,0.0,0.0,1028.8,85.3,12.1,1.3,6941.6,569.6,26.2,0.00,0.00,0.00,0.00,0,0,0,0,0,0,0,0,0,0,0,0,0,0,0,0,0.0,0.2151797115802765,1.202147126197815,0.712575376033783,6.059096917520058,2.0874205698434465,4.242113435793355,0.0,0.0,0.0,0.0,0.0,3.0702668711345926,-2.0410718713862317,4.432165407723622,-0.00020116567611694336,-2.9802322387695312e-05,2.2846191227436066,3.7978230714797974,0
2025-12-05 17:53:33.103461,0.0,0.0,1026.6,85.0,12.1,1.3,6941.7,569.6,26.2,0.00,0.00,0.00,0.00,0,0,0,0,0,0,0,0,0,0,0,0,0,0,0,0,0.0,0.2151797115802765,1.202147126197815,0.712575376033783,6.059096917520058,2.0874205698434465,4.242113435793355,0.0,0.0,0.0,0.0,0.0,3.0702668711345926,-2.0410718713862317,4.432165407723622,-0.00020116567611694336,-2.9802322387695312e-05,2.2846191227436066,3.7978230714797974,0
2025-12-05 17:53:33.134808,0.0,0.0,1041.9,86.4,12.1,1.3,6941.7,569.6,26.2,0.00,0.00,0.00,0.00,0,0,0,0,0,0,0,0,0,0,0,0,0,0,0,0,0.0,0.2151797115802765,1.202147126197815,0.712575376033783,6.059096917520058,2.0874205698434465,4.242113435793355,0.0,0.0,0.0,0.0,0.0,3.0702668711345926,-2.0410718713862317,4.432165407723622,-0.00020116567611694336,-2.9802322387695312e-05,2.2846191227436066,3.7978230714797974,0
2025-12-05 17:53:33.166255,0.0,0.0,1037.2,85.1,12.1,1.3,6941.8,569.6,26.2,0.00,0.00,0.00,0.00,0,0,0,0,0,0,0,0,0,0,0,0,0,0,0,0,0.0,0.21537134051322937,1.2021903991699219,0.7124864459037781,6.073557272805768,2.088952217005838,4.229742734891117,0.0,0.0,0.0,0.0,0.0,3.082669588119121,-2.05344257228847,4.432029543663426,-9.5367431640625e-06,1.3470649719238281e-05,2.2846191227436066,3.7978230714797974,0
2025-12-05 17:53:33.197665,0.0,0.0,1018.8,84.5,12.1,1.3,6941.9,569.6,26.2,0.00,0.00,0.00,0.00,0,0,0,0,0,0,0,0,0,0,0,0,0,0,0,0,0.0,0.21537134051322937,1.2021903991699219,0.7124864459037781,6.073557272805768,2.088952217005838,4.229742734891117,0.0,0.0,0.0,0.0,0.0,3.082669588119121,-2.05344257228847,4.432029543663426,-9.5367431640625e-06,1.3470649719238281e-05,2.2846191227436066,3.7978230714797974,0
2025-12-05 17:53:33.229096,0.0,0.0,1041.1,85.0,12.1,1.3,6941.9,569.6,26.2,0.00,0.00,0.00,0.00,0,0,0,0,0,0,0,0,0,0,0,0,0,0,0,0,0.0,0.21537134051322937,1.2021903991699219,0.7124864459037781,6.073557272805768,2.088952217005838,4.229742734891117,0.0,0.0,0.0,0.0,0.0,3.082669588119121,-2.05344257228847,4.432029543663426,-9.5367431640625e-06,1.3470649719238281e-05,2.2846191227436066,3.7978230714797974,0
2025-12-05 17:53:33.259934,0.0,0.0,1022.0,84.7,12.1,1.3,6942.0,569.6,26.2,0.00,0.00,0.00,0.00,0,0,0,0,0,0,0,0,0,0,0,0,0,0,0,0,0.0,0.21518947184085846,1.202141284942627,0.712592601776123,6.0587389568505845,2.089295289344786,4.240417416428327,0.0,0.0,0.0,0.0,0.0,3.071965456882275,-2.0427678907512594,4.432165381517717,-0.00019140541553497314,-3.5643577575683594e-05,2.2846191227436066,3.7978230714797974,0
2025-12-05 17:53:33.290893,0.0,0.0,1029.5,85.3,12.1,1.3,6942.0,569.6,26.2,0.00,0.00,0.00,0.00,0,0,0,0,0,0,0,0,0,0,0,0,0,0,0,0,0.0,0.21518947184085846,1.202141284942627,0.712592601776123,6.0587389568505845,2.089295289344786,4.240417416428327,0.0,0.0,0.0,0.0,0.0,3.071965456882275,-2.0427678907512594,4.432165381517717,-0.00019140541553497314,-3.5643577575683594e-05,2.2846191227436066,3.7978230714797974,0
2025-12-05 17:53:33.322250,0.0,0.0,1034.4,85.7,12.1,1.3,6942.1,569.6,26.2,0.00,0.00,0.00,0.00,0,0,0,0,0,0,0,0,0,0,0,0,0,0,0,0,0.0,0.21518947184085846,1.202141284942627,0.712592601776123,6.0587389568505845,2.089295289344786,4.240417416428327,0.0,0.0,0.0,0.0,0.0,3.071965456882275,-2.0427678907512594,4.432165381517717,-0.00019140541553497314,-3.5643577575683594e-05,2.2846191227436066,3.7978230714797974,0
2025-12-05 17:53:33.353314,0.0,0.0,1026.2,85.1,12.1,1.3,6942.2,569.6,26.2,0.00,0.00,0.00,0.00,0,0,0,0,0,0,0,0,0,0,0,0,0,0,0,0,0.0,0.21517932415008545,1.2021523714065552,0.7125736474990845,6.055684467856954,2.085960157383143,4.240596490847279,0.0,0.0,0.0,0.0,0.0,3.0717831311023813,-2.0425888163323074,4.432161112911411,-0.0002015531063079834,-2.4557113647460938e-05,2.2846191227436066,3.7978230714797974,0
2025-12-05 17:53:33.384797,0.0,0.0,1018.2,84.4,12.1,1.3,6942.2,569.6,26.2,0.00,0.00,0.00,0.00,0,0,0,0,0,0,0,0,0,0,0,0,0,0,0,0,0.0,0.21517932415008545,1.2021523714065552,0.7125736474990845,6.055684467856954,2.085960157383143,4.240596490847279,0.0,0.0,0.0,0.0,0.0,3.0717831311023813,-2.0425888163323074,4.432161112911411,-0.0002015531063079834,-2.4557113647460938e-05,2.2846191227436066,3.7978230714797974,0
2025-12-05 17:53:33.416028,0.0,0.0,1035.1,85.8,12.1,1.3,6942.3,569.6,26.2,0.00,0.00,0.00,0.00,0,0,0,0,0,0,0,0,0,0,0,0,0,0,0,0,0.0,0.21517932415008545,1.2021523714065552,0.7125736474990845,6.055684467856954,2.085960157383143,4.240596490847279,0.0,0.0,0.0,0.0,0.0,3.0717831311023813,-2.0425888163323074,4.432161112911411,-0.0002015531063079834,-2.4557113647460938e-05,2.2846191227436066,3.7978230714797974,0
2025-12-05 17:53:33.447023,0.0,0.0,1029.3,85.3,12.1,1.3,6942.3,569.6,26.2,0.00,0.00,0.00,0.00,0,0,0,0,0,0,0,0,0,0,0,0,0,0,0,0,0.0,0.21517932415008545,1.2021523714065552,0.7125736474990845,6.055684467856954,2.085960157383143,4.240596490847279,0.0,0.0,0.0,0.0,0.0,3.0717831311023813,-2.0425888163323074,4.432161112911411,-0.0002015531063079834,-2.4557113647460938e-05,2.2846191227436066,3.7978230714797974,0
2025-12-05 17:53:33.478010,0.0,0.0,1023.2,84.8,12.1,1.3,6942.4,569.6,26.2,0.00,0.00,0.00,0.00,0,0,0,0,0,0,0,0,0,0,0,0,0,0,0,0,0.0,0.21517932415008545,1.2021523714065552,0.7125736474990845,6.055684467856954,2.085960157383143,4.240596490847279,0.0,0.0,0.0,0.0,0.0,3.0717831311023813,-2.0425888163323074,4.432161112911411,-0.0002015531063079834,-2.4557113647460938e-05,2.2846191227436066,3.7978230714797974,0
2025-12-05 17:53:33.509371,0.0,0.0,1018.3,84.4,12.1,1.3,6942.5,569.6,26.2,0.00,0.00,0.00,0.00,0,0,0,0,0,0,0,0,0,0,0,0,0,0,0,0,0.0,0.21517932415008545,1.2021523714065552,0.7125736474990845,6.055684467856954,2.085960157383143,4.240596490847279,0.0,0.0,0.0,0.0,0.0,3.0717831311023813,-2.0425888163323074,4.432161112911411,-0.0002015531063079834,-2.4557113647460938e-05,2.2846191227436066,3.7978230714797974,0
2025-12-05 17:53:33.541057,0.0,0.0,1023.0,84.8,12.1,1.3,6942.5,569.6,26.2,0.00,0.00,0.00,0.00,0,0,0,0,0,0,0,0,0,0,0,0,0,0,0,0,0.0,0.21517932415008545,1.2021523714065552,0.7125736474990845,6.055684467856954,2.085960157383143,4.240596490847279,0.0,0.0,0.0,0.0,0.0,3.0717831311023813,-2.0425888163323074,4.432161112911411,-0.0002015531063079834,-2.4557113647460938e-05,2.2846191227436066,3.7978230714797974,0
2025-12-05 17:53:33.572241,0.0,0.0,1034.7,85.8,12.1,1.3,6942.6,569.6,26.2,0.00,0.00,0.00,0.00,0,0,0,0,0,0,0,0,0,0,0,0,0,0,0,0,0.0,0.21514399349689484,1.2021889686584473,0.7125310301780701,6.063868403358424,2.0802992617947536,4.255055836806063,0.0,0.0,0.0,0.0,0.0,3.0573126978567284,-2.0281294703735235,4.432147966870342,-0.0002368837594985962,1.2040138244628906e-05,2.2846191227436066,3.7978230714797974,0
2025-12-05 17:53:33.603625,0.0,0.0,1022.1,84.7,12.1,1.3,6942.6,569.6,26.2,0.00,0.00,0.00,0.00,0,0,0,0,0,0,0,0,0,0,0,0,0,0,0,0,0.0,0.21514399349689484,1.2021889686584473,0.7125310301780701,6.063868403358424,2.0802992617947536,4.255055836806063,0.0,0.0,0.0,0.0,0.0,3.0573126978567284,-2.0281294703735235,4.432147966870342,-0.0002368837594985962,1.2040138244628906e-05,2.2846191227436066,3.7978230714797974,0
