Timestamp,forward_vel_cmd,steering_vel_cmd,power_mW,current_mA,busVoltage_V,shuntVoltage_mV,energy,charge,dieTemp,Left_Stick_X,Left_Stick_Y,Right_Stick_X,Right_Stick_Y,Button_0,Button_1,Button_2,Button_3,Button_4,Button_5,Button_6,Button_7,Button_8,Button_9,Button_10,Button_11,Button_12,Button_13,Button_14,Button_15,mocap_velocity,mocap_x,mocap_y,mocap_z,mocap_roll,mocap_pitch,mocap_yaw_raw,forward_vel_cmd,steering_vel_cmd,left_wheel_vel,right_wheel_vel,ppo_control_active,heading_error_rad,current_heading_rad,distance_to_target,relative_x,relative_y,target_relative_x,target_relative_y,current_waypoint_idx
2025-12-05 17:53:19.017985,0.0,0.0,1020.1,84.6,12.1,1.3,6914.3,567.3,26.2,0.00,0.00,0.00,0.00,0,0,0,0,0,0,0,0,0,0,0,0,0,0,0,0,0.0,0.215165913105011,1.2021613121032715,0.71256422996521,6.05087724243573,2.087897408069896,4.243441518288533,0.0,0.0,0.0,0.0,0.0,3.06893447095816,-2.039743788891054,4.432160365321002,-0.0002149641513824463,-1.5616416931152344e-05,2.2846191227436066,3.7978230714797974,0
2025-12-05 17:53:19.049204,0.0,0.0,1018.8,84.4,12.1,1.3,6914.4,567.3,26.2,0.00,0.00,0.00,0.00,0,0,0,0,0,0,0,0,0,0,0,0,0,0,0,0,0.0,0.215165913105011,1.2021613121032715,0.71256422996521,6.05087724243573,2.087897408069896,4.243441518288533,0.0,0.0,0.0,0.0,0.0,3.06893447095816,-2.039743788891054,4.432160365321002,-0.0002149641513824463,-1.5616416931152344e-05,2.2846191227436066,3.7978230714797974,0
2025-12-05 17:53:19.080388,0.0,0.0,1019.0,84.5,12.1,1.3,6914.4,567.3,26.2,0.00,0.00,0.00,0.00,0,0,0,0,0,0,0,0,0,0,0,0,0,0,0,0,0.0,0.215165913105011,1.2021613121032715,0.71256422996521,6.05087724243573,2.087897408069896,4.243441518288533,0.0,0.0,0.0,0.0,0.0,3.06893447095816,-2.039743788891054,4.432160365321002,-0.0002149641513824463,-1.5616416931152344e-05,2.2846191227436066,3.7978230714797974,0
2025-12-05 17:53:19.111747,0.0,0.0,1025.3,85.0,12.1,1.3,6914.5,567.3,26.2,0.00,0.00,0.00,0.00,0,0,0,0,0,0,0,0,0,0,0,0,0,0,0,0,0.0,0.2151709645986557,1.2021688222885132,0.7125542163848877,6.060529523588451,2.083625735139422,4.245849109775518,0.0,0.0,0.0,0.0,0.0,3.0665269825678045,-2.0373361974040685,4.432151325869916,-0.00020991265773773193,-8.106231689453125e-06,2.2846191227436066,3.7978230714797974,0
2025-12-05 17:53:19.143124,0.0,0.0,1025.9,85.0,12.1,1.3,6914.6,567.3,26.2,0.00,0.00,0.00,0.00,0,0,0,0,0,0,0,0,0,0,0,0,0,0,0,0,0.0,0.2151709645986557,1.2021688222885132,0.7125542163848877,6.060529523588451,2.083625735139422,4.245849109775518,0.0,0.0,0.0,0.0,0.0,3.0665269825678045,-2.0373361974040685,4.432151325869916,-0.00020991265773773193,-8.106231689453125e-06,2.2846191227436066,3.7978230714797974,0
2025-12-05 17:53:19.174570,0.0,0.0,1020.9,84.6,12.1,1.3,6914.6,567.3,26.2,0.00,0.00,0.00,0.00,0,0,0,0,0,0,0,0,0,0,0,0,0,0,0,0,0.0,0.2151709645986557,1.2021688222885132,0.7125542163848877,6.060529523588451,2.083625735139422,4.245849109775518,0.0,0.0,0.0,0.0,0.0,3.0665269825678045,-2.0373361974040685,4.432151325869916,-0.00020991265773773193,-8.106231689453125e-06,2.2846191227436066,3.7978230714797974,0
2025-12-05 17:53:19.206063,0.0,0.0,1024.8,84.9,12.1,1.3,6914.7,567.3,26.2,0.00,0.00,0.00,0.00,0,0,0,0,0,0,0,0,0,0,0,0,0,0,0,0,0.0,0.21517150104045868,1.2021578550338745,0.7125598788261414,6.060610435887789,2.088583957180027,4.245699224503808,0.0,0.0,0.0,0.0,0.0,3.0666782471720966,-2.037486082675779,4.432160446976013,-0.00020937621593475342,-1.9073486328125e-05,2.2846191227436066,3.7978230714797974,0
2025-12-05 17:53:19.237389,0.0,0.0,1020.9,84.6,12.1,1.3,6914.7,567.3,26.2,0.00,0.00,0.00,0.00,0,0,0,0,0,0,0,0,0,0,0,0,0,0,0,0,0.0,0.21517150104045868,1.2021578550338745,0.7125598788261414,6.060610435887789,2.088583957180027,4.245699224503808,0.0,0.0,0.0,0.0,0.0,3.0666782471720966,-2.037486082675779,4.432160446976013,-0.00020937621593475342,-1.9073486328125e-05,2.2846191227436066,3.7978230714797974,0
2025-12-05 17:53:19.268702,0.0,0.0,1022.4,84.7,12.1,1.3,6914.8,567.3,26.2,0.00,0.00,0.00,0.00,0,0,0,0,0,0,0,0,0,0,0,0,0,0,0,0,0.0,0.21517150104045868,1.2021578550338745,0.7125598788261414,6.060610435887789,2.088583957180027,4.245699224503808,0.0,0.0,0.0,0.0,0.0,3.0666782471720966,-2.037486082675779,4.432160446976013,-0.00020937621593475342,-1.9073486328125e-05,2.2846191227436066,3.7978230714797974,0
2025-12-05 17:53:19.300024,0.0,0.0,1019.7,84.5,12.1,1.3,6914.8,567.3,26.2,0.00,0.00,0.00,0.00,0,0,0,0,0,0,0,0,0,0,0,0,0,0,0,0,0.0,0.21517150104045868,1.2021578550338745,0.7125598788261414,6.060610435887789,2.088583957180027,4.245699224503808,0.0,0.0,0.0,0.0,0.0,3.0666782471720966,-2.037486082675779,4.432160446976013,-0.00020937621593475342,-1.9073486328125e-05,2.2846191227436066,3.7978230714797974,0
2025-12-05 17:53:19.331181,0.0,0.0,1031.8,85.5,12.1,1.3,6914.9,567.3,26.2,0.00,0.00,0.00,0.00,0,0,0,0,0,0,0,0,0,0,0,0,0,0,0,0,0.0,0.2153782844543457,1.2021663188934326,0.7124864459037781,6.066630586321007,2.0963559250724537,4.222451908106406,0.0,0.0,0.0,0.0,0.0,3.089964558182135,-2.060733399073181,4.432046598637048,-2.592802047729492e-06,-1.0609626770019531e-05,2.2846191227436066,3.7978230714797974,0
2025-12-05 17:53:19.361802,0.0,0.0,1016.4,84.2,12.1,1.3,6915.0,567.3,26.2,0.00,0.00,0.00,0.00,0,0,0,0,0,0,0,0,0,0,0,0,0,0,0,0,0.0,0.2153782844543457,1.2021663188934326,0.7124864459037781,6.066630586321007,2.0963559250724537,4.222451908106406,0.0,0.0,0.0,0.0,0.0,3.089964558182135,-2.060733399073181,4.432046598637048,-2.592802047729492e-06,-1.0609626770019531e-05,2.2846191227436066,3.7978230714797974,0
2025-12-05 17:53:19.393207,0.0,0.0,1026.9,85.1,12.1,1.3,6915.0,567.4,26.2,0.00,0.00,0.00,0.00,0,0,0,0,0,0,0,0,0,0,0,0,0,0,0,0,0.0,0.2153782844543457,1.2021663188934326,0.7124864459037781,6.066630586321007,2.0963559250724537,4.222451908106406,0.0,0.0,0.0,0.0,0.0,3.089964558182135,-2.060733399073181,4.432046598637048,-2.592802047729492e-06,-1.0609626770019531e-05,2.2846191227436066,3.7978230714797974,0
2025-12-05 17:53:19.424553,0.0,0.0,1029.5,85.3,12.1,1.3,6915.1,567.4,26.2,0.00,0.00,0.00,0.00,0,0,0,0,0,0,0,0,0,0,0,0,0,0,0,0,0.0,0.21537424623966217,1.2021613121032715,0.712460458278656,6.063534284794136,2.093493598645993,4.22622883429254,0.0,0.0,0.0,0.0,0.0,3.0861874335622965,-2.056956472887047,4.4320529705803535,-6.631016731262207e-06,-1.5616416931152344e-05,2.2846191227436066,3.7978230714797974,0
2025-12-05 17:53:19.455999,0.0,0.0,1018.7,84.4,12.1,1.3,6915.1,567.4,26.2,0.00,0.00,0.00,0.00,0,0,0,0,0,0,0,0,0,0,0,0,0,0,0,0,0.0,0.21537424623966217,1.2021613121032715,0.712460458278656,6.063534284794136,2.093493598645993,4.22622883429254,0.0,0.0,0.0,0.0,0.0,3.0861874335622965,-2.056956472887047,4.4320529705803535,-6.631016731262207e-06,-1.5616416931152344e-05,2.2846191227436066,3.7978230714797974,0
2025-12-05 17:53:19.487266,0.0,0.0,1023.7,84.9,12.1,1.3,6915.2,567.4,26.2,0.00,0.00,0.00,0.00,0,0,0,0,0,0,0,0,0,0,0,0,0,0,0,0,0.0,0.21537424623966217,1.2021613121032715,0.712460458278656,6.063534284794136,2.093493598645993,4.22622883429254,0.0,0.0,0.0,0.0,0.0,3.0861874335622965,-2.056956472887047,4.4320529705803535,-6.631016731262207e-06,-1.5616416931152344e-05,2.2846191227436066,3.7978230714797974,0
2025-12-05 17:53:19.518144,0.0,0.0,1015.0,84.1,12.1,1.3,6915.3,567.4,26.2,0.00,0.00,0.00,0.00,0,0,0,0,0,0,0,0,0,0,0,0,0,0,0,0,0.0,0.21537424623966217,1.2021613121032715,0.712460458278656,6.063534284794136,2.093493598645993,4.22622883429254,0.0,0.0,0.0,0.0,0.0,3.0861874335622965,-2.056956472887047,4.4320529705803535,-6.631016731262207e-06,-1.5616416931152344e-05,2.2846191227436066,3.7978230714797974,0
2025-12-05 17:53:19.549554,0.0,0.0,1020.7,84.9,12.1,1.3,6915.3,567.4,26.2,0.00,0.00,0.00,0.00,0,0,0,0,0,0,0,0,0,0,0,0,0,0,0,0,0.0,0.2153652310371399,1.20216703414917,0.7124636769294739,6.065419066442119,2.0947320500397755,4.224777033665317,0.0,0.0,0.0,0.0,0.0,3.087636825657431,-2.058408273514269,4.432052714494413,-1.564621925354004e-05,-9.894371032714844e-06,2.2846191227436066,3.7978230714797974,0
2025-12-05 17:53:19.580486,0.0,0.0,1022.0,84.7,12.1,1.3,6915.4,567.4,26.2,0.00,0.00,0.00,0.00,0,0,0,0,0,0,0,0,0,0,0,0,0,0,0,0,0.0,0.2153652310371399,1.20216703414917,0.7124636769294739,6.065419066442119,2.0947320500397755,4.224777033665317,0.0,0.0,0.0,0.0,0.0,3.087636825657431,-2.058408273514269,4.432052714494413,-1.564621925354004e-05,-9.894371032714844e-06,2.2846191227436066,3.7978230714797974,0
2025-12-05 17:53:19.611196,0.0,0.0,1024.0,85.2,12.1,1.3,6915.5,567.4,26.2,0.00,0.00,0.00,0.00,0,0,0,0,0,0,0,0,0,0,0,0,0,0,0,0,0.0,0.2153652310371399,1.20216703414917,0.7124636769294739,6.065419066442119,2.0947320500397755,4.224777033665317,0.0,0.0,0.0,0.0,0.0,3.087636825657431,-2.058408273514269,4.432052714494413,-1.564621925354004e-05,-9.894371032714844e-06,2.2846191227436066,3.7978230714797974,0
2025-12-05 17:53:19.642346,0.0,0.0,1022.5,84.7,12.1,1.3,6915.5,567.4,26.2,0.00,0.00,0.00,0.00,0,0,0,0,0,0,0,0,0,0,0,0,0,0,0,0,0.0,0.21537896990776062,1.2021499872207642,0.7124762535095215,6.0627632891236285,2.0965738284440443,4.220873243128649,0.0,0.0,0.0,0.0,0.0,3.091545255167933,-2.062312064050938,4.432060239968199,-1.9073486328125e-06,-2.6941299438476562e-05,2.2846191227436066,3.7978230714797974,0
2025-12-05 17:53:19.674094,0.0,0.0,1022.0,84.7,12.1,1.3,6915.6,567.4,26.2,0.00,0.00,0.00,0.00,0,0,0,0,0,0,0,0,0,0,0,0,0,0,0,0,0.0,0.21537896990776062,1.2021499872207642,0.7124762535095215,6.0627632891236285,2.0965738284440443,4.220873243128649,0.0,0.0,0.0,0.0,0.0,3.091545255167933,-2.062312064050938,4.432060239968199,-1.9073486328125e-06,-2.6941299438476562e-05,2.2846191227436066,3.7978230714797974,0
2025-12-05 17:53:19.705630,0.0,0.0,1022.6,84.8,12.1,1.3,6915.6,567.4,26.2,0.00,0.00,0.00,0.00,0,0,0,0,0,0,0,0,0,0,0,0,0,0,0,0,0.0,0.21537896990776062,1.2021499872207642,0.7124762535095215,6.0627632891236285,2.0965738284440443,4.220873243128649,0.0,0.0,0.0,0.0,0.0,3.091545255167933,-2.062312064050938,4.432060239968199,-1.9073486328125e-06,-2.6941299438476562e-05,2.2846191227436066,3.7978230714797974,0
2025-12-05 17:53:19.736300,0.0,0.0,1026.7,85.1,12.1,1.3,6915.7,567.4,26.2,0.00,0.00,0.00,0.00,0,0,0,0,0,0,0,0,0,0,0,0,0,0,0,0,0.0,0.21519367396831512,1.2021349668502808,0.7125876545906067,6.064220116650693,2.0893620762984275,4.239036189165146,0.0,0.0,0.0,0.0,0.0,3.0733482314153004,-2.0441491180144404,4.432168629180948,-0.0001872032880783081,-4.1961669921875e-05,2.2846191227436066,3.7978230714797974,0
2025-12-05 17:53:19.766965,0.0,0.0,1019.0,84.5,12.1,1.3,6915.8,567.4,26.2,0.00,0.00,0.00,0.00,0,0,0,0,0,0,0,0,0,0,0,0,0,0,0,0,0.0,0.21519367396831512,1.2021349668502808,0.7125876545906067,6.064220116650693,2.0893620762984275,4.239036189165146,0.0,0.0,0.0,0.0,0.0,3.0733482314153004,-2.0441491180144404,4.432168629180948,-0.0001872032880783081,-4.1961669921875e-05,2.2846191227436066,3.7978230714797974,0
2025-12-05 17:53:19.797747,0.0,0.0,1019.2,84.5,12.1,1.3,6915.8,567.4,26.2,0.00,0.00,0.00,0.00,0,0,0,0,0,0,0,0,0,0,0,0,0,0,0,0,0.0,0.21519367396831512,1.2021349668502808,0.7125876545906067,6.064220116650693,2.0893620762984275,4.239036189165146,0.0,0.0,0.0,0.0,0.0,3.0733482314153004,-2.0441491180144404,4.432168629180948,-0.0001872032880783081,-4.1961669921875e-05,2.2846191227436066,3.7978230714797974,0
2025-12-05 17:53:19.828741,0.0,0.0,1026.6,85.1,12.1,1.3,6915.9,567.4,26.2,0.00,0.00,0.00,0.00,0,0,0,0,0,0,0,0,0,0,0,0,0,0,0,0,0.0,0.21535977721214294,1.20218825340271,0.712470293045044,6.07071182669468,2.089250352973942,4.232099103585794,0.0,0.0,0.0,0.0,0.0,3.0803112333178095,-2.0510862035937927,4.43203734304806,-2.110004425048828e-05,1.1324882507324219e-05,2.2846191227436066,3.7978230714797974,0
2025-12-05 17:53:19.859797,0.0,0.0,1027.8,85.2,12.1,1.3,6915.9,567.4,26.2,0.00,0.00,0.00,0.00,0,0,0,0,0,0,0,0,0,0,0,0,0,0,0,0,0.0,0.21535977721214294,1.20218825340271,0.712470293045044,6.07071182669468,2.089250352973942,4.232099103585794,0.0,0.0,0.0,0.0,0.0,3.0803112333178095,-2.0510862035937927,4.43203734304806,-2.110004425048828e-05,1.1324882507324219e-05,2.2846191227436066,3.7978230714797974,0
2025-12-05 17:53:19.890947,0.0,0.0,1022.3,84.7,12.1,1.3,6916.0,567.4,26.2,0.00,0.00,0.00,0.00,0,0,0,0,0,0,0,0,0,0,0,0,0,0,0,0,0.0,0.21535977721214294,1.20218825340271,0.712470293045044,6.07071182669468,2.089250352973942,4.232099103585794,0.0,0.0,0.0,0.0,0.0,3.0803112333178095,-2.0510862035937927,4.43203734304806,-2.110004425048828e-05,1.1324882507324219e-05,2.2846191227436066,3.7978230714797974,0
2025-12-05 17:53:19.921419,0.0,0.0,1017.5,84.3,12.1,1.3,6916.1,567.4,26.2,0.00,0.00,0.00,0.00,0,0,0,0,0,0,0,0,0,0,0,0,0,0,0,0,0.0,0.21535977721214294,1.20218825340271,0.712470293045044,6.07071182669468,2.089250352973942,4.232099103585794,0.0,0.0,0.0,0.0,0.0,3.0803112333178095,-2.0510862035937927,4.43203734304806,-2.110004425048828e-05,1.1324882507324219e-05,2.2846191227436066,3.7978230714797974,0
2025-12-05 17:53:19.952581,0.0,0.0,1021.9,84.7,12.1,1.3,6916.1,567.4,26.2,0.00,0.00,0.00,0.00,0,0,0,0,0,0,0,0,0,0,0,0,0,0,0,0,0.0,0.21537011861801147,1.2021756172180176,0.7124621272087097,6.063205495580647,2.0957627860148373,4.227791225274528,0.0,0.0,0.0,0.0,0.0,3.0846225807488663,-2.055394081905059,4.43204284019873,-1.0758638381958008e-05,-1.3113021850585938e-06,2.2846191227436066,3.7978230714797974,0
2025-12-05 17:53:19.983753,0.0,0.0,1027.0,85.1,12.1,1.3,6916.2,567.4,26.2,0.00,0.00,0.00,0.00,0,0,0,0,0,0,0,0,0,0,0,0,0,0,0,0,0.0,0.21537011861801147,1.2021756172180176,0.7124621272087097,6.063205495580647,2.0957627860148373,4.227791225274528,0.0,0.0,0.0,0.0,0.0,3.0846225807488663,-2.055394081905059,4.43204284019873,-1.0758638381958008e-05,-1.3113021850585938e-06,2.2846191227436066,3.7978230714797974,0
2025-12-05 17:53:20.015545,0.0,0.0,1017.7,84.3,12.1,1.3,6916.2,567.5,26.2,0.00,0.00,0.00,0.00,0,0,0,0,0,0,0,0,0,0,0,0,0,0,0,0,0.0,0.21537011861801147,1.2021756172180176,0.7124621272087097,6.063205495580647,2.0957627860148373,4.227791225274528,0.0,0.0,0.0,0.0,0.0,3.0846225807488663,-2.055394081905059,4.43204284019873,-1.0758638381958008e-05,-1.3113021850585938e-06,2.2846191227436066,3.7978230714797974,0
2025-12-05 17:53:20.047025,0.0,0.0,1028.2,85.2,12.1,1.3,6916.3,567.5,26.2,0.00,0.00,0.00,0.00,0,0,0,0,0,0,0,0,0,0,0,0,0,0,0,0,0.0,0.21537570655345917,1.2021567821502686,0.7124706506729126,6.062322952956967,2.096639377451015,4.222628142303419,0.0,0.0,0.0,0.0,0.0,3.089788934755541,-2.060557164876167,4.432056099551686,-5.170702934265137e-06,-2.014636993408203e-05,2.2846191227436066,3.7978230714797974,0
2025-12-05 17:53:20.078143,0.0,0.0,1021.5,84.7,12.1,1.3,6916.4,567.5,26.2,0.00,0.00,0.00,0.00,0,0,0,0,0,0,0,0,0,0,0,0,0,0,0,0,0.0,0.21537570655345917,1.2021567821502686,0.7124706506729126,6.062322952956967,2.096639377451015,4.222628142303419,0.0,0.0,0.0,0.0,0.0,3.089788934755541,-2.060557164876167,4.432056099551686,-5.170702934265137e-06,-2.014636993408203e-05,2.2846191227436066,3.7978230714797974,0
2025-12-05 17:53:20.109477,0.0,0.0,1023.1,84.8,12.1,1.3,6916.4,567.5,26.2,0.00,0.00,0.00,0.00,0,0,0,0,0,0,0,0,0,0,0,0,0,0,0,0,0.0,0.21537570655345917,1.2021567821502686,0.7124706506729126,6.062322952956967,2.096639377451015,4.222628142303419,0.0,0.0,0.0,0.0,0.0,3.089788934755541,-2.060557164876167,4.432056099551686,-5.170702934265137e-06,-2.014636993408203e-05,2.2846191227436066,3.7978230714797974,0
2025-12-05 17:53:20.140970,0.0,0.0,1025.9,85.0,12.1,1.3,6916.5,567.5,26.2,0.00,0.00,0.00,0.00,0,0,0,0,0,0,0,0,0,0,0,0,0,0,0,0,0.0,0.21537570655345917,1.2021567821502686,0.7124706506729126,6.062322952956967,2.096639377451015,4.222628142303419,0.0,0.0,0.0,0.0,0.0,3.089788934755541,-2.060557164876167,4.432056099551686,-5.170702934265137e-06,-2.014636993408203e-05,2.2846191227436066,3.7978230714797974,0
2025-12-05 17:53:20.172119,0.0,0.0,1016.5,84.2,12.1,1.3,6916.5,567.5,26.2,0.00,0.00,0.00,0.00,0,0,0,0,0,0,0,0,0,0,0,0,0,0,0,0,0.0,0.21518397331237793,1.2021344900131226,0.7125760316848755,6.053761162614512,2.0906360462494726,4.237500600610273,0.0,0.0,0.0,0.0,0.0,3.0748819999721246,-2.045684706569313,4.432174038522912,-0.00019690394401550293,-4.2438507080078125e-05,2.2846191227436066,3.7978230714797974,0
2025-12-05 17:53:20.203595,0.0,0.0,1024.2,84.9,12.1,1.3,6916.6,567.5,26.2,0.00,0.00,0.00,0.00,0,0,0,0,0,0,0,0,0,0,0,0,0,0,0,0,0.0,0.21518397331237793,1.2021344900131226,0.7125760316848755,6.053761162614512,2.0906360462494726,4.237500600610273,0.0,0.0,0.0,0.0,0.0,3.0748819999721246,-2.045684706569313,4.432174038522912,-0.00019690394401550293,-4.2438507080078125e-05,2.2846191227436066,3.7978230714797974,0
2025-12-05 17:53:20.234288,0.0,0.0,1021.8,84.7,12.1,1.3,6916.7,567.5,26.2,0.00,0.00,0.00,0.00,0,0,0,0,0,0,0,0,0,0,0,0,0,0,0,0,0.0,0.21518397331237793,1.2021344900131226,0.7125760316848755,6.053761162614512,2.0906360462494726,4.237500600610273,0.0,0.0,0.0,0.0,0.0,3.0748819999721246,-2.045684706569313,4.432174038522912,-0.00019690394401550293,-4.2438507080078125e-05,2.2846191227436066,3.7978230714797974,0
2025-12-05 17:53:20.264917,0.0,0.0,1022.8,84.8,12.1,1.3,6916.7,567.5,26.2,0.00,0.00,0.00,0.00,0,0,0,0,0,0,0,0,0,0,0,0,0,0,0,0,0.0,0.2151762843132019,1.2021616697311401,0.7125669121742249,6.064783755611362,2.0835434055933995,4.244140183290922,0.0,0.0,0.0,0.0,0.0,3.0682377694568506,-2.039045123888665,4.432154712397142,-0.00020459294319152832,-1.52587890625e-05,2.2846191227436066,3.7978230714797974,0
2025-12-05 17:53:20.295913,0.0,0.0,1020.4,84.6,12.1,1.3,6916.8,567.5,26.2,0.00,0.00,0.00,0.00,0,0,0,0,0,0,0,0,0,0,0,0,0,0,0,0,0.0,0.2151762843132019,1.2021616697311401,0.7125669121742249,6.064783755611362,2.0835434055933995,4.244140183290922,0.0,0.0,0.0,0.0,0.0,3.0682377694568506,-2.039045123888665,4.432154712397142,-0.00020459294319152832,-1.52587890625e-05,2.2846191227436066,3.7978230714797974,0
2025-12-05 17:53:20.326677,0.0,0.0,1020.0,84.5,12.1,1.3,6916.8,567.5,26.2,0.00,0.00,0.00,0.00,0,0,0,0,0,0,0,0,0,0,0,0,0,0,0,0,0.0,0.2151762843132019,1.2021616697311401,0.7125669121742249,6.064783755611362,2.0835434055933995,4.244140183290922,0.0,0.0,0.0,0.0,0.0,3.0682377694568506,-2.039045123888665,4.432154712397142,-0.00020459294319152832,-1.52587890625e-05,2.2846191227436066,3.7978230714797974,0
2025-12-05 17:53:20.357825,0.0,0.0,1019.9,84.5,12.1,1.3,6916.9,567.5,26.2,0.00,0.00,0.00,0.00,0,0,0,0,0,0,0,0,0,0,0,0,0,0,0,0,0.0,0.21535280346870422,1.202178955078125,0.7124555706977844,6.0544773154637905,2.096543264062873,4.227147613183702,0.0,0.0,0.0,0.0,0.0,3.085262456874881,-2.0560376939958847,4.432048905627034,-2.8073787689208984e-05,2.0265579223632812e-06,2.2846191227436066,3.7978230714797974,0
2025-12-05 17:53:20.389296,0.0,0.0,1028.3,84.2,12.1,1.3,6917.0,567.5,26.2,0.00,0.00,0.00,0.00,0,0,0,0,0,0,0,0,0,0,0,0,0,0,0,0,0.0,0.21535280346870422,1.202178955078125,0.7124555706977844,6.0544773154637905,2.096543264062873,4.227147613183702,0.0,0.0,0.0,0.0,0.0,3.085262456874881,-2.0560376939958847,4.432048905627034,-2.8073787689208984e-05,2.0265579223632812e-06,2.2846191227436066,3.7978230714797974,0
2025-12-05 17:53:20.420669,0.0,0.0,1034.1,85.7,12.1,1.3,6917.0,567.5,26.2,0.00,0.00,0.00,0.00,0,0,0,0,0,0,0,0,0,0,0,0,0,0,0,0,0.0,0.21535280346870422,1.202178955078125,0.7124555706977844,6.0544773154637905,2.096543264062873,4.227147613183702,0.0,0.0,0.0,0.0,0.0,3.085262456874881,-2.0560376939958847,4.432048905627034,-2.8073787689208984e-05,2.0265579223632812e-06,2.2846191227436066,3.7978230714797974,0
2025-12-05 17:53:20.452147,0.0,0.0,1021.1,85.8,12.1,1.3,6917.1,567.5,26.2,0.00,0.00,0.00,0.00,0,0,0,0,0,0,0,0,0,0,0,0,0,0,0,0,0.0,0.21535280346870422,1.202178955078125,0.7124555706977844,6.0544773154637905,2.096543264062873,4.227147613183702,0.0,0.0,0.0,0.0,0.0,3.085262456874881,-2.0560376939958847,4.432048905627034,-2.8073787689208984e-05,2.0265579223632812e-06,2.2846191227436066,3.7978230714797974,0
2025-12-05 17:53:20.483114,0.0,0.0,1037.5,86.0,12.1,1.3,6917.1,567.5,26.2,0.00,0.00,0.00,0.00,0,0,0,0,0,0,0,0,0,0,0,0,0,0,0,0,0.0,0.21535280346870422,1.202178955078125,0.7124555706977844,6.0544773154637905,2.096543264062873,4.227147613183702,0.0,0.0,0.0,0.0,0.0,3.085262456874881,-2.0560376939958847,4.432048905627034,-2.8073787689208984e-05,2.0265579223632812e-06,2.2846191227436066,3.7978230714797974,0
2025-12-05 17:53:20.514309,0.0,0.0,1025.6,85.0,12.1,1.3,6917.2,567.5,26.2,0.00,0.00,0.00,0.00,0,0,0,0,0,0,0,0,0,0,0,0,0,0,0,0,0.0,0.21535280346870422,1.202178955078125,0.7124555706977844,6.0544773154637905,2.096543264062873,4.227147613183702,0.0,0.0,0.0,0.0,0.0,3.085262456874881,-2.0560376939958847,4.432048905627034,-2.8073787689208984e-05,2.0265579223632812e-06,2.2846191227436066,3.7978230714797974,0
2025-12-05 17:53:20.545591,0.0,0.0,1034.0,85.7,12.1,1.3,6917.3,567.5,26.2,0.00,0.00,0.00,0.00,0,0,0,0,0,0,0,0,0,0,0,0,0,0,0,0,0.0,0.21535280346870422,1.202178955078125,0.7124555706977844,6.0544773154637905,2.096543264062873,4.227147613183702,0.0,0.0,0.0,0.0,0.0,3.085262456874881,-2.0560376939958847,4.432048905627034,-2.8073787689208984e-05,2.0265579223632812e-06,2.2846191227436066,3.7978230714797974,0
2025-12-05 17:53:20.577037,0.0,0.0,1030.2,85.4,12.1,1.3,6917.3,567.5,26.2,0.00,0.00,0.00,0.00,0,0,0,0,0,0,0,0,0,0,0,0,0,0,0,0,0.0,0.2153642773628235,1.2021770477294922,0.7124705910682678,6.060381301098185,2.093855074005763,4.229029687310598,0.0,0.0,0.0,0.0,0.0,3.083382822972046,-2.0541556198689883,4.4320446254457515,-1.659989356994629e-05,1.1920928955078125e-07,2.2846191227436066,3.7978230714797974,0
2025-12-05 17:53:20.608433,0.0,0.0,1028.7,85.3,12.1,1.3,6917.4,567.5,26.2,0.00,0.00,0.00,0.00,0,0,0,0,0,0,0,0,0,0,0,0,0,0,0,0,0.0,0.2153642773628235,1.2021770477294922,0.7124705910682678,6.060381301098185,2.093855074005763,4.229029687310598,0.0,0.0,0.0,0.0,0.0,3.083382822972046,-2.0541556198689883,4.4320446254457515,-1.659989356994629e-05,1.1920928955078125e-07,2.2846191227436066,3.7978230714797974,0
2025-12-05 17:53:20.639077,0.0,0.0,1030.3,85.4,12.1,1.3,6917.4,567.6,26.2,0.00,0.00,0.00,0.00,0,0,0,0,0,0,0,0,0,0,0,0,0,0,0,0,0.0,0.2153642773628235,1.2021770477294922,0.7124705910682678,6.060381301098185,2.093855074005763,4.229029687310598,0.0,0.0,0.0,0.0,0.0,3.083382822972046,-2.0541556198689883,4.4320446254457515,-1.659989356994629e-05,1.1920928955078125e-07,2.2846191227436066,3.7978230714797974,0
2025-12-05 17:53:20.670317,0.0,0.0,1011.5,83.8,12.1,1.3,6917.5,567.6,26.2,0.00,0.00,0.00,0.00,0,0,0,0,0,0,0,0,0,0,0,0,0,0,0,0,0.0,0.21520154178142548,1.2021437883377075,0.7125756740570068,6.055814210431661,2.088191366345005,4.237914335495544,0.0,0.0,0.0,0.0,0.0,3.074470580170868,-2.0452709716840425,4.43215701426967,-0.00017933547496795654,-3.314018249511719e-05,2.2846191227436066,3.7978230714797974,0
2025-12-05 17:53:20.701619,0.0,0.0,1016.5,84.2,12.1,1.3,6917.6,567.6,26.2,0.00,0.00,0.00,0.00,0,0,0,0,0,0,0,0,0,0,0,0,0,0,0,0,0.0,0.21520154178142548,1.2021437883377075,0.7125756740570068,6.055814210431661,2.088191366345005,4.237914335495544,0.0,0.0,0.0,0.0,0.0,3.074470580170868,-2.0452709716840425,4.43215701426967,-0.00017933547496795654,-3.314018249511719e-05,2.2846191227436066,3.7978230714797974,0
2025-12-05 17:53:20.732801,0.0,0.0,1022.6,84.2,12.1,1.3,6917.6,567.6,26.2,0.00,0.00,0.00,0.00,0,0,0,0,0,0,0,0,0,0,0,0,0,0,0,0,0.0,0.21520154178142548,1.2021437883377075,0.7125756740570068,6.055814210431661,2.088191366345005,4.237914335495544,0.0,0.0,0.0,0.0,0.0,3.074470580170868,-2.0452709716840425,4.43215701426967,-0.00017933547496795654,-3.314018249511719e-05,2.2846191227436066,3.7978230714797974,0
2025-12-05 17:53:20.764239,0.0,0.0,1029.9,85.4,12.1,1.3,6917.7,567.6,26.2,0.00,0.00,0.00,0.00,0,0,0,0,0,0,0,0,0,0,0,0,0,0,0,0,0.0,0.21520154178142548,1.2021437883377075,0.7125756740570068,6.055814210431661,2.088191366345005,4.237914335495544,0.0,0.0,0.0,0.0,0.0,3.074470580170868,-2.0452709716840425,4.43215701426967,-0.00017933547496795654,-3.314018249511719e-05,2.2846191227436066,3.7978230714797974,0
2025-12-05 17:53:20.794925,0.0,0.0,1021.7,84.9,12.1,1.3,6917.7,567.6,26.2,0.00,0.00,0.00,0.00,0,0,0,0,0,0,0,0,0,0,0,0,0,0,0,0,0.0,0.21536637842655182,1.2021594047546387,0.712458074092865,6.069434198676698,2.095592169352346,4.2259918315078675,0.0,0.0,0.0,0.0,0.0,3.086423137006088,-2.0571934756717187,4.432058660680999,-1.449882984161377e-05,-1.7523765563964844e-05,2.2846191227436066,3.7978230714797974,0
2025-12-05 17:53:20.826480,0.0,0.0,1025.1,85.0,12.1,1.3,6917.8,567.6,26.2,0.00,0.00,0.00,0.00,0,0,0,0,0,0,0,0,0,0,0,0,0,0,0,0,0.0,0.21536637842655182,1.2021594047546387,0.712458074092865,6.069434198676698,2.095592169352346,4.2259918315078675,0.0,0.0,0.0,0.0,0.0,3.086423137006088,-2.0571934756717187,4.432058660680999,-1.449882984161377e-05,-1.7523765563964844e-05,2.2846191227436066,3.7978230714797974,0
2025-12-05 17:53:20.857784,0.0,0.0,1019.2,84.5,12.1,1.3,6917.9,567.6,26.2,0.00,0.00,0.00,0.00,0,0,0,0,0,0,0,0,0,0,0,0,0,0,0,0,0.0,0.21536637842655182,1.2021594047546387,0.712458074092865,6.069434198676698,2.095592169352346,4.2259918315078675,0.0,0.0,0.0,0.0,0.0,3.086423137006088,-2.0571934756717187,4.432058660680999,-1.449882984161377e-05,-1.7523765563964844e-05,2.2846191227436066,3.7978230714797974,0
2025-12-05 17:53:20.888592,0.0,0.0,1020.4,84.6,12.1,1.3,6917.9,567.6,26.2,0.00,0.00,0.00,0.00,0,0,0,0,0,0,0,0,0,0,0,0,0,0,0,0,0.0,0.21536226570606232,1.2021592855453491,0.7124831080436707,6.062019322900864,2.0962173132681983,4.2229586063555455,0.0,0.0,0.0,0.0,0.0,3.089455580862931,-2.060226700824041,4.432060882854516,-1.8611550331115723e-05,-1.7642974853515625e-05,2.2846191227436066,3.7978230714797974,0
2025-12-05 17:53:20.919653,0.0,0.0,1022.9,84.8,12.1,1.3,6918.0,567.6,26.2,0.00,0.00,0.00,0.00,0,0,0,0,0,0,0,0,0,0,0,0,0,0,0,0,0.0,0.21536226570606232,1.2021592855453491,0.7124831080436707,6.062019322900864,2.0962173132681983,4.2229586063555455,0.0,0.0,0.0,0.0,0.0,3.089455580862931,-2.060226700824041,4.432060882854516,-1.8611550331115723e-05,-1.7642974853515625e-05,2.2846191227436066,3.7978230714797974,0
2025-12-05 17:53:20.950769,0.0,0.0,1021.1,84.6,12.1,1.3,6918.0,567.6,26.2,0.00,0.00,0.00,0.00,0,0,0,0,0,0,0,0,0,0,0,0,0,0,0,0,0.0,0.21536226570606232,1.2021592855453491,0.7124831080436707,6.062019322900864,2.0962173132681983,4.2229586063555455,0.0,0.0,0.0,0.0,0.0,3.089455580862931,-2.060226700824041,4.432060882854516,-1.8611550331115723e-05,-1.7642974853515625e-05,2.2846191227436066,3.7978230714797974,0
2025-12-05 17:53:20.982115,0.0,0.0,1025.4,85.0,12.1,1.3,6918.1,567.6,26.2,0.00,0.00,0.00,0.00,0,0,0,0,0,0,0,0,0,0,0,0,0,0,0,0,0.0,0.21537663042545319,1.2021639347076416,0.7124596238136292,6.058857642460123,2.0953897785490487,4.222740689839382,0.0,0.0,0.0,0.0,0.0,3.089675733952499,-2.0604446173402047,4.43204949426803,-4.246830940246582e-06,-1.2993812561035156e-05,2.2846191227436066,3.7978230714797974,0
2025-12-05 17:53:21.013473,0.0,0.0,1018.1,84.4,12.1,1.3,6918.2,567.6,26.2,0.00,0.00,0.00,0.00,0,0,0,0,0,0,0,0,0,0,0,0,0,0,0,0,0.0,0.21537663042545319,1.2021639347076416,0.7124596238136292,6.058857642460123,2.0953897785490487,4.222740689839382,0.0,0.0,0.0,0.0,0.0,3.089675733952499,-2.0604446173402047,4.43204949426803,-4.246830940246582e-06,-1.2993812561035156e-05,2.2846191227436066,3.7978230714797974,0
2025-12-05 17:53:21.044524,0.0,0.0,1021.2,84.6,12.1,1.3,6918.2,567.6,26.2,0.00,0.00,0.00,0.00,0,0,0,0,0,0,0,0,0,0,0,0,0,0,0,0,0.0,0.21537663042545319,1.2021639347076416,0.7124596238136292,6.058857642460123,2.0953897785490487,4.222740689839382,0.0,0.0,0.0,0.0,0.0,3.089675733952499,-2.0604446173402047,4.43204949426803,-4.246830940246582e-06,-1.2993812561035156e-05,2.2846191227436066,3.7978230714797974,0
2025-12-05 17:53:21.075434,0.0,0.0,1025.3,85.0,12.1,1.3,6918.3,567.6,26.2,0.00,0.00,0.00,0.00,0,0,0,0,0,0,0,0,0,0,0,0,0,0,0,0,0.0,0.21537663042545319,1.2021639347076416,0.7124596238136292,6.058857642460123,2.0953897785490487,4.222740689839382,0.0,0.0,0.0,0.0,0.0,3.089675733952499,-2.0604446173402047,4.43204949426803,-4.246830940246582e-06,-1.2993812561035156e-05,2.2846191227436066,3.7978230714797974,0
2025-12-05 17:53:21.106041,0.0,0.0,1021.1,84.6,12.1,1.3,6918.4,567.6,26.2,0.00,0.00,0.00,0.00,0,0,0,0,0,0,0,0,0,0,0,0,0,0,0,0,0.0,0.21536856889724731,1.2021678686141968,0.7124619483947754,6.059631996559206,2.093610090947821,4.227398964971497,0.0,0.0,0.0,0.0,0.0,3.0850154426454637,-2.0557863422080893,4.432050278840375,-1.2308359146118164e-05,-9.059906005859375e-06,2.2846191227436066,3.7978230714797974,0
2025-12-05 17:53:21.137278,0.0,0.0,1021.2,84.6,12.1,1.3,6918.4,567.6,26.2,0.00,0.00,0.00,0.00,0,0,0,0,0,0,0,0,0,0,0,0,0,0,0,0,0.0,0.21536856889724731,1.2021678686141968,0.7124619483947754,6.059631996559206,2.093610090947821,4.227398964971497,0.0,0.0,0.0,0.0,0.0,3.0850154426454637,-2.0557863422080893,4.432050278840375,-1.2308359146118164e-05,-9.059906005859375e-06,2.2846191227436066,3.7978230714797974,0
2025-12-05 17:53:21.168711,0.0,0.0,1016.1,84.2,12.1,1.3,6918.5,567.6,26.2,0.00,0.00,0.00,0.00,0,0,0,0,0,0,0,0,0,0,0,0,0,0,0,0,0.0,0.21536856889724731,1.2021678686141968,0.7124619483947754,6.059631996559206,2.093610090947821,4.227398964971497,0.0,0.0,0.0,0.0,0.0,3.0850154426454637,-2.0557863422080893,4.432050278840375,-1.2308359146118164e-05,-9.059906005859375e-06,2.2846191227436066,3.7978230714797974,0
2025-12-05 17:53:21.200023,0.0,0.0,1012.8,83.9,12.1,1.3,6918.5,567.6,26.2,0.00,0.00,0.00,0.00,0,0,0,0,0,0,0,0,0,0,0,0,0,0,0,0,0.0,0.21537427604198456,1.2021734714508057,0.7124761343002319,6.071112315795212,2.090133443514842,4.226388229624858,0.0,0.0,0.0,0.0,0.0,3.0860266297736576,-2.056797077554729,4.432042535843119,-6.601214408874512e-06,-3.4570693969726562e-06,2.2846191227436066,3.7978230714797974,0
2025-12-05 17:53:21.230920,0.0,0.0,1022.5,84.7,12.1,1.3,6918.6,567.6,26.2,0.00,0.00,0.00,0.00,0,0,0,0,0,0,0,0,0,0,0,0,0,0,0,0,0.0,0.21537427604198456,1.2021734714508057,0.7124761343002319,6.071112315795212,2.090133443514842,4.226388229624858,0.0,0.0,0.0,0.0,0.0,3.0860266297736576,-2.056797077554729,4.432042535843119,-6.601214408874512e-06,-3.4570693969726562e-06,2.2846191227436066,3.7978230714797974,0
2025-12-05 17:53:21.262241,0.0,0.0,1020.3,84.6,12.1,1.3,6918.7,567.7,26.2,0.00,0.00,0.00,0.00,0,0,0,0,0,0,0,0,0,0,0,0,0,0,0,0,0.0,0.21537427604198456,1.2021734714508057,0.7124761343002319,6.071112315795212,2.090133443514842,4.226388229624858,0.0,0.0,0.0,0.0,0.0,3.0860266297736576,-2.056797077554729,4.432042535843119,-6.601214408874512e-06,-3.4570693969726562e-06,2.2846191227436066,3.7978230714797974,0
2025-12-05 17:53:21.293127,0.0,0.0,1022.2,84.7,12.1,1.3,6918.7,567.7,26.2,0.00,0.00,0.00,0.00,0,0,0,0,0,0,0,0,0,0,0,0,0,0,0,0,0.0,0.2151903212070465,1.2021520137786865,0.7125833630561829,6.0618421696886085,2.0863641887987825,4.238670151661422,0.0,0.0,0.0,0.0,0.0,3.0737116379832488,-2.0445151555181647,4.432155750281261,-0.00019055604934692383,-2.491474151611328e-05,2.2846191227436066,3.7978230714797974,0
2025-12-05 17:53:21.324286,0.0,0.0,1029.3,85.3,12.1,1.3,6918.8,567.7,26.2,0.00,0.00,0.00,0.00,0,0,0,0,0,0,0,0,0,0,0,0,0,0,0,0,0.0,0.2151903212070465,1.2021520137786865,0.7125833630561829,6.0618421696886085,2.0863641887987825,4.238670151661422,0.0,0.0,0.0,0.0,0.0,3.0737116379832488,-2.0445151555181647,4.432155750281261,-0.00019055604934692383,-2.491474151611328e-05,2.2846191227436066,3.7978230714797974,0
2025-12-05 17:53:21.355394,0.0,0.0,1024.5,84.9,12.1,1.3,6918.8,567.7,26.2,0.00,0.00,0.00,0.00,0,0,0,0,0,0,0,0,0,0,0,0,0,0,0,0,0.0,0.2151903212070465,1.2021520137786865,0.7125833630561829,6.0618421696886085,2.0863641887987825,4.238670151661422,0.0,0.0,0.0,0.0,0.0,3.0737116379832488,-2.0445151555181647,4.432155750281261,-0.00019055604934692383,-2.491474151611328e-05,2.2846191227436066,3.7978230714797974,0
2025-12-05 17:53:21.386752,0.0,0.0,1028.1,85.2,12.1,1.3,6918.9,567.7,26.2,0.00,0.00,0.00,0.00,0,0,0,0,0,0,0,0,0,0,0,0,0,0,0,0,0.0,0.2151903212070465,1.2021520137786865,0.7125833630561829,6.0618421696886085,2.0863641887987825,4.238670151661422,0.0,0.0,0.0,0.0,0.0,3.0737116379832488,-2.0445151555181647,4.432155750281261,-0.00019055604934692383,-2.491474151611328e-05,2.2846191227436066,3.7978230714797974,0
2025-12-05 17:53:21.418155,0.0,0.0,1022.8,84.8,12.1,1.3,6919.0,567.7,26.2,0.00,0.00,0.00,0.00,0,0,0,0,0,0,0,0,0,0,0,0,0,0,0,0,0.0,0.21517729759216309,1.2021539211273193,0.7125725746154785,6.05486249848334,2.088294974151208,4.239314236776265,0.0,0.0,0.0,0.0,0.0,3.073064813122737,-2.0438710704033216,4.432160829690958,-0.00020357966423034668,-2.300739288330078e-05,2.2846191227436066,3.7978230714797974,0
2025-12-05 17:53:21.449232,0.0,0.0,1025.1,84.7,12.1,1.3,6919.0,567.7,26.2,0.00,0.00,0.00,0.00,0,0,0,0,0,0,0,0,0,0,0,0,0,0,0,0,0.0,0.21517729759216309,1.2021539211273193,0.7125725746154785,6.05486249848334,2.088294974151208,4.239314236776265,0.0,0.0,0.0,0.0,0.0,3.073064813122737,-2.0438710704033216,4.432160829690958,-0.00020357966423034668,-2.300739288330078e-05,2.2846191227436066,3.7978230714797974,0
2025-12-05 17:53:21.480457,0.0,0.0,1021.7,84.7,12.1,1.3,6919.1,567.7,26.2,0.00,0.00,0.00,0.00,0,0,0,0,0,0,0,0,0,0,0,0,0,0,0,0,0.0,0.21517729759216309,1.2021539211273193,0.7125725746154785,6.05486249848334,2.088294974151208,4.239314236776265,0.0,0.0,0.0,0.0,0.0,3.073064813122737,-2.0438710704033216,4.432160829690958,-0.00020357966423034668,-2.300739288330078e-05,2.2846191227436066,3.7978230714797974,0
2025-12-05 17:53:21.511708,0.0,0.0,1020.0,84.6,12.1,1.3,6919.1,567.7,26.2,0.00,0.00,0.00,0.00,0,0,0,0,0,0,0,0,0,0,0,0,0,0,0,0,0.0,0.21517707407474518,1.2021596431732178,0.7125571966171265,6.052188833597917,2.088467576445432,4.240923431591922,0.0,0.0,0.0,0.0,0.0,3.0714549095550447,-2.042261875587665,4.432156041790025,-0.0002038031816482544,-1.728534698486328e-05,2.2846191227436066,3.7978230714797974,0
2025-12-05 17:53:21.542620,0.0,0.0,1031.4,85.5,12.1,1.3,6919.2,567.7,26.2,0.00,0.00,0.00,0.00,0,0,0,0,0,0,0,0,0,0,0,0,0,0,0,0,0.0,0.21517707407474518,1.2021596431732178,0.7125571966171265,6.052188833597917,2.088467576445432,4.240923431591922,0.0,0.0,0.0,0.0,0.0,3.0714549095550447,-2.042261875587665,4.432156041790025,-0.0002038031816482544,-1.728534698486328e-05,2.2846191227436066,3.7978230714797974,0
2025-12-05 17:53:21.573938,0.0,0.0,1024.9,85.0,12.1,1.3,6919.3,567.7,26.2,0.00,0.00,0.00,0.00,0,0,0,0,0,0,0,0,0,0,0,0,0,0,0,0,0.0,0.21517707407474518,1.2021596431732178,0.7125571966171265,6.052188833597917,2.088467576445432,4.240923431591922,0.0,0.0,0.0,0.0,0.0,3.0714549095550447,-2.042261875587665,4.432156041790025,-0.0002038031816482544,-1.728534698486328e-05,2.2846191227436066,3.7978230714797974,0
2025-12-05 17:53:21.605302,0.0,0.0,1024.8,84.9,12.1,1.3,6919.3,567.7,26.2,0.00,0.00,0.00,0.00,0,0,0,0,0,0,0,0,0,0,0,0,0,0,0,0,0.0,0.2153812199831009,1.2021361589431763,0.7125003337860107,6.05334784027628,2.1032028620753547,4.216094680145046,0.0,0.0,0.0,0.0,0.0,3.0963258614953655,-2.0670906270345406,4.432070929623396,3.427267074584961e-07,-4.076957702636719e-05,2.2846191227436066,3.7978230714797974,0
2025-12-05 17:53:21.636722,0.0,0.0,1021.5,84.7,12.1,1.3,6919.4,567.7,26.2,0.00,0.00,0.00,0.00,0,0,0,0,0,0,0,0,0,0,0,0,0,0,0,0,0.0,0.2153812199831009,1.2021361589431763,0.7125003337860107,6.05334784027628,2.1032028620753547,4.216094680145046,0.0,0.0,0.0,0.0,0.0,3.0963258614953655,-2.0670906270345406,4.432070929623396,3.427267074584961e-07,-4.076957702636719e-05,2.2846191227436066,3.7978230714797974,0
2025-12-05 17:53:21.668056,0.0,0.0,1020.6,84.6,12.1,1.3,6919.4,567.7,26.2,0.00,0.00,0.00,0.00,0,0,0,0,0,0,0,0,0,0,0,0,0,0,0,0,0.0,0.2153812199831009,1.2021361589431763,0.7125003337860107,6.05334784027628,2.1032028620753547,4.216094680145046,0.0,0.0,0.0,0.0,0.0,3.0963258614953655,-2.0670906270345406,4.432070929623396,3.427267074584961e-07,-4.076957702636719e-05,2.2846191227436066,3.7978230714797974,0
2025-12-05 17:53:21.698705,0.0,0.0,1020.1,84.6,12.1,1.3,6919.5,567.7,26.2,0.00,0.00,0.00,0.00,0,0,0,0,0,0,0,0,0,0,0,0,0,0,0,0,0.0,0.2153812199831009,1.2021361589431763,0.7125003337860107,6.05334784027628,2.1032028620753547,4.216094680145046,0.0,0.0,0.0,0.0,0.0,3.0963258614953655,-2.0670906270345406,4.432070929623396,3.427267074584961e-07,-4.076957702636719e-05,2.2846191227436066,3.7978230714797974,0
2025-12-05 17:53:21.729744,0.0,0.0,1024.8,84.9,12.1,1.3,6919.6,567.7,26.2,0.00,0.00,0.00,0.00,0,0,0,0,0,0,0,0,0,0,0,0,0,0,0,0,0.0,0.21538418531417847,1.2021523714065552,0.7124679684638977,6.057628909914702,2.094639987969715,4.220991161366738,0.0,0.0,0.0,0.0,0.0,3.091428067992826,-2.0621941458128483,4.432055508533869,3.3080577850341797e-06,-2.4557113647460938e-05,2.2846191227436066,3.7978230714797974,0
2025-12-05 17:53:21.761249,0.0,0.0,1022.3,84.7,12.1,1.3,6919.6,567.7,26.2,0.00,0.00,0.00,0.00,0,0,0,0,0,0,0,0,0,0,0,0,0,0,0,0,0.0,0.21538418531417847,1.2021523714065552,0.7124679684638977,6.057628909914702,2.094639987969715,4.220991161366738,0.0,0.0,0.0,0.0,0.0,3.091428067992826,-2.0621941458128483,4.432055508533869,3.3080577850341797e-06,-2.4557113647460938e-05,2.2846191227436066,3.7978230714797974,0
2025-12-05 17:53:21.792765,0.0,0.0,1030.6,85.4,12.1,1.3,6919.7,567.7,26.2,0.00,0.00,0.00,0.00,0,0,0,0,0,0,0,0,0,0,0,0,0,0,0,0,0.0,0.21538418531417847,1.2021523714065552,0.7124679684638977,6.057628909914702,2.094639987969715,4.220991161366738,0.0,0.0,0.0,0.0,0.0,3.091428067992826,-2.0621941458128483,4.432055508533869,3.3080577850341797e-06,-2.4557113647460938e-05,2.2846191227436066,3.7978230714797974,0
2025-12-05 17:53:21.824185,0.0,0.0,1019.0,84.5,12.1,1.3,6919.7,567.7,26.2,0.00,0.00,0.00,0.00,0,0,0,0,0,0,0,0,0,0,0,0,0,0,0,0,0.0,0.21536628901958466,1.2021631002426147,0.7124708294868469,6.057611544881572,2.0985358959252087,4.2228451934439715,0.0,0.0,0.0,0.0,0.0,3.089569327972733,-2.0603401137356148,4.432055540097273,-1.4588236808776855e-05,-1.3828277587890625e-05,2.2846191227436066,3.7978230714797974,0
2025-12-05 17:53:21.855058,0.0,0.0,1026.6,85.1,12.1,1.3,6919.8,567.7,26.2,0.00,0.00,0.00,0.00,0,0,0,0,0,0,0,0,0,0,0,0,0,0,0,0,0.0,0.21536628901958466,1.2021631002426147,0.7124708294868469,6.057611544881572,2.0985358959252087,4.2228451934439715,0.0,0.0,0.0,0.0,0.0,3.089569327972733,-2.0603401137356148,4.432055540097273,-1.4588236808776855e-05,-1.3828277587890625e-05,2.2846191227436066,3.7978230714797974,0
2025-12-05 17:53:21.886489,0.0,0.0,1026.1,85.0,12.1,1.3,6919.9,567.8,26.2,0.00,0.00,0.00,0.00,0,0,0,0,0,0,0,0,0,0,0,0,0,0,0,0,0.0,0.21536628901958466,1.2021631002426147,0.7124708294868469,6.057611544881572,2.0985358959252087,4.2228451934439715,0.0,0.0,0.0,0.0,0.0,3.089569327972733,-2.0603401137356148,4.432055540097273,-1.4588236808776855e-05,-1.3828277587890625e-05,2.2846191227436066,3.7978230714797974,0
2025-12-05 17:53:21.917839,0.0,0.0,1020.8,84.3,12.1,1.3,6919.9,567.8,26.2,0.00,0.00,0.00,0.00,0,0,0,0,0,0,0,0,0,0,0,0,0,0,0,0,0.0,0.2151728719472885,1.2021586894989014,0.7125607132911682,6.052475338374377,2.0883102548080474,4.24312634461104,0.0,0.0,0.0,0.0,0.0,3.0692512950485513,-2.0400589625685464,4.432159025219459,-0.00020800530910491943,-1.823902130126953e-05,2.2846191227436066,3.7978230714797974,0
2025-12-05 17:53:21.948503,0.0,0.0,1020.4,84.6,12.1,1.3,6920.0,567.8,26.2,0.00,0.00,0.00,0.00,0,0,0,0,0,0,0,0,0,0,0,0,0,0,0,0,0.0,0.2151728719472885,1.2021586894989014,0.7125607132911682,6.052475338374377,2.0883102548080474,4.24312634461104,0.0,0.0,0.0,0.0,0.0,3.0692512950485513,-2.0400589625685464,4.432159025219459,-0.00020800530910491943,-1.823902130126953e-05,2.2846191227436066,3.7978230714797974,0
2025-12-05 17:53:21.979749,0.0,0.0,1025.3,84.7,12.1,1.3,6920.0,567.8,26.2,0.00,0.00,0.00,0.00,0,0,0,0,0,0,0,0,0,0,0,0,0,0,0,0,0.0,0.2151728719472885,1.2021586894989014,0.7125607132911682,6.052475338374377,2.0883102548080474,4.24312634461104,0.0,0.0,0.0,0.0,0.0,3.0692512950485513,-2.0400589625685464,4.432159025219459,-0.00020800530910491943,-1.823902130126953e-05,2.2846191227436066,3.7978230714797974,0
2025-12-05 17:53:22.011083,0.0,0.0,1020.4,84.6,12.1,1.3,6920.1,567.8,26.2,0.00,0.00,0.00,0.00,0,0,0,0,0,0,0,0,0,0,0,0,0,0,0,0,0.0,0.2151728719472885,1.2021586894989014,0.7125607132911682,6.052475338374377,2.0883102548080474,4.24312634461104,0.0,0.0,0.0,0.0,0.0,3.0692512950485513,-2.0400589625685464,4.432159025219459,-0.00020800530910491943,-1.823902130126953e-05,2.2846191227436066,3.7978230714797974,0
2025-12-05 17:53:22.042500,0.0,0.0,1023.1,84.8,12.1,1.3,6920.2,567.8,26.2,0.00,0.00,0.00,0.00,0,0,0,0,0,0,0,0,0,0,0,0,0,0,0,0,0.0,0.2153455764055252,1.202185869216919,0.7124688625335693,6.0603904127482835,2.0952137274050213,4.228110394059142,0.0,0.0,0.0,0.0,0.0,3.084297474535545,-2.055074913120445,4.432046706345213,-3.53008508682251e-05,8.940696716308594e-06,2.2846191227436066,3.7978230714797974,0
2025-12-05 17:53:22.073931,0.0,0.0,1025.4,85.0,12.1,1.3,6920.2,567.8,26.2,0.00,0.00,0.00,0.00,0,0,0,0,0,0,0,0,0,0,0,0,0,0,0,0,0.0,0.2153455764055252,1.202185869216919,0.7124688625335693,6.0603904127482835,2.0952137274050213,4.228110394059142,0.0,0.0,0.0,0.0,0.0,3.084297474535545,-2.055074913120445,4.432046706345213,-3.53008508682251e-05,8.940696716308594e-06,2.2846191227436066,3.7978230714797974,0
2025-12-05 17:53:22.104614,0.0,0.0,1025.4,85.0,12.1,1.3,6920.3,567.8,26.2,0.00,0.00,0.00,0.00,0,0,0,0,0,0,0,0,0,0,0,0,0,0,0,0,0.0,0.2153455764055252,1.202185869216919,0.7124688625335693,6.0603904127482835,2.0952137274050213,4.228110394059142,0.0,0.0,0.0,0.0,0.0,3.084297474535545,-2.055074913120445,4.432046706345213,-3.53008508682251e-05,8.940696716308594e-06,2.2846191227436066,3.7978230714797974,0
2025-12-05 17:53:22.135991,0.0,0.0,1026.6,85.1,12.1,1.3,6920.3,567.8,26.2,0.00,0.00,0.00,0.00,0,0,0,0,0,0,0,0,0,0,0,0,0,0,0,0,0.0,0.21516846120357513,1.2021409273147583,0.7125800251960754,6.053105071714372,2.0917332108774653,4.23974349223637,0.0,0.0,0.0,0.0,0.0,3.0726353606221957,-2.043441814943217,4.432176519122004,-0.00021241605281829834,-3.600120544433594e-05,2.2846191227436066,3.7978230714797974,0
2025-12-05 17:53:22.166849,0.0,0.0,1026.1,85.0,12.1,1.3,6920.4,567.8,26.2,0.00,0.00,0.00,0.00,0,0,0,0,0,0,0,0,0,0,0,0,0,0,0,0,0.0,0.21516846120357513,1.2021409273147583,0.7125800251960754,6.053105071714372,2.0917332108774653,4.23974349223637,0.0,0.0,0.0,0.0,0.0,3.0726353606221957,-2.043441814943217,4.432176519122004,-0.00021241605281829834,-3.600120544433594e-05,2.2846191227436066,3.7978230714797974,0
2025-12-05 17:53:22.197714,0.0,0.0,1021.7,84.7,12.1,1.3,6920.5,567.8,26.2,0.00,0.00,0.00,0.00,0,0,0,0,0,0,0,0,0,0,0,0,0,0,0,0,0.0,0.21516846120357513,1.2021409273147583,0.7125800251960754,6.053105071714372,2.0917332108774653,4.23974349223637,0.0,0.0,0.0,0.0,0.0,3.0726353606221957,-2.043441814943217,4.432176519122004,-0.00021241605281829834,-3.600120544433594e-05,2.2846191227436066,3.7978230714797974,0
2025-12-05 17:53:22.229022,0.0,0.0,1027.7,85.3,12.1,1.3,6920.5,567.8,26.2,0.00,0.00,0.00,0.00,0,0,0,0,0,0,0,0,0,0,0,0,0,0,0,0,0.0,0.21535825729370117,1.202156662940979,0.7124752402305603,6.057889031434435,2.0998709113625633,4.222053530869813,0.0,0.0,0.0,0.0,0.0,3.0903601863835437,-2.061131776309774,4.432065196424763,-2.2619962692260742e-05,-2.0265579223632812e-05,2.2846191227436066,3.7978230714797974,0
2025-12-05 17:53:22.259653,0.0,0.0,1025.4,85.0,12.1,1.3,6920.6,567.8,26.2,0.00,0.00,0.00,0.00,0,0,0,0,0,0,0,0,0,0,0,0,0,0,0,0,0.0,0.21535825729370117,1.202156662940979,0.7124752402305603,6.057889031434435,2.0998709113625633,4.222053530869813,0.0,0.0,0.0,0.0,0.0,3.0903601863835437,-2.061131776309774,4.432065196424763,-2.2619962692260742e-05,-2.0265579223632812e-05,2.2846191227436066,3.7978230714797974,0
2025-12-05 17:53:22.291168,0.0,0.0,1027.8,84.9,12.1,1.3,6920.7,567.8,26.2,0.00,0.00,0.00,0.00,0,0,0,0,0,0,0,0,0,0,0,0,0,0,0,0,0.0,0.21535825729370117,1.202156662940979,0.7124752402305603,6.057889031434435,2.0998709113625633,4.222053530869813,0.0,0.0,0.0,0.0,0.0,3.0903601863835437,-2.061131776309774,4.432065196424763,-2.2619962692260742e-05,-2.0265579223632812e-05,2.2846191227436066,3.7978230714797974,0
2025-12-05 17:53:22.322525,0.0,0.0,1022.5,84.8,12.1,1.3,6920.7,567.8,26.2,0.00,0.00,0.00,0.00,0,0,0,0,0,0,0,0,0,0,0,0,0,0,0,0,0.0,0.21535825729370117,1.202156662940979,0.7124752402305603,6.057889031434435,2.0998709113625633,4.222053530869813,0.0,0.0,0.0,0.0,0.0,3.0903601863835437,-2.061131776309774,4.432065196424763,-2.2619962692260742e-05,-2.0265579223632812e-05,2.2846191227436066,3.7978230714797974,0
2025-12-05 17:53:22.353222,0.0,0.0,1030.1,84.6,12.1,1.3,6920.8,567.8,26.2,0.00,0.00,0.00,0.00,0,0,0,0,0,0,0,0,0,0,0,0,0,0,0,0,0.0,0.215366393327713,1.2021706104278564,0.7124712467193604,6.067027006420209,2.0917704227166407,4.227837430420278,0.0,0.0,0.0,0.0,0.0,3.0845762376745096,-2.055347876759308,4.432049050838037,-1.4483928680419922e-05,-6.318092346191406e-06,2.2846191227436066,3.7978230714797974,0
2025-12-05 17:53:22.384660,0.0,0.0,1017.9,84.4,12.1,1.3,6920.8,567.8,26.2,0.00,0.00,0.00,0.00,0,0,0,0,0,0,0,0,0,0,0,0,0,0,0,0,0.0,0.215366393327713,1.2021706104278564,0.7124712467193604,6.067027006420209,2.0917704227166407,4.227837430420278,0.0,0.0,0.0,0.0,0.0,3.0845762376745096,-2.055347876759308,4.432049050838037,-1.4483928680419922e-05,-6.318092346191406e-06,2.2846191227436066,3.7978230714797974,0
2025-12-05 17:53:22.415520,0.0,0.0,1022.2,84.7,12.1,1.3,6920.9,567.8,26.2,0.00,0.00,0.00,0.00,0,0,0,0,0,0,0,0,0,0,0,0,0,0,0,0,0.0,0.215366393327713,1.2021706104278564,0.7124712467193604,6.067027006420209,2.0917704227166407,4.227837430420278,0.0,0.0,0.0,0.0,0.0,3.0845762376745096,-2.055347876759308,4.432049050838037,-1.4483928680419922e-05,-6.318092346191406e-06,2.2846191227436066,3.7978230714797974,0
2025-12-05 17:53:22.447017,0.0,0.0,1014.6,84.1,12.1,1.3,6921.0,567.8,26.2,0.00,0.00,0.00,0.00,0,0,0,0,0,0,0,0,0,0,0,0,0,0,0,0,0.0,0.2151617556810379,1.202167272567749,0.7125698328018188,6.06288499124859,2.082415975931367,4.248310666028543,0.0,0.0,0.0,0.0,0.0,3.064063826178364,-2.034874641151044,4.432157401114952,-0.00021912157535552979,-9.655952453613281e-06,2.2846191227436066,3.7978230714797974,0
2025-12-05 17:53:22.477655,0.0,0.0,1021.9,84.7,12.1,1.3,6921.0,567.8,26.2,0.00,0.00,0.00,0.00,0,0,0,0,0,0,0,0,0,0,0,0,0,0,0,0,0.0,0.2151617556810379,1.202167272567749,0.7125698328018188,6.06288499124859,2.082415975931367,4.248310666028543,0.0,0.0,0.0,0.0,0.0,3.064063826178364,-2.034874641151044,4.432157401114952,-0.00021912157535552979,-9.655952453613281e-06,2.2846191227436066,3.7978230714797974,0
2025-12-05 17:53:22.508840,0.0,0.0,1019.9,84.5,12.1,1.3,6921.1,567.9,26.2,0.00,0.00,0.00,0.00,0,0,0,0,0,0,0,0,0,0,0,0,0,0,0,0,0.0,0.2151617556810379,1.202167272567749,0.7125698328018188,6.06288499124859,2.082415975931367,4.248310666028543,0.0,0.0,0.0,0.0,0.0,3.064063826178364,-2.034874641151044,4.432157401114952,-0.00021912157535552979,-9.655952453613281e-06,2.2846191227436066,3.7978230714797974,0
2025-12-05 17:53:22.539603,0.0,0.0,1028.6,85.3,12.1,1.3,6921.1,567.9,26.2,0.00,0.00,0.00,0.00,0,0,0,0,0,0,0,0,0,0,0,0,0,0,0,0,0.0,0.21518437564373016,1.2021644115447998,0.7125736474990845,6.063134379637884,2.083780036232075,4.242817148704871,0.0,0.0,0.0,0.0,0.0,3.0695620494636953,-2.0403681584747155,4.432148191818431,-0.00019650161266326904,-1.2516975402832031e-05,2.2846191227436066,3.7978230714797974,0
2025-12-05 17:53:22.570490,0.0,0.0,1019.3,84.5,12.1,1.3,6921.2,567.9,26.2,0.00,0.00,0.00,0.00,0,0,0,0,0,0,0,0,0,0,0,0,0,0,0,0,0.0,0.21518437564373016,1.2021644115447998,0.7125736474990845,6.063134379637884,2.083780036232075,4.242817148704871,0.0,0.0,0.0,0.0,0.0,3.0695620494636953,-2.0403681584747155,4.432148191818431,-0.00019650161266326904,-1.2516975402832031e-05,2.2846191227436066,3.7978230714797974,0
2025-12-05 17:53:22.601992,0.0,0.0,1013.5,84.0,12.1,1.3,6921.3,567.9,26.2,0.00,0.00,0.00,0.00,0,0,0,0,0,0,0,0,0,0,0,0,0,0,0,0,0.0,0.21518437564373016,1.2021644115447998,0.7125736474990845,6.063134379637884,2.083780036232075,4.242817148704871,0.0,0.0,0.0,0.0,0.0,3.0695620494636953,-2.0403681584747155,4.432148191818431,-0.00019650161266326904,-1.2516975402832031e-05,2.2846191227436066,3.7978230714797974,0
2025-12-05 17:53:22.633015,0.0,0.0,1020.7,84.6,12.1,1.3,6921.3,567.9,26.2,0.00,0.00,0.00,0.00,0,0,0,0,0,0,0,0,0,0,0,0,0,0,0,0,0.0,0.21518437564373016,1.2021644115447998,0.7125736474990845,6.063134379637884,2.083780036232075,4.242817148704871,0.0,0.0,0.0,0.0,0.0,3.0695620494636953,-2.0403681584747155,4.432148191818431,-0.00019650161266326904,-1.2516975402832031e-05,2.2846191227436066,3.7978230714797974,0
2025-12-05 17:53:22.663952,0.0,0.0,1017.8,84.4,12.1,1.3,6921.4,567.9,26.2,0.00,0.00,0.00,0.00,0,0,0,0,0,0,0,0,0,0,0,0,0,0,0,0,0.0,0.2152220755815506,1.2021496295928955,0.7125770449638367,6.068200414487782,2.0832628014158896,4.234025821435308,0.0,0.0,0.0,0.0,0.0,3.078362384727179,-2.0491594857442785,4.432141423726375,-0.00015880167484283447,-2.7298927307128906e-05,2.2846191227436066,3.7978230714797974,0
2025-12-05 17:53:22.695378,0.0,0.0,1025.3,85.0,12.1,1.3,6921.4,567.9,26.2,0.00,0.00,0.00,0.00,0,0,0,0,0,0,0,0,0,0,0,0,0,0,0,0,0.0,0.2152220755815506,1.2021496295928955,0.7125770449638367,6.068200414487782,2.0832628014158896,4.234025821435308,0.0,0.0,0.0,0.0,0.0,3.078362384727179,-2.0491594857442785,4.432141423726375,-0.00015880167484283447,-2.7298927307128906e-05,2.2846191227436066,3.7978230714797974,0
2025-12-05 17:53:22.726793,0.0,0.0,1022.8,84.8,12.1,1.3,6921.5,567.9,26.2,0.00,0.00,0.00,0.00,0,0,0,0,0,0,0,0,0,0,0,0,0,0,0,0,0.0,0.2152220755815506,1.2021496295928955,0.7125770449638367,6.068200414487782,2.0832628014158896,4.234025821435308,0.0,0.0,0.0,0.0,0.0,3.078362384727179,-2.0491594857442785,4.432141423726375,-0.00015880167484283447,-2.7298927307128906e-05,2.2846191227436066,3.7978230714797974,0
2025-12-05 17:53:22.757779,0.0,0.0,1022.6,84.8,12.1,1.3,6921.6,567.9,26.2,0.00,0.00,0.00,0.00,0,0,0,0,0,0,0,0,0,0,0,0,0,0,0,0,0.0,0.21521800756454468,1.2021564245224,0.7125751972198486,6.073145093675264,2.084650382073261,4.238396446893047,0.0,0.0,0.0,0.0,0.0,3.0739901824600397,-2.04478886028654,4.4321376983069705,-0.00016286969184875488,-2.0503997802734375e-05,2.2846191227436066,3.7978230714797974,0
2025-12-05 17:53:22.788486,0.0,0.0,1020.4,84.6,12.1,1.3,6921.6,567.9,26.2,0.00,0.00,0.00,0.00,0,0,0,0,0,0,0,0,0,0,0,0,0,0,0,0,0.0,0.21521800756454468,1.2021564245224,0.7125751972198486,6.073145093675264,2.084650382073261,4.238396446893047,0.0,0.0,0.0,0.0,0.0,3.0739901824600397,-2.04478886028654,4.4321376983069705,-0.00016286969184875488,-2.0503997802734375e-05,2.2846191227436066,3.7978230714797974,0
2025-12-05 17:53:22.819151,0.0,0.0,1017.7,84.4,12.1,1.3,6921.7,567.9,26.2,0.00,0.00,0.00,0.00,0,0,0,0,0,0,0,0,0,0,0,0,0,0,0,0,0.0,0.21521800756454468,1.2021564245224,0.7125751972198486,6.073145093675264,2.084650382073261,4.238396446893047,0.0,0.0,0.0,0.0,0.0,3.0739901824600397,-2.04478886028654,4.4321376983069705,-0.00016286969184875488,-2.0503997802734375e-05,2.2846191227436066,3.7978230714797974,0
2025-12-05 17:53:22.850403,0.0,0.0,1026.6,85.1,12.1,1.3,6921.7,567.9,26.2,0.00,0.00,0.00,0.00,0,0,0,0,0,0,0,0,0,0,0,0,0,0,0,0,0.0,0.21521800756454468,1.2021564245224,0.7125751972198486,6.073145093675264,2.084650382073261,4.238396446893047,0.0,0.0,0.0,0.0,0.0,3.0739901824600397,-2.04478886028654,4.4321376983069705,-0.00016286969184875488,-2.0503997802734375e-05,2.2846191227436066,3.7978230714797974,0
2025-12-05 17:53:22.881697,0.0,0.0,1023.4,84.7,12.1,1.3,6921.8,567.9,26.2,0.00,0.00,0.00,0.00,0,0,0,0,0,0,0,0,0,0,0,0,0,0,0,0,0.0,0.21536535024642944,1.2021682262420654,0.7124631404876709,6.061183543912139,2.0945198972562653,4.224212232462248,0.0,0.0,0.0,0.0,0.0,3.088201511259528,-2.0589730747173385,4.432051631538148,-1.5527009963989258e-05,-8.702278137207031e-06,2.2846191227436066,3.7978230714797974,0
2025-12-05 17:53:22.912947,0.0,0.0,1022.4,84.7,12.1,1.3,6921.9,567.9,26.2,0.00,0.00,0.00,0.00,0,0,0,0,0,0,0,0,0,0,0,0,0,0,0,0,0.0,0.21536535024642944,1.2021682262420654,0.7124631404876709,6.061183543912139,2.0945198972562653,4.224212232462248,0.0,0.0,0.0,0.0,0.0,3.088201511259528,-2.0589730747173385,4.432051631538148,-1.5527009963989258e-05,-8.702278137207031e-06,2.2846191227436066,3.7978230714797974,0
2025-12-05 17:53:22.944193,0.0,0.0,1030.8,85.1,12.1,1.3,6921.9,567.9,26.2,0.00,0.00,0.00,0.00,0,0,0,0,0,0,0,0,0,0,0,0,0,0,0,0,0.0,0.21536535024642944,1.2021682262420654,0.7124631404876709,6.061183543912139,2.0945198972562653,4.224212232462248,0.0,0.0,0.0,0.0,0.0,3.088201511259528,-2.0589730747173385,4.432051631538148,-1.5527009963989258e-05,-8.702278137207031e-06,2.2846191227436066,3.7978230714797974,0
2025-12-05 17:53:22.975177,0.0,0.0,1021.9,84.7,12.1,1.3,6922.0,567.9,26.2,0.00,0.00,0.00,0.00,0,0,0,0,0,0,0,0,0,0,0,0,0,0,0,0,0.0,0.21539676189422607,1.202139973640442,0.7124927639961243,6.064471610527469,2.0982530479381905,4.217787150127078,0.0,0.0,0.0,0.0,0.0,3.0946359527521476,-2.0653981570525084,4.432059649348507,1.58846378326416e-05,-3.695487976074219e-05,2.2846191227436066,3.7978230714797974,0
2025-12-05 17:53:23.005840,0.0,0.0,1031.6,85.0,12.1,1.3,6922.0,567.9,26.2,0.00,0.00,0.00,0.00,0,0,0,0,0,0,0,0,0,0,0,0,0,0,0,0,0.0,0.21539676189422607,1.202139973640442,0.7124927639961243,6.064471610527469,2.0982530479381905,4.217787150127078,0.0,0.0,0.0,0.0,0.0,3.0946359527521476,-2.0653981570525084,4.432059649348507,1.58846378326416e-05,-3.695487976074219e-05,2.2846191227436066,3.7978230714797974,0
2025-12-05 17:53:23.037016,0.0,0.0,1025.1,85.0,12.1,1.3,6922.1,567.9,26.2,0.00,0.00,0.00,0.00,0,0,0,0,0,0,0,0,0,0,0,0,0,0,0,0,0.0,0.21539676189422607,1.202139973640442,0.7124927639961243,6.064471610527469,2.0982530479381905,4.217787150127078,0.0,0.0,0.0,0.0,0.0,3.0946359527521476,-2.0653981570525084,4.432059649348507,1.58846378326416e-05,-3.695487976074219e-05,2.2846191227436066,3.7978230714797974,0
2025-12-05 17:53:23.068584,0.0,0.0,1026.1,85.0,12.1,1.3,6922.2,567.9,26.2,0.00,0.00,0.00,0.00,0,0,0,0,0,0,0,0,0,0,0,0,0,0,0,0,0.0,0.21539676189422607,1.202139973640442,0.7124927639961243,6.064471610527469,2.0982530479381905,4.217787150127078,0.0,0.0,0.0,0.0,0.0,3.0946359527521476,-2.0653981570525084,4.432059649348507,1.58846378326416e-05,-3.695487976074219e-05,2.2846191227436066,3.7978230714797974,0
2025-12-05 17:53:23.099474,0.0,0.0,1030.2,85.4,12.1,1.3,6922.2,567.9,26.2,0.00,0.00,0.00,0.00,0,0,0,0,0,0,0,0,0,0,0,0,0,0,0,0,0.0,0.21539676189422607,1.202139973640442,0.7124927639961243,6.064471610527469,2.0982530479381905,4.217787150127078,0.0,0.0,0.0,0.0,0.0,3.0946359527521476,-2.0653981570525084,4.432059649348507,1.58846378326416e-05,-3.695487976074219e-05,2.2846191227436066,3.7978230714797974,0
2025-12-05 17:53:23.130104,0.0,0.0,1023.3,84.8,12.1,1.3,6922.3,568.0,26.2,0.00,0.00,0.00,0.00,0,0,0,0,0,0,0,0,0,0,0,0,0,0,0,0,0.0,0.21539676189422607,1.202139973640442,0.7124927639961243,6.064471610527469,2.0982530479381905,4.217787150127078,0.0,0.0,0.0,0.0,0.0,3.0946359527521476,-2.0653981570525084,4.432059649348507,1.58846378326416e-05,-3.695487976074219e-05,2.2846191227436066,3.7978230714797974,0
2025-12-05 17:53:23.161012,0.0,0.0,1021.5,84.7,12.1,1.3,6922.3,568.0,26.2,0.00,0.00,0.00,0.00,0,0,0,0,0,0,0,0,0,0,0,0,0,0,0,0,0.0,0.21539676189422607,1.202139973640442,0.7124927639961243,6.064471610527469,2.0982530479381905,4.217787150127078,0.0,0.0,0.0,0.0,0.0,3.0946359527521476,-2.0653981570525084,4.432059649348507,1.58846378326416e-05,-3.695487976074219e-05,2.2846191227436066,3.7978230714797974,0
2025-12-05 17:53:23.192602,0.0,0.0,1023.7,84.9,12.1,1.3,6922.4,568.0,26.2,0.00,0.00,0.00,0.00,0,0,0,0,0,0,0,0,0,0,0,0,0,0,0,0,0.0,0.21520839631557465,1.2021331787109375,0.7125905156135559,6.058731808568,2.091162114075767,4.236192256963333,0.0,0.0,0.0,0.0,0.0,3.076195217921695,-2.046993050216253,4.432162571986178,-0.00017248094081878662,-4.374980926513672e-05,2.2846191227436066,3.7978230714797974,0
2025-12-05 17:53:23.224038,0.0,0.0,1036.4,85.9,12.1,1.3,6922.5,568.0,26.2,0.00,0.00,0.00,0.00,0,0,0,0,0,0,0,0,0,0,0,0,0,0,0,0,0.0,0.21520839631557465,1.2021331787109375,0.7125905156135559,6.058731808568,2.091162114075767,4.236192256963333,0.0,0.0,0.0,0.0,0.0,3.076195217921695,-2.046993050216253,4.432162571986178,-0.00017248094081878662,-4.374980926513672e-05,2.2846191227436066,3.7978230714797974,0
2025-12-05 17:53:23.255237,0.0,0.0,1027.5,85.8,12.1,1.3,6922.5,568.0,26.2,0.00,0.00,0.00,0.00,0,0,0,0,0,0,0,0,0,0,0,0,0,0,0,0,0.0,0.21520839631557465,1.2021331787109375,0.7125905156135559,6.058731808568,2.091162114075767,4.236192256963333,0.0,0.0,0.0,0.0,0.0,3.076195217921695,-2.046993050216253,4.432162571986178,-0.00017248094081878662,-4.374980926513672e-05,2.2846191227436066,3.7978230714797974,0
2025-12-05 17:53:23.286536,0.0,0.0,1022.3,84.7,12.1,1.3,6922.6,568.0,26.2,0.00,0.00,0.00,0.00,0,0,0,0,0,0,0,0,0,0,0,0,0,0,0,0,0.0,0.21516238152980804,1.202172040939331,0.7125633955001831,6.0621223837099265,2.083328106051006,4.248501173893514,0.0,0.0,0.0,0.0,0.0,3.063872884690457,-2.034684133286073,4.432152992553333,-0.00021849572658538818,-4.887580871582031e-06,2.2846191227436066,3.7978230714797974,0
2025-12-05 17:53:23.318004,0.0,0.0,1031.1,85.5,12.1,1.3,6922.7,568.0,26.2,0.00,0.00,0.00,0.00,0,0,0,0,0,0,0,0,0,0,0,0,0,0,0,0,0.0,0.21516238152980804,1.202172040939331,0.7125633955001831,6.0621223837099265,2.083328106051006,4.248501173893514,0.0,0.0,0.0,0.0,0.0,3.063872884690457,-2.034684133286073,4.432152992553333,-0.00021849572658538818,-4.887580871582031e-06,2.2846191227436066,3.7978230714797974,0
2025-12-05 17:53:23.349610,0.0,0.0,1017.2,84.3,12.1,1.3,6922.7,568.0,26.2,0.00,0.00,0.00,0.00,0,0,0,0,0,0,0,0,0,0,0,0,0,0,0,0,0.0,0.21516238152980804,1.202172040939331,0.7125633955001831,6.0621223837099265,2.083328106051006,4.248501173893514,0.0,0.0,0.0,0.0,0.0,3.063872884690457,-2.034684133286073,4.432152992553333,-0.00021849572658538818,-4.887580871582031e-06,2.2846191227436066,3.7978230714797974,0
2025-12-05 17:53:23.380366,0.0,0.0,1021.1,84.6,12.1,1.3,6922.8,568.0,26.2,0.00,0.00,0.00,0.00,0,0,0,0,0,0,0,0,0,0,0,0,0,0,0,0,0.0,0.2152101695537567,1.2021543979644775,0.7125887870788574,6.065495383833314,2.0847392780833527,4.2398515623928414,0.0,0.0,0.0,0.0,0.0,3.07253378730936,-2.0433337447867452,4.432143475363938,-0.00017070770263671875,-2.2530555725097656e-05,2.2846191227436066,3.7978230714797974,0
2025-12-05 17:53:23.411773,0.0,0.0,1026.1,85.0,12.1,1.3,6922.8,568.0,26.2,0.00,0.00,0.00,0.00,0,0,0,0,0,0,0,0,0,0,0,0,0,0,0,0,0.0,0.2152101695537567,1.2021543979644775,0.7125887870788574,6.065495383833314,2.0847392780833527,4.2398515623928414,0.0,0.0,0.0,0.0,0.0,3.07253378730936,-2.0433337447867452,4.432143475363938,-0.00017070770263671875,-2.2530555725097656e-05,2.2846191227436066,3.7978230714797974,0
2025-12-05 17:53:23.442830,0.0,0.0,1024.4,84.9,12.1,1.3,6922.9,568.0,26.2,0.00,0.00,0.00,0.00,0,0,0,0,0,0,0,0,0,0,0,0,0,0,0,0,0.0,0.2152101695537567,1.2021543979644775,0.7125887870788574,6.065495383833314,2.0847392780833527,4.2398515623928414,0.0,0.0,0.0,0.0,0.0,3.07253378730936,-2.0433337447867452,4.432143475363938,-0.00017070770263671875,-2.2530555725097656e-05,2.2846191227436066,3.7978230714797974,0
2025-12-05 17:53:23.474212,0.0,0.0,1017.2,84.3,12.1,1.3,6923.0,568.0,26.2,0.00,0.00,0.00,0.00,0,0,0,0,0,0,0,0,0,0,0,0,0,0,0,0,0.0,0.2152101695537567,1.2021543979644775,0.7125887870788574,6.065495383833314,2.0847392780833527,4.2398515623928414,0.0,0.0,0.0,0.0,0.0,3.07253378730936,-2.0433337447867452,4.432143475363938,-0.00017070770263671875,-2.2530555725097656e-05,2.2846191227436066,3.7978230714797974,0
2025-12-05 17:53:23.505547,0.0,0.0,1028.4,85.2,12.1,1.3,6923.0,568.0,26.2,0.00,0.00,0.00,0.00,0,0,0,0,0,0,0,0,0,0,0,0,0,0,0,0,0.0,0.21521125733852386,1.2021582126617432,0.7125822901725769,6.063582296971069,2.0840087884292537,4.238117932537049,0.0,0.0,0.0,0.0,0.0,3.0742671837823785,-2.0450673746425374,4.432139645842091,-0.00016961991786956787,-1.8715858459472656e-05,2.2846191227436066,3.7978230714797974,0
2025-12-05 17:53:23.536571,0.0,0.0,1019.2,84.5,12.1,1.3,6923.1,568.0,26.2,0.00,0.00,0.00,0.00,0,0,0,0,0,0,0,0,0,0,0,0,0,0,0,0,0.0,0.21521125733852386,1.2021582126617432,0.7125822901725769,6.063582296971069,2.0840087884292537,4.238117932537049,0.0,0.0,0.0,0.0,0.0,3.0742671837823785,-2.0450673746425374,4.432139645842091,-0.00016961991786956787,-1.8715858459472656e-05,2.2846191227436066,3.7978230714797974,0
